code,district_code,regency_code,province_code,name,postal_code,latitude,longitude
5301042003,530104,5301,53,Bokonusan,85352,-10.227483835856,123.37960557878
5301042004,530104,5301,53,Otan,85352,-10.179288043411,123.39298592246
5301042005,530104,5301,53,Uitao,85352,-10.185717078478,123.41601796679
5301042006,530104,5301,53,Uiasa,85352,-10.151366972393,123.45322556132
5301042008,530104,5301,53,Hansisi,85352,-10.173347041969,123.48331018505
5301042009,530104,5301,53,Huilelot,85352,-10.206163283098,123.43561246413
5301042011,530104,5301,53,Batuinan,85352,-10.150891513673,123.40065907551
5301042013,530104,5301,53,Letbaun,85352,-10.146550606024,123.42056832129
5301051001,530105,5301,53,Oenesu,85351,-10.277708001472,123.57166020592
5301051002,530105,5301,53,Batakte,85351,-10.25756281858,123.55497352148
5301052003,530105,5301,53,"Manulai I",85351,-10.233838748764,123.56677451798
5301052004,530105,5301,53,Sumlili,85351,-10.311077119925,123.54587570587
5301052005,530105,5301,53,Lifuleo,85351,-10.337039932797,123.49055605703
5301052006,530105,5301,53,Tesabela,85351,-10.304316264784,123.50716936092
5301052007,530105,5301,53,Oematnunu,85351,-10.27864463844,123.53251124405
5301052008,530105,5301,53,Kuanheun,85351,-10.253682689417,123.51295355651
5301052009,530105,5301,53,Nitneo,85351,-10.225269219293,123.53159985819
5301052010,530105,5301,53,Bolok,85351,-10.234307766009,123.51322672753
5301052011,530105,5301,53,Tablolong,85351,-10.316262468074,123.48516300322
5301052012,530105,5301,53,Oenaek,85351,-10.288856762588,123.51574743837
5301061001,530106,5301,53,Babau,85362,-10.085663315881,123.79592096682
5301061003,530106,5301,53,Naibonat,85362,-10.088462102914,123.84546335853
5301061004,530106,5301,53,Oesao,85362,-10.115198238599,123.81212385847
5301061005,530106,5301,53,Merdeka,85362,-10.082061518654,123.77750765055
5301061008,530106,5301,53,Tuatuka,85362,-10.158963459362,123.83893604886
5301062002,530106,5301,53,Nunkurus,85362,-10.055645193626,123.83640563953
5301062006,530106,5301,53,Tuapukan,85362,-10.109622740062,123.77340060722
5301062007,530106,5301,53,Oefafi,85362,-10.151296405613,123.78781166127
5301062011,530106,5301,53,Pukdale,85362,-10.121202103375,123.83687257333
5301062015,530106,5301,53,Oesao,85362,-10.140247171621,123.81521248391
5301062016,530106,5301,53,Manusak,85362,-10.100945392601,123.88292862971
5301062017,530106,5301,53,"Tanah Putih",85362,-10.128408223244,123.76630608963
5301062018,530106,5301,53,Oelatimo,85362,-10.017430127577,123.84641077097
5301071001,530107,5301,53,Sulamu,85368,-10.01619491192,123.60377319823
5301072002,530107,5301,53,Pitai,85368,-9.9868627684075,123.65314208866
5301072003,530107,5301,53,Pariti,85368,-9.9892419652694,123.72511851812
5301072004,530107,5301,53,Oeteta,85368,-9.9942926831691,123.77085210524
5301072005,530107,5301,53,Bipolo,85368,-9.9950720740235,123.81301111482
5301072006,530107,5301,53,"Pantai Beringin",85368,-9.9940699391914,123.68279446345
5301072007,530107,5301,53,Pantulan,85368,-9.9700794780639,123.6061524864
5301081007,530108,5301,53,Tarus,85361,-10.142333467417,123.68693511081
5301082006,530108,5301,53,Oelnasi,85361,-10.165308589866,123.73133145692
5301082008,530108,5301,53,Noelbaki,85361,-10.127695707496,123.71311901063
5301082009,530108,5301,53,Oelpuah,85361,-10.156486796547,123.75736651958
5301082010,530108,5301,53,Oebelo,85361,-10.112423549671,123.75149276487
5301082011,530108,5301,53,"Penfui Timur",85361,-10.163484076725,123.69091155778
5301082012,530108,5301,53,"Tanah Merah",85361,-10.113158515967,123.73288674885
5301082013,530108,5301,53,"Mata Air",85361,-10.133103037954,123.69370193564
5301091002,530109,5301,53,Nonbes,85367,-10.195168788972,123.83113047802
5301092001,530109,5301,53,Oesena,85367,-10.215115831736,123.8063140781
5301092003,530109,5301,53,Ponain,85367,-10.21270910166,123.85907790455
5301092004,530109,5301,53,Kotabes,85367,-10.24613863486,123.83774365431
5301092005,530109,5301,53,Tesbatan,85367,-10.211905709043,123.88190445835
5301092006,530109,5301,53,Oenoni,85367,-10.211064420462,123.92874151067
5301092007,530109,5301,53,Apren,85367,-10.238101929798,123.94472533924
5301092008,530109,5301,53,"Oenoni II",85367,-10.194502392606,123.95593477921
5301092009,530109,5301,53,"Tesbatan II",85367,-10.212288365364,123.90079333144
5301101001,530110,5301,53,"Camplong I",85371,-10.04719758516,123.89964629292
5301102007,530110,5301,53,"Camplong II",85371,-10.015957974432,123.91451020112
5301102008,530110,5301,53,Naunnu,85371,-10.081213151572,123.92779649663
5301102009,530110,5301,53,Oebola,85371,-10.079600638835,124.0013406807
5301102010,530110,5301,53,Sillu,85371,-10.038373230568,124.04566454023
5301102011,530110,5301,53,Ekateta,85371,-9.9813450649552,123.95601746389
5301102012,530110,5301,53,Kuimasi,85371,-10.066744661458,123.88864206257
5301102013,530110,5301,53,Tolnaku,85371,-9.9924985569466,123.88916872331
5301102014,530110,5301,53,"Oebola Dalam",85371,-10.066402656381,123.950814096
5301102015,530110,5301,53,Kiuoni,85371,-9.9281889088473,123.94773640133
5301111007,530111,5301,53,Takari,85369,-9.9924989582086,124.05888339827
5301112001,530111,5301,53,Noelmina,85369,-9.9946783287401,124.10409881025
5301112002,530111,5301,53,Benu,85369,-9.9501260673217,124.03178596384
5301112003,530111,5301,53,Hueknutu,85369,-9.8725751954076,124.02672619157
5301112004,530111,5301,53,Oelnaineno,85369,-9.8305555157711,123.94862844955
5301112005,530111,5301,53,Tanini,85369,-9.8158538983123,123.89762541298
5301112006,530111,5301,53,Kauniki,85369,-9.8141372540663,124.04413311491
5301112008,530111,5301,53,Tuapanaf,85369,-9.9196486621006,124.05852365609
5301112009,530111,5301,53,Fatukona,85369,-9.8929776749073,123.97930940676
5301112010,530111,5301,53,Oesusu,85369,-9.9925717749844,124.01863804579
5301121003,530112,5301,53,Lelogama,85373,-9.7028536125434,123.95626784583
5301122001,530112,5301,53,Fatusuki,85373,-9.7828327923311,123.85103675966
5301122002,530112,5301,53,Oelbanu,85373,-9.7007852481029,123.85898290982
5301122004,530112,5301,53,Fatumetan,85373,-9.7527695557409,123.90505710044
5301122005,530112,5301,53,Oh'aem,85373,-9.7319604450697,124.01239872405
5301122008,530112,5301,53,Leloboko,85373,-9.6722157194516,123.92226152437
5301122011,530112,5301,53,"Oh'aem II",85373,-9.7588946864673,123.98443492867
5301131002,530113,5301,53,Naikliu,85365,-9.5253032853401,123.85411023705
5301132001,530113,5301,53,Afoan,85365,-9.5360499361883,123.8110935697
5301132003,530113,5301,53,Fatunaus,85365,-9.5092325590057,123.86905339669
5301132004,530113,5301,53,Kolabe,85365,-9.4943420781556,123.89306576817
5301132005,530113,5301,53,Bakuin,85365,-9.497715767296,123.92981389333
5301132010,530113,5301,53,Lilmus,85365,-9.4659559105477,123.91235219141
5301162001,530116,5301,53,Oelomin,85390,-10.230898836783,123.6344725097
5301162002,530116,5301,53,Tasikona,85390,-10.349342248367,123.61962721958
5301162003,530116,5301,53,Oemasi,85390,-10.267459538971,123.64790610242
5301162004,530116,5301,53,"Usapi Sonbai",85390,-10.312747313415,123.62242476584
5301162005,530116,5301,53,Oenif,85390,-10.307506122873,123.65031786375
5301162006,530116,5301,53,Tunfeu,85390,-10.238622348579,123.65300815958
5301162007,530116,5301,53,Oepaha,85390,-10.337377088801,123.64872391043
5301162008,530116,5301,53,Bone,85390,-10.331511987798,123.58801185181
5301162009,530116,5301,53,Taloetan,85390,-10.304446619034,123.59446184181
5301162010,530116,5301,53,Oben,85390,-10.263997717931,123.6854871743
5301162011,530116,5301,53,Bismarak,85390,-10.247336377953,123.67174115564
5301171001,530117,5301,53,Teunbaun,85376,-10.300898985414,123.72725226195
5301172002,530117,5301,53,Soba,85376,-10.270534091473,123.72330475667
5301172003,530117,5301,53,Toobaun,85376,-10.282102756425,123.77115297249
5301172004,530117,5301,53,Niukbaun,85376,-10.292903395686,123.68643006816
5301172005,530117,5301,53,Tunbaun,85376,-10.251996020655,123.77948941768
5301172006,530117,5301,53,Nekbaun,85376,-10.325563686902,123.68622523822
5301172007,530117,5301,53,Merbaun,85376,-10.341019569779,123.71228791339
5301172008,530117,5301,53,Erbaun,85376,-10.326578129253,123.75595560564
5301181001,530118,5301,53,Buraen,85377,-10.284345275773,123.90677006258
5301181002,530118,5301,53,Sonraen,85377,-10.279036034193,123.82951545181
5301182003,530118,5301,53,Nekmese,85377,-10.250936478488,123.89309536945
5301182004,530118,5301,53,Retraen,85377,-10.317725839499,123.8410105125
5301182005,530118,5301,53,Sahraen,85377,-10.329090387232,123.80101640411
5301192001,530119,5301,53,Oebesi,85378,-10.195447225799,124.00059495263
5301192002,530119,5301,53,Pakubaun,85378,-10.228906153435,124.0264385024
5301192003,530119,5301,53,Rabeka,85378,-10.181390961243,124.0535154729
5301192004,530119,5301,53,Enoraen,85378,-10.140692662286,124.15260417998
5301202001,530120,5301,53,Seki,85363,-10.053982005647,124.09022950052
5301202002,530120,5301,53,Oemofa,85363,-10.0845528513,124.11715545721
5301202003,530120,5301,53,Nunmafo,85363,-10.092279009864,124.09757140336
5301202004,530120,5301,53,Muke,85363,-10.117045592138,124.09499001527
5301202005,530120,5301,53,Pathau,85363,-10.15262604743,124.04696403639
5301202006,530120,5301,53,Oeniko,85363,-10.137981837065,124.01698892718
5301202007,530120,5301,53,Oenuntono,85363,-10.11052497225,124.05002884691
5301202008,530120,5301,53,Oemolo,85363,-10.090431864321,124.17053443363
5301202009,530120,5301,53,Enolanan,85363,-10.066129787832,124.14835146024
5301202010,530120,5301,53,Oenaunu,85363,-10.046269632484,124.13138795248
5301212001,530121,5301,53,Manubelon,85364,-9.6871050885194,123.71960639008
5301212002,530121,5301,53,Letkole,85364,-9.6770463266445,123.79469653662
5301212003,530121,5301,53,Nefoneut,85364,-9.7378926438013,123.781842785
5301212004,530121,5301,53,"Bioba Baru",85364,-9.6391064570278,123.70757750071
5301222001,530122,5301,53,Soliu,85372,-9.6128281525379,123.73799916145
5301222002,530122,5301,53,Saukibe,85372,-9.620107302236,123.78022530642
5301222003,530122,5301,53,Oelfatu,85372,-9.5750122011674,123.77201848953
5301222004,530122,5301,53,Timau,85372,-9.5941618084247,123.78924616001
5301222005,530122,5301,53,Honuk,85372,-9.5881329647311,123.88202377173
5301222006,530122,5301,53,Faumes,85372,-9.631379079069,123.84507705857
5301232001,530123,5301,53,Akle,85353,-10.31054239474,123.38448261917
5301232002,530123,5301,53,"Uitiuh Ana",85353,-10.280687453759,123.38901467314
5301232003,530123,5301,53,Onansila,85353,-10.257346042622,123.38649761207
5301232004,530123,5301,53,"Uitiuh Tuan",85353,-10.281871559415,123.31651142592
5301232005,530123,5301,53,Naikean,85353,-10.308542092402,123.32985347176
5301232006,530123,5301,53,Uiboa,85353,-10.255335465679,123.34241966472
5301242001,530124,5301,53,Oeltuah,85360,-10.20914733995,123.66752701882
5301242002,530124,5301,53,Baumata,85360,-10.199305710694,123.67646301764
5301242003,530124,5301,53,Kuaklalo,85360,-10.228097040124,123.71073689684
5301242004,530124,5301,53,Oeletsala,85360,-10.24000280753,123.69754666532
5301242005,530124,5301,53,Bokong,85360,-10.208014933603,123.76461893676
5301242006,530124,5301,53,"Baumata Utara",85360,-10.186948465791,123.71135566491
5301242007,530124,5301,53,"Baumata Timur",85360,-10.205068063642,123.70672065032
5301242008,530124,5301,53,"Baumata Barat",85360,-10.187118218301,123.67003589028
5301252001,530125,5301,53,Fatukanutu,85362,-10.171620241733,123.9072425281
5301252002,530125,5301,53,Kairane,85362,-10.155979644443,123.94847193168
5301252003,530125,5301,53,Raknamo,85362,-10.119145713439,123.96574189099
5301252004,530125,5301,53,Kuanheum,85362,-10.173674521248,123.86748296731
5301252005,530125,5301,53,Fatuteta,85362,-10.134721172157,123.85542066587
5301252006,530125,5301,53,Oefeto,85363,-10.140744498541,123.881463935
5301252007,530125,5301,53,Niunbaun,85363,-10.153885112809,123.98864683686
5301262001,530126,5301,53,Nunuanah,85375,-9.470677691533,123.97513369859
5301262002,530126,5301,53,Kifu,85375,-9.4344759768939,124.01712843543
5301262003,530126,5301,53,"Netemnanu Selatan",85375,-9.3743940651907,124.02200835971
5301262004,530126,5301,53,"Netemnanu Utara",85375,-9.4048966969159,124.06076292611
5301262005,530126,5301,53,Netemnanu,85375,-9.4625977831504,124.12555750295
5301272001,530127,5301,53,Poto,85223,-9.8952417684249,123.73811810164
5301272002,530127,5301,53,Nuataus,85223,-9.8239738333479,123.77694296525
5301272003,530127,5301,53,Kalali,85223,-9.9330988890148,123.67227177822
5301272004,530127,5301,53,Tuakau,85223,-9.7716914733882,123.70843478652
5301272005,530127,5301,53,Naitae,85223,-9.8514763318109,123.72980134484
5301282001,530128,5301,53,Oelbiteno,85220,-9.9346687881103,123.7953150175
5301282002,530128,5301,53,Nonbaun,85220,-9.8984429093609,123.8910526083
5301282003,530128,5301,53,Nunsaen,85220,-9.9597385468231,123.8764293782
5301282004,530128,5301,53,Passi,85220,-9.9089866295378,123.84910192958
5301302001,530130,5301,53,Fatumonas,85374,-9.6944791429408,124.02155915503
5301302002,530130,5301,53,Binafun,85374,-9.6717049571161,124.0576318999
5301302003,530130,5301,53,Bitobe,85374,-9.5812235153521,123.99774192906
5301302004,530130,5301,53,Bonmuti,85374,-9.5549703514276,124.08232233169
5302011001,530201,5302,53,SoE,85519,-9.8651820198492,124.27181254284
5302011002,530201,5302,53,Cendana,85519,-9.8764934947141,124.26618017822
5302011003,530201,5302,53,Oebesa,85515,-9.8742901279345,124.29393512787
5302011004,530201,5302,53,Taubneno,85511,-9.8613161292471,124.28557257289
5302011005,530201,5302,53,Nonohonis,85517,-9.8448674903964,124.28407551382
5302011006,530201,5302,53,"Karang Sirih",85519,-9.8463442550249,124.26691469133
5302011007,530201,5302,53,Nunumeu,85516,-9.8634144916337,124.29915422115
5302011008,530201,5302,53,Kobekamusa,85515,-9.8679306761121,124.31313940532
5302011009,530201,5302,53,"Oe Kefan",85519,-9.8561949222814,124.29460982265
5302011010,530201,5302,53,"Kota Baru",85519,-9.8558131944491,124.28365511491
5302011011,530201,5302,53,"Kampung Baru",85519,-9.8591431692823,124.27845252464
5302012012,530201,5302,53,Kuatae,85519,-9.8791554969217,124.27539350627
5302012013,530201,5302,53,Noemeto,85519,-9.8784239217811,124.2841038055
5302022001,530202,5302,53,Biloto,85542,-9.8666277303415,124.20438315464
5302022003,530202,5302,53,Kesetnana,85542,-9.8572132643464,124.24680984163
5302022006,530202,5302,53,Tuasene,85542,-9.9181202513881,124.15136137053
5302022008,530202,5302,53,Oinlasi,85542,-9.847479165266,124.30815559231
5302022010,530202,5302,53,Bisene,85542,-9.8249004075041,124.19356303687
5302022012,530202,5302,53,Noinbila,85542,-9.8200757305238,124.27944756094
5302022013,530202,5302,53,Bikekneno,85542,-9.8142809378154,124.2251440303
5302032001,530203,5302,53,O'besi,85552,-9.7281229027516,124.27863817858
5302032002,530203,5302,53,Eonbesi,85552,-9.7448382960538,124.28239340559
5302032003,530203,5302,53,Bosen,85552,-9.7119993358431,124.30121568947
5302032004,530203,5302,53,Sebot,85552,-9.6992518725579,124.27603898699
5302032007,530203,5302,53,Ajaobaki,85552,-9.7066408866783,124.25704063735
5302032008,530203,5302,53,Netpala,85552,-9.7408470900848,124.25713954454
5302032009,530203,5302,53,Tunua,85552,-9.6749552178049,124.24388601992
5302032010,530203,5302,53,Bijaepunu,85552,-9.68136933674,124.27150890472
5302032011,530203,5302,53,Nefokoko,85552,-9.7166525193708,124.16054633562
5302032012,530203,5302,53,Leloboko,85552,-9.6926720697522,124.17167631302
5302032013,530203,5302,53,Lelobatan,85552,-9.740235380378,124.19415866602
5302032014,530203,5302,53,Halmei,85552,-9.7481732843302,124.10047459144
5302032015,530203,5302,53,Fatukoto,85552,-9.7096108889525,124.21482355888
5302032016,530203,5302,53,Kokfe'u,85552,-9.7398316937304,124.14200010834
5302032017,530203,5302,53,To'fen,85552,-9.7173757458494,124.2755506251
5302032018,530203,5302,53,Taiftob,85552,-9.7328058387596,124.29554123465
5302032019,530203,5302,53,Iusmolo,85552,-9.677949493136,124.21599981093
5302032020,530203,5302,53,To'manat,85552,-9.7406077634948,124.22807102666
5302042001,530204,5302,53,Billa,85572,-9.655508610208,124.5692949539
5302042002,530204,5302,53,Oelet,85572,-9.71006426231,124.53090177598
5302042004,530204,5302,53,Pisan,85572,-9.7392761969064,124.60470461238
5302042005,530204,5302,53,Mauleum,85572,-9.7450158190612,124.56208072443
5302042007,530204,5302,53,Nifukiu,85572,-9.6905304331155,124.64594918353
5302042008,530204,5302,53,Mnelaanen,85572,-9.7131724422042,124.60881091743
5302042009,530204,5302,53,Teluk,85572,-9.7159243096301,124.64350964872
5302042012,530204,5302,53,Oe'Ekam,85572,-9.7028073374281,124.57192956654
5302042016,530204,5302,53,Sini,85572,-9.7439668733571,124.53155216413
5302042017,530204,5302,53,Tliu,85572,-9.7216799078309,124.54947783262
5302051010,530205,5302,53,Niki-Niki,85571,-9.8164876137879,124.47763979826
5302052001,530205,5302,53,Taebesa,85571,-9.941435700303,124.49088451819
5302052002,530205,5302,53,Nakfunu,85571,-9.9105263226122,124.50012271178
5302052003,530205,5302,53,Oe'ekam,85571,-9.9245970032328,124.47177837734
5302052004,530205,5302,53,Baki,85571,-9.8940668864847,124.47881501795
5302052005,530205,5302,53,Tumu,85571,-9.8663805222124,124.48227335474
5302052006,530205,5302,53,Noebesa,85571,-9.8618833474491,124.46540450379
5302052007,530205,5302,53,Nobi-Nobi,85571,-9.8321712760068,124.46103617836
5302052008,530205,5302,53,Sopo,85571,-9.7836760080537,124.46616765019
5302052009,530205,5302,53,Bone,85571,-9.8052640279695,124.46130179759
5302052011,530205,5302,53,"Maunum Niki-Niki",85571,-9.8100230510524,124.48463246873
5302062001,530206,5302,53,Pollo,85562,-10.058919407702,124.22002176536
5302062002,530206,5302,53,Oekiu,85562,-10.077868585901,124.29475754427
5302062003,530206,5302,53,Oebelo,85562,-10.132552148172,124.29892645269
5302062004,530206,5302,53,Noemuke,85562,-10.063330412396,124.33835715346
5302062010,530206,5302,53,Kiubaat,85562,-10.031577591062,124.2803322372
5302062011,530206,5302,53,Linamnutu,85562,-10.036139832019,124.18796162729
5302062014,530206,5302,53,Mio,85562,-9.9895286951421,124.20368555539
5302062015,530206,5302,53,Batnun,85562,-10.067735779158,124.25304679981
5302062018,530206,5302,53,Bena,85562,-10.122442682568,124.24267297344
5302062019,530206,5302,53,"Eno Neten",85562,-9.956671769221,124.24737284395
5302072007,530207,5302,53,Tublopo,85551,-9.8693886203964,124.3602051782
5302072008,530207,5302,53,Nule,85551,-9.8972060361662,124.36322465587
5302072009,530207,5302,53,Nusa,85551,-9.8474320728797,124.3887513057
5302072010,530207,5302,53,Mnelalete,85514,-9.8869617334927,124.30604740498
5302072011,530207,5302,53,Pusu,85551,-9.9063711519564,124.33033984694
5302072012,530207,5302,53,Tubuhue,85551,-9.8910856573554,124.25042499489
5302072013,530207,5302,53,"Haumeni Baki",85551,-9.9211614381099,124.27092504272
5302072015,530207,5302,53,Nifukani,85551,-9.9083269634435,124.3010144935
5302082001,530208,5302,53,Oinlasi,85573,-9.8521293547652,124.58084234899
5302082002,530208,5302,53,Nunleu,85573,-9.8820591371808,124.62815227124
5302082003,530208,5302,53,Kokoi,85573,-9.8594061876583,124.60311644571
5302082004,530208,5302,53,Fenun,85573,-9.8524617018614,124.63166104215
5302082005,530208,5302,53,Kualeu,85573,-9.8559237367296,124.65765831701
5302082006,530208,5302,53,Lanu,85573,-9.8391889692645,124.65596862731
5302082007,530208,5302,53,Sunu,85573,-9.8236748501604,124.64299703538
5302082008,530208,5302,53,Anin,85573,-9.8379221419979,124.58636832954
5302082009,530208,5302,53,To'i,85573,-9.8179485989366,124.60923236429
5302082010,530208,5302,53,Nifuleo,85573,-9.8006120025821,124.60020468752
5302082011,530208,5302,53,Fatulunu,85573,-9.8637868568828,124.62687643913
5302082012,530208,5302,53,Fae,85573,-9.8495864628605,124.6015695896
5302082013,530208,5302,53,Netutnana,85573,-9.8380990871116,124.61132123193
5302092001,530209,5302,53,Lilo,85574,-9.7224995197964,124.72293157936
5302092002,530209,5302,53,Fotilo,85574,-9.7335844778034,124.69285305694
5302092003,530209,5302,53,Nasi,85574,-9.7176212554505,124.66330208145
5302092004,530209,5302,53,Snok,85574,-9.6992510178356,124.68455504374
5302092005,530209,5302,53,Tumu,85574,-9.6564910259991,124.68954612395
5302092006,530209,5302,53,"Fatu Oni",85574,-9.6672322414623,124.710893148
5302092007,530209,5302,53,Sono,85574,-9.6820743923783,124.73324153485
5302092009,530209,5302,53,Tauanas,85574,-9.7192579445326,124.74759119932
5302092015,530209,5302,53,Muna,85574,-9.7011996761238,124.71433462563
5302102001,530210,5302,53,Pilli,85575,-9.776966386398,124.51440779144
5302102002,530210,5302,53,Falas,85575,-9.8173219288149,124.50598851714
5302102003,530210,5302,53,Oenai,85575,-9.8565969236714,124.51411496691
5302102004,530210,5302,53,Belle,85575,-9.9087616937134,124.57667942052
5302102005,530210,5302,53,Napi,85575,-9.839417451619,124.53986751664
5302102006,530210,5302,53,Boti,85575,-9.9069901899757,124.53334864546
5302102007,530210,5302,53,Fatuulan,85575,-9.9063360152969,124.61313407451
5302102008,530210,5302,53,Tesiayofanu,85575,-9.8819777051574,124.60177137668
5302102009,530210,5302,53,Oinlasi,85575,-9.862900145777,124.56206432981
5302102010,530210,5302,53,Nekmese,85575,-9.887763769337,124.56017129812
5302102011,530210,5302,53,"Eno Napi",85575,-9.8215891620533,124.56437633324
5302102012,530210,5302,53,Fatukusi,85575,-9.7670839077878,124.5010359224
5302102013,530210,5302,53,Naile'u,85575,-9.8821312311132,124.51374372539
5302112001,530211,5302,53,Olais,85564,-9.9406791820307,124.4438221969
5302112002,530211,5302,53,Lasi,85564,-9.9720941299599,124.46029912807
5302112003,530211,5302,53,Kakan,85564,-9.9989204193135,124.45955678157
5302112005,530211,5302,53,Basmuti,85564,-10.005806430277,124.41116095912
5302112006,530211,5302,53,Kusi,85564,-10.041126347698,124.48043803538
5302112007,530211,5302,53,Kuanfatu,85564,-10.029182100906,124.43849762531
5302112008,530211,5302,53,Kelle,85564,-10.045585865614,124.39904943218
5302112009,530211,5302,53,Taupi,85564,-10.00106235242,124.47525534649
5302112010,530211,5302,53,Oebo,85564,-9.9987125246259,124.45199674928
5302112011,530211,5302,53,"Kusi Utara",85564,-10.021565943572,124.47153237384
5302112012,530211,5302,53,"Kelle Tunan",85564,-10.051381234007,124.43467622379
5302112013,530211,5302,53,Noebeba,85564,-9.9554853573058,124.42009537671
5302112014,530211,5302,53,Oehan,85564,-9.9767561225152,124.42480296351
5302122001,530212,5302,53,Nenas,85561,-9.5863026721151,124.17510007219
5302122004,530212,5302,53,Fatumnasi,85561,-9.617001518829,124.22481860174
5302122005,530212,5302,53,Nuapin,85561,-9.5146205153943,124.17546326418
5302122009,530212,5302,53,Kuanoel,85561,-9.6566622454399,124.19235087904
5302122010,530212,5302,53,Mutis,85561,-9.5588027448965,124.18506648944
5302132001,530213,5302,53,Konbaki,85545,-9.7018732112369,124.42830698693
5302132002,530213,5302,53,Fatumnutu,85545,-9.6035050354899,124.33574333241
5302132003,530213,5302,53,Bijeli,85545,-9.6693636520118,124.33714550311
5302132004,530213,5302,53,Loli,85545,-9.6509002238111,124.45665629152
5302132005,530213,5302,53,Usapimnasi,85545,-9.6294667704971,124.34146360255
5302132006,530213,5302,53,Mnesatbubuk,85545,-9.6448579597802,124.38316096913
5302132007,530213,5302,53,Puna,85545,-9.6863688651681,124.46717984079
5302132008,530213,5302,53,Laob,85545,-9.7069921657924,124.33730542716
5302132009,530213,5302,53,Oelnunuh,85545,-9.6080142123661,124.39415936303
5302132010,530213,5302,53,Balu,85545,-9.7116682424761,124.38951795581
5302132011,530213,5302,53,Sainoni,85545,-9.682268276425,124.38532553775
5302142001,530214,5302,53,Benlutu,85565,-9.8985708481132,124.21564725578
5302142002,530214,5302,53,Boentuka,85565,-9.9242824280289,124.17470967779
5302142003,530214,5302,53,Hane,85565,-9.9224091448497,124.22844246906
5302142004,530214,5302,53,Oebobo,85565,-9.9757000197082,124.15092062554
5302142005,530214,5302,53,Tupan,85565,-9.9493240199822,124.13141713726
5302142006,530214,5302,53,Tuakole,85565,-9.9569845203695,124.1962052113
5302142007,530214,5302,53,Oehela,85565,-9.9415037051666,124.18406346204
5302152006,530215,5302,53,Sabun,85584,-9.8278831289975,124.68210040751
5302152007,530215,5302,53,Nano,85584,-9.8435909643835,124.71419566406
5302152009,530215,5302,53,Boking,85584,-9.849011249661,124.74481913749
5302152010,530215,5302,53,Baus,85584,-9.7837022532912,124.77616794946
5302152011,530215,5302,53,Meusin,85584,-9.8190390859524,124.74736449308
5302152013,530215,5302,53,Leonmeni,85584,-9.8155648657354,124.70587740006
5302152014,530215,5302,53,"Fatu Manufui",85584,-9.8080846636237,124.77121278659
5302162001,530216,5302,53,Toianas,85578,-9.7235935903635,124.79215733948
5302162002,530216,5302,53,Skinu,85578,-9.7554875544925,124.77924880039
5302162003,530216,5302,53,Oeleu,85578,-9.7503135552846,124.74068523586
5302162004,530216,5302,53,Sanbet,85578,-9.6823967331411,124.75996971754
5302162005,530216,5302,53,Bokong,85578,-9.6586109739705,124.78432627433
5302162006,530216,5302,53,Tuataum,85578,-9.6754340995284,124.80225117804
5302162007,530216,5302,53,Lobus,85578,-9.7018158096696,124.78799344459
5302162008,530216,5302,53,Noeolin,85578,-9.7255399108305,124.76991370733
5302162009,530216,5302,53,Milli,85578,-9.6516707211795,124.76983072426
5302172001,530217,5302,53,OP,85586,-9.9238316711295,124.6505272258
5302172002,530217,5302,53,Sahan,85586,-9.8986341283164,124.67844198032
5302172003,530217,5302,53,Nenoat,85586,-9.8913861246313,124.6957417634
5302172004,530217,5302,53,Haineno,85586,-9.8686910060352,124.69922525329
5302172005,530217,5302,53,Nunkolo,85586,-9.876348212173,124.72597262944
5302172006,530217,5302,53,Saenam,85586,-9.9132161652758,124.6699153852
5302172007,530217,5302,53,Fat,85586,-9.8704179707384,124.67376519703
5302172008,530217,5302,53,Haumeni,85586,-9.8958954563209,124.65469711913
5302172009,530217,5302,53,Putun,85586,-9.872382260457,124.66319697724
5302182001,530218,5302,53,Neke,85583,-9.7314492470806,124.49871478211
5302182002,530218,5302,53,"Pene Utara",85583,-9.7581951139187,124.4111354112
5302182003,530218,5302,53,Noenoni,85583,-9.7453407876976,124.35852334249
5302182004,530218,5302,53,Hoi,85583,-9.796442802511,124.43655101466
5302182005,530218,5302,53,"Niki Niki Un",85583,-9.7560980730439,124.47045582915
5302182006,530218,5302,53,Oenino,85583,-9.7199435029884,124.46924071695
5302182007,530218,5302,53,Abi,85583,-9.6864130259681,124.52004529836
5302192001,530219,5302,53,Kolbano,85563,-10.037702523015,124.51927053293
5302192002,530219,5302,53,Noesiu,85563,-10.055036899151,124.51166449041
5302192003,530219,5302,53,"Pene Selatan",85563,-10.022617900905,124.50510679165
5302192004,530219,5302,53,Oetuke,85563,-9.9923633012405,124.5666514193
5302192005,530219,5302,53,Babuin,85563,-9.9415464158367,124.52276829572
5302192006,530219,5302,53,Oeleu,85563,-9.9710146931219,124.53755380055
5302192007,530219,5302,53,Se'i,85563,-10.00196091742,124.50552898775
5302192008,530219,5302,53,Nununamat,85563,-9.9945824674897,124.53749107097
5302192009,530219,5302,53,Pana,85563,-9.9889572125622,124.4903818449
5302192010,530219,5302,53,Haunobenak,85563,-9.9468447954107,124.54536863953
5302192011,530219,5302,53,Ofu,85563,-9.9665036918045,124.4943993975
5302192012,530219,5302,53,Spaha,85563,-10.013590251553,124.53236229714
5302202001,530220,5302,53,Kot'olin,85576,-9.9590957544495,124.60625965673
5302202002,530220,5302,53,Nunbena,85576,-9.9327199525333,124.58100941557
5302202003,530220,5302,53,Fatuat,85576,-9.9330241819703,124.63153817461
5302202004,530220,5302,53,Hoibeti,85576,-9.9766933348367,124.58611270931
5302202005,530220,5302,53,Nualunat,85576,-9.9494550119402,124.6398065508
5302202006,530220,5302,53,Binenok,85576,-9.9357555338972,124.61250318295
5302202007,530220,5302,53,Ponite,85576,-9.9567753773544,124.57426640634
5302202008,530220,5302,53,O'obibi,85576,-9.9436542777671,124.58602695017
5302212001,530221,5302,53,Kualin,85566,-10.098180165172,124.43881013221
5302212002,530221,5302,53,Oni,85566,-10.096765828482,124.46403422598
5302212003,530221,5302,53,Nunusunu,85566,-10.076307524502,124.38125861868
5302212004,530221,5302,53,Tuapakas,85566,-10.077645135941,124.49427107959
5302212005,530221,5302,53,Toineke,85566,-10.131289059727,124.34975281882
5302212006,530221,5302,53,Tuafanu,85566,-10.140593473928,124.40705426069
5302212007,530221,5302,53,Kiufatu,85566,-10.118553672588,124.39350293823
5302212008,530221,5302,53,Oemaman,85566,-10.055553070987,124.4611567047
5302222001,530222,5302,53,Besana,85541,-9.7810172392358,124.1279989158
5302222002,530222,5302,53,Fatukoko,85541,-9.8616894396246,124.16322367342
5302222003,530222,5302,53,Koa,85541,-9.9281229341889,124.10734624625
5302222004,530222,5302,53,"Oel Uban",85541,-9.8101808403749,124.15123782432
5302222005,530222,5302,53,Salbait,85541,-9.8632743494462,124.12020822912
5302232001,530223,5302,53,Lotas,85577,-9.6077186741889,124.76565361916
5302232002,530223,5302,53,Sabnala,85577,-9.6368731513711,124.74197952202
5302232003,530223,5302,53,Koloto,85577,-9.622667249696,124.75030591312
5302232004,530223,5302,53,Niti,85577,-9.6567560246035,124.73751080341
5302232005,530223,5302,53,Obaki,85577,-9.6217300818736,124.78665970356
5302232006,530223,5302,53,Benehe,85577,-9.6041980778335,124.77922466302
5302242001,530224,5302,53,Noebana,85585,-9.768603414871,124.63818709555
5302242002,530224,5302,53,Fatumnasi,85585,-9.7533429822836,124.65502163093
5302242003,530224,5302,53,Suni,85585,-9.7961159388285,124.66122380281
5302242004,530224,5302,53,Mella,85585,-9.7954542459564,124.64308424166
5302242005,530224,5302,53,Mnelapetu,85585,-9.7894754051898,124.62493624291
5302252001,530225,5302,53,Santian,85587,-9.7939886646277,124.69135135595
5302252002,530225,5302,53,Poli,85587,-9.7630885367624,124.69805271448
5302252003,530225,5302,53,Manufui,85587,-9.7818026351658,124.7288466179
5302252004,530225,5302,53,Nenotes,85587,-9.7958611239293,124.67308815396
5302252005,530225,5302,53,Naifatu,85587,-9.7927480627091,124.70827792861
5302262001,530226,5302,53,Naip,85567,-10.037865996826,124.32464193834
5302262002,530226,5302,53,Fatutnana,85567,-10.007692966992,124.36476175845
5302262003,530226,5302,53,Oepliki,85567,-9.9849511050564,124.33750833826
5302262004,530226,5302,53,Oe'ekam,85567,-9.995666511474,124.27741352546
5302262005,530226,5302,53,Teas,85567,-9.9476979465935,124.29853331944
5302262006,530226,5302,53,Oebaki,85567,-9.9472156895957,124.37524866924
5302262007,530226,5302,53,"Eno Nabuasa",85567,-9.9457689411742,124.33862196069
5302272001,530227,5302,53,Tetaf,85551,-9.8307774537909,124.41925956009
5302272002,530227,5302,53,Naukae,85551,-9.7962442996972,124.40299368075
5302272003,530227,5302,53,Supul,85551,-9.8621400473235,124.4389649759
5302272004,530227,5302,53,Lakat,85551,-9.8809517777255,124.40785855783
5302272005,530227,5302,53,Enoneontes,85551,-9.8427277112984,124.34108949317
5302272006,530227,5302,53,O'of,85551,-9.8074344137332,124.35745062644
5302272007,530227,5302,53,Tubmonas,85551,-9.9057094800773,124.43409628873
5302272008,530227,5302,53,"Oe Oe",85551,-9.8271412898884,124.37679989244
5302282001,530228,5302,53,Sillu,85582,-9.7785676000388,124.55435926521
5302282002,530228,5302,53,Nunukhniti,85582,-9.764464358145,124.57255515507
5302282003,530228,5302,53,Kaeneno,85582,-9.775768234016,124.59713402519
5302282004,530228,5302,53,Oeleon,85582,-9.7955806356446,124.57164377948
5302282005,530228,5302,53,Tunis,85582,-9.765205715812,124.61255631909
5302282006,530228,5302,53,Bileon,85582,-9.7874898619193,124.53849828201
5302282007,530228,5302,53,Besle'u,85582,-9.7937124714398,124.52486837813
5302292001,530229,5302,53,Fatukopa,85581,-9.6699678840516,124.60205152217
5302292002,530229,5302,53,Besnam,85581,-9.6336340091492,124.65139858694
5302292003,530229,5302,53,Taebone,85581,-9.6785101414343,124.63373081046
5302292004,530229,5302,53,Nunfutu,85581,-9.6183347041073,124.62448591
5302292005,530229,5302,53,Kiki,85581,-9.6556908204961,124.62461978162
5302292006,530229,5302,53,Ello,85581,-9.6528932502046,124.6501786465
5302292007,530229,5302,53,Nifulinah,85581,-9.6501881863313,124.63468852052
5302302001,530230,5302,53,Oelbubuk,85543,-9.7640098017017,124.26185299647
5302302002,530230,5302,53,Nekemunifeto,85543,-9.7746116138688,124.2058883977
5302302003,530230,5302,53,Binaus,85543,-9.789617352368,124.26991800737
5302302004,530230,5302,53,Oel'Ekam,85543,-9.7930417482622,124.30326180644
5302302005,530230,5302,53,Kualeu,85543,-9.7430028915573,124.31618840534
5302302006,530230,5302,53,Pika,85543,-9.7786815236497,124.32898732706
5302312001,530231,5302,53,Tobu,85552,-9.6695843934576,124.29846006056
5302312002,530231,5302,53,Tutem,85552,-9.6492302778214,124.26276922187
5302312003,530231,5302,53,Tune,85561,-9.6294628414681,124.29601509754
5302312004,530231,5302,53,Bonleu,85561,-9.5782405881575,124.26814999164
5302312005,530231,5302,53,Pubasu,85552,-9.6322727970905,124.27725211717
5302312006,530231,5302,53,Huetalan,85552,-9.6543460645551,124.31785011516
5302312007,530231,5302,53,Saubalan,85552,-9.6085642067794,124.28462131526
5302312008,530231,5302,53,Bestobe,85552,-9.6304757257383,124.3165516554
5302322001,530232,5302,53,"Lill ana",85544,-9.693130579609,124.14399069083
5302322002,530232,5302,53,Nunbena,85544,-9.659044839939,124.15324279781
5302322003,530232,5302,53,Noebesi,85544,-9.6363803224814,124.10223333969
5302322004,530232,5302,53,Taneotob,85544,-9.5847425363264,124.11170514476
5302322005,530232,5302,53,"Feto Mone",85544,-9.7143241452834,124.1104524379
5302322006,530232,5302,53,Tunbes,85544,-9.6537450154358,124.12888256395
5303012005,530301,5303,53,Bokon,85654,-9.3515408953511,124.47949970889
5303012006,530301,5303,53,Bitefa,,-9.3669741977651,124.46039705055
5303012007,530301,5303,53,Keanbaun,85654,-9.3691228977008,124.48720087842
5303012018,530301,5303,53,Amol,85654,-9.3943011614419,124.4585149339
5303012019,530301,5303,53,Fatusene,85654,-9.3864790259944,124.48106850278
5303012020,530301,5303,53,Oesena,,-9.4171620111972,124.46674102048
5303012021,530301,5303,53,Jak,85654,-9.3497079502984,124.51407594918
5303012022,530301,5303,53,Tuntun,85654,-9.366906798254,124.50635922682
5303012023,530301,5303,53,Tunoe,85654,-9.3505358148235,124.52804487552
5303012024,530301,5303,53,Femnasi,85654,-9.401634469994,124.51012806988
5303012025,530301,5303,53,Taekas,85654,-9.4086876939019,124.48852924073
5303022001,530302,5303,53,Noepesu,85661,-9.5510413776181,124.27454038407
5303022002,530302,5303,53,Fatuneno,85661,-9.530336077203,124.27661102576
5303022003,530302,5303,53,Suanae,85661,-9.5836525299939,124.32681579114
5303022004,530302,5303,53,Lemon,85661,-9.5709661396944,124.31642815441
5303022005,530302,5303,53,Fatunisuan,85661,-9.579450284946,124.37249255771
5303022006,530302,5303,53,Haulasi,85661,-9.5543212976317,124.3844130274
5303022018,530302,5303,53,Neotoko,85661,-9.5391033053404,124.35900046994
5303022019,530302,5303,53,Fatutasu,85661,-9.5638070515505,124.36223492761
5303022020,530302,5303,53,Manusasi,85661,-9.5105906552346,124.28827786931
5303022025,530302,5303,53,Saenam,85661,-9.532120373403,124.3010323146
5303022026,530302,5303,53,Eban,,-9.5453935611335,124.31885996174
5303022027,530302,5303,53,Sallu,,-9.5475916818521,124.33708275458
5303022028,530302,5303,53,Sa'tab,85661,-9.5644092234846,124.30459289041
5303032001,530303,5303,53,Pantae,85680,-9.377264514635,124.64267013145
5303032002,530303,5303,53,Oenaem,85680,-9.3758478839678,124.66318405836
5303032003,530303,5303,53,Upfaon,,-9.3852797099746,124.69391814367
5303032007,530303,5303,53,Tautpah,85680,-9.3102828351409,124.74208902039
5303032009,530303,5303,53,Tokbesi,85680,-9.3293611636667,124.70960126733
5303032010,530303,5303,53,Sainiup,85680,-9.3444632415736,124.68473137535
5303032011,530303,5303,53,Supun,,-9.3622935887348,124.69479523668
5303032012,530303,5303,53,Tunbaen,85680,-9.329068953781,124.6564208125
5303042001,530304,5303,53,Bijeli,85664,-9.5973043855357,124.49177087373
5303042002,530304,5303,53,Noebaun,85664,-9.6128355028725,124.48468433932
5303042003,530304,5303,53,Seo,85664,-9.6364134666147,124.48467654083
5303042004,530304,5303,53,Popnam,85664,-9.6355352025397,124.53637651041
5303042009,530304,5303,53,Nibaaf,85664,-9.5923909212633,124.54069906872
5303042010,530304,5303,53,Banfanu,85664,-9.5660832534645,124.45075684857
5303042011,530304,5303,53,Oenak,,-9.5708123686196,124.51580320602
5303042012,530304,5303,53,Nifuboke,,-9.6006642318579,124.51001337049
5303042013,530304,5303,53,Noemuti,,-9.5604861034568,124.48032232448
5303042014,530304,5303,53,Fatumuti,,-9.5640310082931,124.48989706012
5303042015,530304,5303,53,Kiuola,,-9.6023306110516,124.45182688302
5303042016,530304,5303,53,Oeperigi,85664,-9.6440144969128,124.50350569709
5303051001,530305,5303,53,"Kefamenanu Utara",85611,-9.4337729205445,124.4717138662
5303051002,530305,5303,53,Aplasi,85614,-9.4356134483999,124.49146327889
5303051003,530305,5303,53,"Kefamenanu Tengah",85612,-9.4464278874544,124.48207476171
5303051004,530305,5303,53,Bansone,85615,-9.4490285860639,124.46171010558
5303051005,530305,5303,53,Benpasi,85613,-9.4615172970154,124.47280918882
5303051006,530305,5303,53,"Kefamenanu Selatan",85613,-9.4640909167747,124.48434595178
5303051007,530305,5303,53,Tubuhue,85617,-9.4623704626016,124.51513702566
5303051008,530305,5303,53,Maubeli,85617,-9.4869631898929,124.48701601926
5303051009,530305,5303,53,Sasi,85616,-9.5055618390137,124.50441073814
5303061015,530306,5303,53,"Boronubaen Timur",85683,,
5303062001,530306,5303,53,Boronubaen,,-9.2827281978552,124.83802523846
5303062002,530306,5303,53,Hautaes,85683,-9.2789877997266,124.82482459715
5303062003,530306,5303,53,Tualena,85683,-9.322425026987,124.81628163952
5303062004,530306,5303,53,Biloe,85683,-9.2920357368649,124.80807753662
5303062005,530306,5303,53,Taunbaen,85683,-9.2929079468497,124.78070776047
5303062006,530306,5303,53,Sapaen,85683,-9.3025693210449,124.76850364611
5303062012,530306,5303,53,Lokomea,85683,-9.2627803965552,124.84161440438
5303062013,530306,5303,53,"Taunbaen Timur",85683,-9.2927522078012,124.79238794402
5303062014,530306,5303,53,"Hauteas Barat",85683,-9.2881627292886,124.81839977829
5303072001,530307,5303,53,Motadik,85613,-9.0529071772866,124.79581054877
5303072002,530307,5303,53,Nonotbatan,85613,-9.0714722660986,124.7749561071
5303072003,530307,5303,53,Sifaniha,85613,-9.1333708421983,124.78640099013
5303072004,530307,5303,53,Maukabatan,85613,-9.097925528692,124.7458458742
5303072005,530307,5303,53,Kotafoun,85613,-9.1562227756052,124.74612661541
5303072006,530307,5303,53,Tuamese,85613,-9.0777025673898,124.71390141988
5303072007,530307,5303,53,Ponu,,-9.1420880482562,124.7025346245
5303072008,530307,5303,53,Oemanu,85613,-9.1669550993454,124.66959789595
5303072009,530307,5303,53,Nifutasi,85613,-9.2191822378259,124.71190763061
5303081029,530308,5303,53,Bitauni,85671,-9.4581920114806,124.66583902598
5303082005,530308,5303,53,Nansean,85671,-9.526961084098,124.65781283474
5303082006,530308,5303,53,Susulaku,85671,-9.5016741900562,124.68352803521
5303082007,530308,5303,53,Loeram,85671,-9.4709828829511,124.74598943705
5303082008,530308,5303,53,"Manunain B",85671,-9.4269980371899,124.66743121202
5303082010,530308,5303,53,Tapenpah,85671,-9.4552632281246,124.63961256116
5303082011,530308,5303,53,Sekon,85671,-9.4736991464075,124.6264812322
5303082015,530308,5303,53,Ainiut,,-9.4711259308611,124.7030736244
5303082016,530308,5303,53,Nunmafo,,-9.4275314078579,124.71713150348
5303082017,530308,5303,53,Oenbit,85671,-9.4234608127166,124.759076661
5303082018,530308,5303,53,"Manunain A",,-9.4265191764813,124.69309265764
5303082022,530308,5303,53,"Susulaku B",85671,-9.5357110998774,124.72637061711
5303082024,530308,5303,53,Fatoin,,-9.4482364789984,124.70030136301
5303082025,530308,5303,53,Keun,85671,-9.397612057088,124.65897774882
5303082026,530308,5303,53,Fatu'Ana,85671,-9.4121951308533,124.66505851309
5303082027,530308,5303,53,Botof,85671,-9.4360131717133,124.6728282879
5303082028,530308,5303,53,"Nansean Timur",85671,-9.5344995523185,124.68261155792
5303092006,530309,5303,53,Fatumtasa,85674,-9.2772924934719,124.54567621124
5303092007,530309,5303,53,Oesoko,85674,-9.1896390693236,124.56887668016
5303092008,530309,5303,53,"Humusu Sainiup",85674,-9.293483391671,124.56364145769
5303092009,530309,5303,53,"Humusu Oekolo",85674,-9.2318607567201,124.57038953661
5303092010,530309,5303,53,"Humusu Wini",,-9.2181445986703,124.5221860737
5303102001,530310,5303,53,Naob,85665,-9.6086886538895,124.5778098613
5303102002,530310,5303,53,Haekto,85665,-9.5884056718238,124.62286947213
5303102003,530310,5303,53,Manikin,85665,-9.5815873216977,124.59138614798
5303102004,530310,5303,53,Kuaken,85665,-9.5712914017057,124.55119489874
5303112001,530311,5303,53,Tuabatan,85660,-9.5301029074018,124.40260606601
5303112002,530311,5303,53,Akomi,85660,-9.5568347729792,124.4185483448
5303112003,530311,5303,53,Bijaepasu,85660,-9.5318848071413,124.42829451543
5303112004,530311,5303,53,Neonasi,85660,-9.5089886868607,124.41489150693
5303112005,530311,5303,53,"N i a n",85660,-9.513661278565,124.44888610693
5303112006,530311,5303,53,"Tuabatan Barat",85660,-9.5404161856051,124.39478699112
5303122001,530312,5303,53,Oelneke,85662,-9.4886120005731,124.40213215953
5303122002,530312,5303,53,Oetulu,85662,-9.5101564569598,124.37199209409
5303122003,530312,5303,53,Oeolo,85662,-9.4751246086401,124.38084756839
5303122004,530312,5303,53,Ainan,85662,-9.4838310667624,124.42386876278
5303122005,530312,5303,53,Bisafe,85662,-9.4558877943413,124.39137516
5303122006,530312,5303,53,Batnes,85662,-9.5098366116079,124.33588395567
5303132001,530313,5303,53,Tasinifu,85663,-9.4672903706962,124.24718353659
5303132002,530313,5303,53,"Naekake A",85663,-9.4085926611716,124.20841717348
5303132003,530313,5303,53,"Naekake B",85663,-9.4282026567311,124.18392134546
5303132004,530313,5303,53,Noelelo,85663,-9.4467686027803,124.16195412714
5303142001,530314,5303,53,Oelami,,-9.4841135041956,124.463622901
5303142002,530314,5303,53,Kiusili,85650,-9.4801120126572,124.44287323114
5303142003,530314,5303,53,Naiola,85650,-9.5369538266098,124.50016518495
5303142004,530314,5303,53,Maurisu,85650,-9.5654456322006,124.64063994574
5303142005,530314,5303,53,Oetalus,85650,-9.4990312264748,124.45719738201
5303142006,530314,5303,53,Tublopo,,-9.5353950746335,124.57350500359
5303142007,530314,5303,53,"Maurisu Utara",85650,-9.540470396604,124.6184963811
5303142008,530314,5303,53,"Maurisu Selatan",85650,-9.5657129171067,124.68383984437
5303142009,530314,5303,53,"Maurisu Tengah",85650,-9.5697942173179,124.66928359568
5303142010,530314,5303,53,"Naiola Timur",85650,-9.5354520651721,124.53469600797
5303152001,530315,5303,53,Buk,85652,-9.4186412931752,124.40262885963
5303152002,530315,5303,53,Oenenu,85652,-9.4322277673402,124.45466979418
5303152003,530315,5303,53,Nimasi,85652,-9.4480002718914,124.42445368254
5303152004,530315,5303,53,Oelbonak,85652,-9.4230893600826,124.42013100268
5303152005,530315,5303,53,Kuenak,85652,-9.4602782462055,124.40297778072
5303152006,530315,5303,53,Oenino,85652,-9.4673752274668,124.42956083274
5303152007,530315,5303,53,"Oenenu Utara",85652,-9.4269048159664,124.43642573541
5303152008,530315,5303,53,"Oenenu Selatan",85652,-9.4431027159321,124.4454144669
5303152009,530315,5303,53,Sono,85652,-9.399435756859,124.39026193695
5303162001,530316,5303,53,Inbate,85651,-9.4263919096525,124.38483855082
5303162002,530316,5303,53,Sunkaen,85651,-9.4632590243585,124.36565812103
5303162003,530316,5303,53,Nainaban,85651,-9.4390311436955,124.36716581754
5303162004,530316,5303,53,"Haumeni Ana",85651,-9.4973491246597,124.34670316057
5303162005,530316,5303,53,Nilulat,85651,-9.5027556576087,124.32929746082
5303162006,530316,5303,53,Tubu,85651,-9.500764550446,124.3093059726
5303172001,530317,5303,53,Faenake,85653,-9.3914561636457,124.43489662463
5303172002,530317,5303,53,"Banain A",85653,-9.3675661359093,124.43221048182
5303172003,530317,5303,53,"Banain B",85653,-9.3515477194101,124.4136546582
5303172004,530317,5303,53,"Banain C",85653,-9.3469155176706,124.43274737698
5303172005,530317,5303,53,Sainoni,85653,-9.3831092085981,124.41265347535
5303172006,530317,5303,53,Tes,85653,-9.3814279421325,124.39532890065
5303172007,530317,5303,53,Napan,85653,-9.3648834258964,124.3940057877
5303172008,530317,5303,53,Haumeni,85653,-9.3986512330275,124.41376820978
5303172009,530317,5303,53,Baas,85653,-9.410248646397,124.42125295295
5303182001,530318,5303,53,Manamas,85655,-9.2352192031595,124.48409430482
5303182002,530318,5303,53,Benus,85655,-9.2863287818366,124.49616697997
5303182003,530318,5303,53,Bakitolas,85655,-9.3044079185869,124.48296975259
5303182004,530318,5303,53,Sunsea,85655,-9.3260349503656,124.47366036657
5303192001,530319,5303,53,"Fafinesu A",85672,-9.3981079773304,124.59855523447
5303192002,530319,5303,53,"Fafinesu B",85672,-9.3652549057632,124.5494400857
5303192003,530319,5303,53,"Fafinesu C",85672,-9.3599275271468,124.5850440716
5303192004,530319,5303,53,Oenain,85672,-9.3423461251243,124.53989771227
5303192005,530319,5303,53,Baunuan,85672,-9.3096581040651,124.59073261682
5303192006,530319,5303,53,Fafinesu,85672,-9.3815783424156,124.57325151097
5303202001,530320,5303,53,Subun,85670,-9.457650677224,124.54539433269
5303202002,530320,5303,53,Usapinonot,85670,-9.4912703885547,124.56567128548
5303202003,530320,5303,53,Lapeom,85670,-9.4933362180498,124.54370963409
5303202004,530320,5303,53,Letneo,85670,-9.4654578497003,124.60420486132
5303202005,530320,5303,53,Bannae,85670,-9.4329597420475,124.55693905721
5303202006,530320,5303,53,Unini,,-9.4810996696512,124.59121699994
5303202007,530320,5303,53,Atmen,85670,-9.4867104460455,124.57745873031
5303202008,530320,5303,53,"Letneo Selatan",85670,-9.5121476908689,124.62083457153
5303202009,530320,5303,53,Oabikase,85670,-9.5004356185186,124.55832862305
5303202010,530320,5303,53,Nifunenas,85670,-9.4824549263708,124.55572822041
5303202011,530320,5303,53,"Subun Bestobe",85670,-9.4520038657112,124.55537697465
5303202012,530320,5303,53,"Subun Tualele",85670,-9.4774461300936,124.53844196445
5303212001,530321,5303,53,Lanaus,85673,-9.4084034912526,124.62889659437
5303212002,530321,5303,53,Letmafo,85673,-9.4308689354465,124.60933787812
5303212003,530321,5303,53,Tainsala,85673,-9.2435764494336,124.60041335025
5303212004,530321,5303,53,Maubesi,,-9.4070063010554,124.56425596928
5303212005,530321,5303,53,Sone,85673,-9.3337734253993,124.62130320727
5303212006,530321,5303,53,"Letmafo Timur",85673,-9.4305929226896,124.62937924209
5303212007,530321,5303,53,Oehalo,85673,-9.3703728084194,124.60316456124
5303222001,530322,5303,53,Teba,85684,-9.3805282880217,124.74331440324
5303222002,530322,5303,53,Oerinbesi,85684,-9.3476705596529,124.79078405464
5303222003,530322,5303,53,Oekopa,85684,-9.3310910549817,124.78637789441
5303222004,530322,5303,53,"T'Eba Timur",85684,-9.3629430853057,124.77348577869
5303232001,530323,5303,53,Tunbes,85681,-9.2921770867224,124.68026532594
5303232002,530323,5303,53,Luniup,85681,-9.2733876945668,124.67729451374
5303232003,530323,5303,53,Matabesi,85681,-9.2423499201326,124.65447285724
5303232004,530323,5303,53,Oepuah,85681,-9.1663002283208,124.63198229651
5303232005,530323,5303,53,Kaubele,85681,-9.2235077681435,124.63593631097
5303232006,530323,5303,53,"Oepuah Utara",85681,-9.1712911562535,124.60200928131
5303232007,530323,5303,53,"Oepuah Selatan",85681,-9.2018290014943,124.6312679975
5303242001,530324,5303,53,Naku,85682,-9.229060314359,124.81786247504
5303242002,530324,5303,53,Birunatun,85682,-9.1900110576165,124.79503113651
5303242003,530324,5303,53,Makun,85682,-9.2491117410739,124.78752727965
5303242004,530324,5303,53,Manumean,85682,-9.21716852266,124.76236427008
5303242005,530324,5303,53,Kuluan,85682,-9.2608279035085,124.74998587068
5304012001,530401,5304,53,Kewar,85772,-9.089568527349,125.16232929354
5304012002,530401,5304,53,Fulur,85772,-9.088188272708,125.14120678745
5304012004,530401,5304,53,Duarato,85772,-9.1150705977789,125.15213985293
5304012005,530401,5304,53,Makir,85772,-9.0432113037425,125.1682959931
5304012006,530401,5304,53,Lamaksenulu,85772,-9.0165454679486,125.16208563589
5304012008,530401,5304,53,Dirun,85772,-9.1080128771274,125.0891195421
5304012009,530401,5304,53,Leowalu,85772,-9.1066619033901,125.13588777437
5304012014,530401,5304,53,Maudemu,85772,-9.1299641280526,125.04768978448
5304012015,530401,5304,53,Mahuitas,85772,-9.0714306101957,125.169929761
5304022001,530402,5304,53,Silawan,85771,-8.9867342976755,124.92836752082
5304022002,530402,5304,53,Tulakadi,85771,-9.0307561197163,124.92133819589
5304022003,530402,5304,53,Sadi,85711,-9.0664158853001,124.93921942612
5304022004,530402,5304,53,Umaklaran,85771,-9.0909584273619,124.94365595169
5304022005,530402,5304,53,Manleten,85771,-9.127366091997,124.94907535045
5304022006,530402,5304,53,Fatuba'a,85771,-9.1721690593641,124.93498399588
5304022007,530402,5304,53,Dafala,85771,-9.1686378151461,124.97032091035
5304022008,530402,5304,53,Takirin,85771,-9.1588927804798,125.01283971538
5304022009,530402,5304,53,Bauho,85771,-9.0910579274713,124.98860140472
5304022010,530402,5304,53,Sarabau,85771,-9.0759077697173,124.99089722839
5304022018,530402,5304,53,Tialai,85771,-9.1748143805885,124.90901160269
5304022019,530402,5304,53,Halimodok,85771,-9.1233612414588,125.01245178174
5304032001,530403,5304,53,Asumanu,85773,-9.0341015339943,125.08784969997
5304032002,530403,5304,53,Tohe,85773,-9.0098325087778,125.11041836603
5304032003,530403,5304,53,Maumutin,85773,-9.0077081166622,125.13083981895
5304032004,530403,5304,53,Raifatus,85773,-9.0539864005211,125.12351877896
5304032005,530403,5304,53,Aitoun,85773,-9.0552503492143,125.14116943808
5304032006,530403,5304,53,"Tohe Leten",85773,-9.0721899581515,125.10599557394
5304042001,530404,5304,53,Tukuneno,85753,-9.1528590418352,124.84337443454
5304042002,530404,5304,53,Naekasa,85753,-9.1840607330374,124.87400703926
5304042003,530404,5304,53,Lookeu,85753,-9.2106300553496,124.96127055599
5304042004,530404,5304,53,Derokfaturene,85753,-9.2162888416516,124.93037583047
5304042005,530404,5304,53,Bakustulama,85753,-9.2415333872137,124.88514066757
5304042006,530404,5304,53,Rinbesihat,85753,-9.2928786869986,124.85286931803
5304042007,530404,5304,53,Naitimu,85753,-9.2733518250264,124.88982774635
5304042009,530404,5304,53,Lawalutolus,85753,-9.2869038551559,124.91203858558
5304052001,530405,5304,53,Fatuketi,85752,-9.0679531273494,124.82989434945
5304052002,530405,5304,53,Dualaus,85752,-9.0204819235393,124.83580936811
5304052003,530405,5304,53,Jenilu,85752,-9.0085930967061,124.87376425258
5304052004,530405,5304,53,Kenebibi,85752,-8.9926101244483,124.89758350263
5304052005,530405,5304,53,Leosama,85752,-9.0490858261086,124.86093470196
5304052006,530405,5304,53,Kabuna,85752,-9.049623797551,124.89648803997
5304121001,530412,5304,53,"Kota Atambua",85711,-9.1062865822579,124.89704947897
5304121002,530412,5304,53,Tenukiik,85711,-9.0958336935089,124.89845449792
5304121003,530412,5304,53,Manumutin,85712,-9.079730683619,124.89378918566
5304121010,530412,5304,53,Fatubenao,85718,-9.1057847451622,124.9127574101
5304132001,530413,5304,53,"Mandeu Raimanus",85760,-9.3508892279083,124.91510394129
5304132002,530413,5304,53,Renrua,85760,-9.3718686359862,124.95749357801
5304132003,530413,5304,53,"Dua Koran",85760,-9.3178283003081,124.90123046446
5304132004,530413,5304,53,Mandeu,85760,-9.3056885801778,124.8733515187
5304132005,530413,5304,53,Rafae,85760,-9.3343959356723,124.87096285985
5304132006,530413,5304,53,Faturika,85760,-9.3388181643668,124.956704037
5304132007,530413,5304,53,Leuntolu,85760,-9.3194173027487,124.8503998547
5304132008,530413,5304,53,Teun,85760,-9.3656813919313,124.881446956
5304132009,530413,5304,53,Tasain,85760,-9.3595719835002,124.84891279886
5304172001,530417,5304,53,Lasiolat,85771,-9.0908905998227,125.0244873448
5304172002,530417,5304,53,Maneikun,85771,-9.064819326459,125.01770535915
5304172003,530417,5304,53,"Lakan Mau",85771,-9.0900789335238,125.06172742535
5304172004,530417,5304,53,"Dualasi Rai Ulun",85771,-9.0834628484372,125.08786584336
5304172005,530417,5304,53,Dualasi,85771,-9.0671940897009,125.07241180092
5304172006,530417,5304,53,Fatulotu,85771,-9.0647685443798,125.04182684412
5304172007,530417,5304,53,Baudaok,85771,-9.0439626696441,125.06095291778
5304182001,530418,5304,53,Ekin,85770,-9.1161004338632,125.11446653665
5304182002,530418,5304,53,Loonuna,85770,-9.1552815301031,125.12237496855
5304182003,530418,5304,53,Nualain,85770,-9.1263363002162,125.14137150271
5304182004,530418,5304,53,Lakmaras,85770,-9.1502594802776,125.15647601206
5304182005,530418,5304,53,Henes,85770,-9.1524497163819,125.1762751536
5304182006,530418,5304,53,Debululik,85770,-9.1491212355818,125.06814861656
5304182007,530418,5304,53,"Sisi Fatuberal",85770,-9.1532620016896,125.08257553262
5304182008,530418,5304,53,"Lutha Rato",85770,-9.1686185585479,125.09635704202
5304211001,530421,5304,53,Bardao,85715,-9.1044123037817,124.89263806794
5304211002,530421,5304,53,Tulamalae,85714,-9.0972694601805,124.88765311905
5304211003,530421,5304,53,Umanen,85713,-9.0908774148154,124.869250985
5304211004,530421,5304,53,Beirafu,85718,-9.1066751151599,124.88553643638
5304221001,530422,5304,53,Manuaman,85718,-9.1122046162284,124.87605269589
5304221002,530422,5304,53,Rinbesi,85718,-9.1134779560408,124.89188335994
5304221003,530422,5304,53,Lidak,85716,-9.1216938081281,124.881240981
5304221004,530422,5304,53,Fatukbot,85717,-9.1318464354774,124.89339626149
5304232001,530423,5304,53,Dubesi,85751,-9.308277237816,124.95222167656
5304232002,530423,5304,53,Nanaet,85751,-9.2645809971065,124.95251042464
5304232003,530423,5304,53,Fohoeka,85751,-9.2640297582919,124.97629253597
5304232004,530423,5304,53,Nanaenoe,85751,-9.3013770621259,124.98918427974
5305011001,530501,5305,53,"Kalabahi Barat",85814,-8.2183569363728,124.48352396364
5305011002,530501,5305,53,"Kalabahi Kota",85813,-8.2151236425191,124.5173529603
5305011003,530501,5305,53,"Kalabahi Tengah",85812,-8.2107475871546,124.53543975798
5305011004,530501,5305,53,"Kalabahi Timur",85811,-8.2194476069539,124.53971181916
5305011005,530501,5305,53,Binongko,85815,-8.2193724817876,124.51199775418
5305011006,530501,5305,53,"Nusa Kenari",85819,-8.2144242238353,124.52420549755
5305011008,530501,5305,53,"Welai Barat",85816,-8.245488859559,124.56975185234
5305011009,530501,5305,53,"Welai Timur",85817,-8.2230361525776,124.58465060841
5305011010,530501,5305,53,Mutiara,85819,-8.2102162046994,124.54712533288
5305011011,530501,5305,53,Wetabua,85819,-8.2178478038484,124.52382170681
5305012012,530501,5305,53,Lendola,85819,-8.1944970353524,124.51923667463
5305012013,530501,5305,53,Fanating,85819,-8.2590332039299,124.5519175454
5305012014,530501,5305,53,Motongbang,85819,-8.2150856973398,124.51140093979
5305012015,530501,5305,53,"Air Kenari",85819,-8.2059967753689,124.53211460814
5305012018,530501,5305,53,"Teluk Kenari",85819,-8.2268275993328,124.47237099494
5305012019,530501,5305,53,"Adang Buom",85819,-8.2062298972641,124.49168706902
5305021002,530502,5305,53,Adang,85851,-8.1793545643168,124.46431862695
5305022003,530502,5305,53,"Alor Kecil",85851,-8.267381110788,124.40817544436
5305022004,530502,5305,53,"Alor Besar",85851,-8.2300452829214,124.41332135022
5305022005,530502,5305,53,Ampera,85851,-8.2620572606282,124.42558201129
5305022006,530502,5305,53,Dulolong,85851,-8.2330702994047,124.45335009685
5305022007,530502,5305,53,Aimoli,85851,-8.1979811600517,124.43714572927
5305022008,530502,5305,53,Alila,85851,-8.1458831284815,124.47429089901
5305022009,530502,5305,53,Otvai,85851,-8.1815083107976,124.4928860955
5305022012,530502,5305,53,Ternate,85851,-8.2099784982256,124.37298280886
5305022013,530502,5305,53,"Ternate Selatan",85851,-8.2177144014669,124.3678474947
5305022014,530502,5305,53,"Alila Selatan",85851,-8.1640610282099,124.50494431956
5305022019,530502,5305,53,"Pulau Buaya",85851,-8.1766540084152,124.37515368375
5305022020,530502,5305,53,Hulnani,85851,-8.2467525456671,124.41892000971
5305022022,530502,5305,53,"O'a Mate",85851,-8.2134738018578,124.42658982524
5305022023,530502,5305,53,Alaang,85851,-8.1915366990827,124.45565355773
5305022024,530502,5305,53,Lefokisu,85851,-8.2644117266998,124.41770933602
5305022025,530502,5305,53,Bampalola,85851,-8.2466677402883,124.42817567113
5305022026,530502,5305,53,Lewalu,85851,-8.2586190531777,124.43236677371
5305022027,530502,5305,53,"Dulolong Barat",85851,-8.2438020030854,124.43718136254
5305031001,530503,5305,53,Moru,85861,-8.271269375084,124.4927401853
5305032002,530503,5305,53,Probur,85861,-8.3636135549323,124.40787338173
5305032007,530503,5305,53,Morba,85861,-8.2824232243528,124.5290936537
5305032008,530503,5305,53,Pintumas,85861,-8.3280923911634,124.50262612412
5305032009,530503,5305,53,Wolwal,85861,-8.283545043911,124.46904087529
5305032010,530503,5305,53,Halerman,85861,-8.4138156779551,124.37995916789
5305032013,530503,5305,53,Kafelulang,85861,-8.3498276077382,124.54971515394
5305032014,530503,5305,53,Moramam,85861,-8.278859929798,124.51328092568
5305032015,530503,5305,53,Pailelang,85861,-8.3088247815318,124.56651666271
5305032016,530503,5305,53,"Wolwal Barat",85861,-8.3109130805881,124.44151492037
5305032017,530503,5305,53,"Wolwal Tengah",85861,-8.2987412504713,124.45817536256
5305032018,530503,5305,53,"Wolwal Selatan",85861,-8.3049025014136,124.43030194256
5305032019,530503,5305,53,"Probur Utara",85861,-8.3250926097734,124.43131226792
5305041001,530504,5305,53,"Kelaisi Timur",85871,-8.2798123867312,124.72388626957
5305042002,530504,5305,53,"Kelaisi Barat",85871,-8.2934313133798,124.6797064479
5305042003,530504,5305,53,Sidabui,85871,-8.3271518000001,124.72410790447
5305042004,530504,5305,53,"Padang Alang",85871,-8.3692329043507,124.70741622442
5305042005,530504,5305,53,Kuneman,85871,-8.3479545240069,124.7923166687
5305042006,530504,5305,53,Silaipui,85871,-8.3148168902702,124.76227434178
5305042007,530504,5305,53,"Kelaisi Tengah",85871,-8.2820517850698,124.69761596786
5305042008,530504,5305,53,Kiraman,85871,-8.3752652269456,124.75744074746
5305042009,530504,5305,53,Maikang,85871,-8.3558770220256,124.71623278146
5305042010,530504,5305,53,Malaipea,85871,-8.2985405479873,124.63693475441
5305042011,530504,5305,53,Tamanapui,85871,-8.321551583208,124.74251605407
5305042012,530504,5305,53,Lella,85871,-8.3021565040323,124.78404383889
5305042013,530504,5305,53,Manmas,85871,-8.3025899357792,124.74582969986
5305042014,530504,5305,53,Subo,85871,-8.2920391570268,124.71170761555
5305051001,530505,5305,53,"Kolana Utara",85872,-8.234448722008,125.10990841606
5305052004,530505,5305,53,Tanglapui,85872,-8.2711458580935,124.94586667778
5305052005,530505,5305,53,"Kolana Selatan",85872,-8.2650263580728,125.02931673518
5305052007,530505,5305,53,"Padang Panjang",85872,-8.2499120182715,124.88294789879
5305052008,530505,5305,53,Maritaing,85872,-8.2898174983888,125.10048590505
5305052010,530505,5305,53,Elok,85872,-8.3241948697361,125.04107854265
5305052011,530505,5305,53,"Tanglapui Timur",85872,-8.2263920886867,124.98228626589
5305052012,530505,5305,53,Mausamang,85872,-8.1854971992807,125.04424523187
5305052013,530505,5305,53,Belemana,85872,-8.2632618758136,124.9046242767
5305052014,530505,5305,53,Maukuru,85872,-8.1812293879628,124.92766307422
5305061001,530506,5305,53,Kabir,85881,-8.2490938288782,124.22052675221
5305062005,530506,5305,53,Pandai,85881,-8.210858021812,124.26710757286
5305062009,530506,5305,53,Bandar,85881,-8.2887867977631,124.20713954366
5305062010,530506,5305,53,Baolang,85881,-8.315923045354,124.19525265667
5305062011,530506,5305,53,Munaseli,85881,-8.1984007847509,124.30669366689
5305062012,530506,5305,53,Helangdohi,85881,-8.2095464462472,124.28397139686
5305062013,530506,5305,53,Wailawar,85881,-8.2325196666782,124.25044259182
5305062014,530506,5305,53,Bana,85881,-8.1835061667741,124.28411262605
5305062016,530506,5305,53,Bouweli,85881,-8.2678820436729,124.2386585403
5305062017,530506,5305,53,"Bukit Mas",85881,-8.2529361075739,124.23828156703
5305062019,530506,5305,53,Madar,85881,-8.2729083781856,124.22428122302
5305072001,530507,5305,53,"Lembur Barat",85870,-8.2018732313174,124.62632021378
5305072002,530507,5305,53,"Lembur Tengah",85870,-8.2216143632179,124.68597369967
5305072004,530507,5305,53,Likwatang,85870,-8.1740147407141,124.66632122291
5305072007,530507,5305,53,Fungafeng,85870,-8.1829933490025,124.64877425327
5305072008,530507,5305,53,Fuisama,85870,-8.241656514038,124.62926791542
5305072009,530507,5305,53,"Nur Benlelang",85870,-8.2136655922069,124.61620828275
5305072010,530507,5305,53,Kafakbeka,85870,-8.2171177774212,124.65171377789
5305072011,530507,5305,53,Manetwati,85870,-8.2438810383591,124.68572451225
5305072012,530507,5305,53,Lakwati,85870,-8.2305794648701,124.66049272107
5305072014,530507,5305,53,Dapitau,85870,-8.2000524986483,124.65980170247
5305072017,530507,5305,53,"Alim Mebung",85870,-8.2113730467832,124.60223716375
5305072018,530507,5305,53,Petleng,85870,-8.211166619288,124.58492805757
5305072019,530507,5305,53,"Welai Selatan",85870,-8.2756483430297,124.60000951952
5305072020,530507,5305,53,Tominuku,85870,-8.2638351425122,124.64986728337
5305082001,530508,5305,53,Pido,85873,-8.2699752762875,124.84161089295
5305082002,530508,5305,53,Waisika,85873,-8.2046344288305,124.75834318485
5305082003,530508,5305,53,Kamot,85873,-8.1673006598598,124.77490939002
5305082004,530508,5305,53,Taramana,85873,-8.196237212891,124.82798841924
5305082005,530508,5305,53,Nailang,85873,-8.2459378548939,124.7693904871
5305082006,530508,5305,53,Lippang,85873,-8.2817544671804,124.80330815337
5305082007,530508,5305,53,Kenarimbala,85873,-8.223801893947,124.84148442881
5305082008,530508,5305,53,"Air Mancur",85873,-8.1716659206014,124.79108630194
5305092002,530509,5305,53,Baraler,85880,-8.3571418206604,124.07730312208
5305092003,530509,5305,53,Kalondama,85880,-8.3973626145192,124.044029728
5305092007,530509,5305,53,Leer,85880,-8.3509187021881,124.06595806317
5305092018,530509,5305,53,Baranusa,85880,-8.3625008987712,124.10507670026
5305092019,530509,5305,53,"Blang Merang",85880,-8.2863487035494,124.06579494459
5305092020,530509,5305,53,Illu,85880,-8.3773912285719,124.08789111649
5305092024,530509,5305,53,Piringsina,85880,-8.3876660255945,124.10667539216
5305101001,530510,5305,53,Kabola,85819,-8.1655378571106,124.58199226226
5305102002,530510,5305,53,Kopidil,85819,-8.179627989386,124.55743354985
5305102003,530510,5305,53,"Pante Deere",85819,-8.1383018780545,124.56654972421
5305102004,530510,5305,53,Lawahing,85851,-8.1630365697613,124.53970089373
5305102005,530510,5305,53,"Alila Timur",85851,-8.1403015794658,124.51739935716
5305111001,530511,5305,53,Pura,85850,-8.2838796188482,124.347328917
5305112002,530511,5305,53,Maru,85850,-8.3067332464136,124.36136571369
5305112003,530511,5305,53,"Pura Utara",85850,-8.2900826097645,124.33117485577
5305112004,530511,5305,53,"Pura Selatan",85850,-8.3129873293022,124.34640679016
5305112005,530511,5305,53,"Pura Timur",85850,-8.2908355308152,124.36268947169
5305112006,530511,5305,53,"Pura Barat",85850,-8.3077602377403,124.32773279295
5305122001,530512,5305,53,"Mataru Selatan",85860,-8.3503337537574,124.68032108728
5305122002,530512,5305,53,"Mataru Utara",85860,-8.3301394498352,124.62320653088
5305122003,530512,5305,53,Lakatuli,85860,-8.3899936333099,124.62138690309
5305122004,530512,5305,53,"Mataru Timur",85860,-8.3342686491947,124.64406221875
5305122005,530512,5305,53,Kamaifui,85860,-8.3270542757647,124.66130211375
5305122006,530512,5305,53,"Mataru Barat",85860,-8.3645376476525,124.59913755491
5305122007,530512,5305,53,"Taman Mataru",85860,-8.3304381986482,124.6530898414
5305132001,530513,5305,53,Langkuru,85874,-8.354515843141,124.83789912745
5305132002,530513,5305,53,Purnama,85874,-8.3326956612814,124.92446931904
5305132003,530513,5305,53,Kailesa,85874,-8.3338413214642,124.86460421172
5305132004,530513,5305,53,"Langkuru Utara",85874,-8.321290249837,124.8255380348
5305142001,530514,5305,53,Nule,85884,-8.3716560846393,124.21731354233
5305142002,530514,5305,53,Kaleb,85884,-8.3440043540537,124.2487811477
5305142003,530514,5305,53,Batu,85884,-8.2405413949653,124.30278908846
5305142004,530514,5305,53,Kaera,85884,-8.2989321852677,124.25703078293
5305142005,530514,5305,53,Mawar,85884,-8.3075027778746,124.29516812967
5305142006,530514,5305,53,Merdeka,85884,-8.2610286542645,124.27412232295
5305142007,530514,5305,53,Ombay,85884,-8.2838509786569,124.28935571058
5305142008,530514,5305,53,Lekom,85884,-8.3278694174759,124.23602438412
5305142009,530514,5305,53,Bungabali,85884,-8.324828031272,124.27735979534
5305142010,530514,5305,53,Tereweng,85884,-8.4789334163925,124.28097600408
5305142011,530514,5305,53,Lalafang,85884,-8.366044925852,124.17700481938
5305152001,530515,5305,53,"Lembur Timur",85875,-8.1736619161667,124.71502146605
5305152002,530515,5305,53,Luba,85875,-8.1965413681386,124.68930182945
5305152003,530515,5305,53,Talwai,85875,-8.2494995170567,124.71485674778
5305152004,530515,5305,53,Tulleng,85875,-8.1926255984214,124.73978243717
5305152005,530515,5305,53,Waimi,85875,-8.2350465395088,124.73118425023
5305152006,530515,5305,53,Tasi,85875,-8.2220000363657,124.71681088258
5305162001,530516,5305,53,Tude,85883,-8.4339158915242,124.0753569333
5305162002,530516,5305,53,Mauta,85883,-8.4949377956137,124.12690417732
5305162003,530516,5305,53,Muriabang,85883,-8.396569534808,124.15068710723
5305162004,530516,5305,53,Tubbe,85883,-8.4312760025387,124.12422102112
5305162005,530516,5305,53,Tamakh,85883,-8.4105552628893,124.18975682752
5305162006,530516,5305,53,Bagang,85883,-8.3518780486234,124.13836231762
5305162007,530516,5305,53,Toang,85883,-8.4350033237693,124.18965265599
5305162008,530516,5305,53,"Eka Jaya",85883,-8.4223845771062,124.14481549805
5305162009,530516,5305,53,Aramaba,85883,-8.4664299530459,124.17164182152
5305162010,530516,5305,53,Delaki,85883,-8.5140535140303,124.08097362644
5305172001,530517,5305,53,Kayang,85882,-8.3638732952846,123.97510130862
5305172002,530517,5305,53,Marisa,85882,-8.3809836621247,123.87600807044
5305172003,530517,5305,53,Lamma,85882,-8.349341966813,124.01437058288
5305172004,530517,5305,53,Allumang,85882,-8.3854567871875,123.97191666412
5305172005,530517,5305,53,Beangonong,85882,-8.3302232340904,124.03512677895
5305172006,530517,5305,53,"Kalondama Barat",85882,-8.4039348793241,123.97216437187
5305172007,530517,5305,53,"Kalondama Tengah",85882,-8.4119626574968,123.99009681775
5305182001,530518,5305,53,Tribur,85861,-8.3933357568681,124.46517806137
5305182002,530518,5305,53,Wakapsir,85861,-8.4199792539688,124.55087935054
5305182003,530518,5305,53,Manatang,85861,-8.4315054575321,124.45408771193
5305182004,530518,5305,53,Orgen,85861,-8.364513530084,124.50082754153
5305182005,530518,5305,53,"Wakapsir Timur",85861,-8.3919760378018,124.55889138169
5305182006,530518,5305,53,Kuifana,85861,-8.3981788497069,124.52269556072
5305182007,530518,5305,53,Margeta,85861,-8.4351289969289,124.42959255543
5306012001,530601,5306,53,Ojandetun,86256,-8.6039707625835,122.66673767737
5306012002,530601,5306,53,Hewa,86256,-8.580243952638,122.69480475922
5306012003,530601,5306,53,Waiula,86256,-8.5884856465937,122.74247711904
5306012007,530601,5306,53,Nawokote,86256,-8.5530183646076,122.73837806353
5306012008,530601,5306,53,Boru,86256,-8.5128272199267,122.6976104381
5306012009,530601,5306,53,Pululera,86256,-8.4903601620732,122.72583515157
5306012011,530601,5306,53,Nileknoheng,86256,-8.4446729576157,122.71633977305
5306012012,530601,5306,53,"Hokeng Jaya",86256,-8.5239650375511,122.7260837421
5306012013,530601,5306,53,"Pantai Oa",86256,-8.620338122725,122.7139030318
5306012014,530601,5306,53,"Boru Kedang",86256,-8.539647855085,122.68416716866
5306012021,530601,5306,53,Klatanlo,86256,-8.5231276491811,122.74455388524
5306022001,530602,5306,53,Kobasoma,86255,-8.4101750746591,122.7486904484
5306022002,530602,5306,53,Lewolaga,86255,-8.4194124842416,122.79369318648
5306022003,530602,5306,53,Lewoingu,86255,-8.414452601351,122.83379220844
5306022004,530602,5306,53,Tuakepa,86255,-8.3981774087777,122.80877463618
5306022005,530602,5306,53,Tenawahang,86255,-8.3909511842272,122.78070001371
5306022006,530602,5306,53,Leraboleng,86255,-8.3740522856029,122.823630578
5306022007,530602,5306,53,Serinuho,86255,-8.3371662762735,122.80726690041
5306022008,530602,5306,53,Watowara,86255,-8.3685683739989,122.77235634099
5306022009,530602,5306,53,Konga,86255,-8.4561774225294,122.76577987312
5306022010,530602,5306,53,"Ile Gerong",86255,-8.408273543692,122.78982073334
5306022011,530602,5306,53,Adabang,86255,-8.388584199408,122.70950101673
5306022012,530602,5306,53,"Dun Tana Lewoingu",86255,-8.4122644717892,122.82239258379
5306022013,530602,5306,53,"Duli Jaya",86255,-8.3415296649546,122.79138997271
5306022014,530602,5306,53,"Bokang Wolomatang",86255,-8.4081986458603,122.78013370588
5306031001,530603,5306,53,Waibalun,86212,-8.3335178489192,122.95611969241
5306031002,530603,5306,53,Lewolere,86212,-8.335988235208,122.96471474065
5306031003,530603,5306,53,"Pantai Besar",86213,-8.3397103501889,122.97039171216
5306031004,530603,5306,53,Larantuka,86213,-8.342058140574,122.97579961256
5306031005,530603,5306,53,Balela,86214,-8.3299095913409,122.97522872907
5306031006,530603,5306,53,"Pohon Sirih",86214,-8.342918641547,122.98276128047
5306031007,530603,5306,53,Lohayong,86215,-8.3389263052475,122.98167767171
5306031008,530603,5306,53,Lokea,86215,-8.3299300756876,122.98042120556
5306031009,530603,5306,53,Postoh,86216,-8.3349178598241,122.98665331925
5306031010,530603,5306,53,Amagarapati,86219,-8.3245151126125,122.98449711075
5306031011,530603,5306,53,Ekasapta,86217,-8.3279326564626,122.9928754941
5306031012,530603,5306,53,Sarotari,86219,-8.3162399977793,123.00454498711
5306031013,530603,5306,53,Weri,86219,-8.2977271289563,123.00943126591
5306031014,530603,5306,53,"Pukentobi Wangin Bao",86219,-8.3147312235937,122.99514172578
5306031021,530603,5306,53,Waihali,86219,-8.3288674755358,123.00216505593
5306031022,530603,5306,53,"Pohon Bao",86219,-8.318060754787,122.98784936303
5306031023,530603,5306,53,"Sarotari Tengah",86219,-8.3141431256089,123.00922321081
5306031024,530603,5306,53,"Sarotari Timur",86219,-8.3094847149356,123.00981920518
5306032019,530603,5306,53,Mokantarak,86219,-8.3433363524962,122.88350080072
5306032020,530603,5306,53,Lamawalang,86219,-8.3275640036634,122.94535054054
5306042001,530604,5306,53,Wailolong,86211,-8.3111868744451,122.9313826251
5306042002,530604,5306,53,Lewoloba,86211,-8.319048220689,122.94041602452
5306042003,530604,5306,53,Tiwatobi,86211,-8.2844206191504,122.99866476665
5306042004,530604,5306,53,Watotutu,86211,-8.2660752006778,122.97134177626
5306042005,530604,5306,53,Riangkemie,86211,-8.291249562619,122.94245258996
5306042006,530604,5306,53,Lewohala,86211,-8.2677939829218,122.94929863682
5306042007,530604,5306,53,Halakodanuan,86211,-8.2365239372918,122.96733346447
5306042008,530604,5306,53,Mudakaputu,86211,-8.2900162046249,122.97936510827
5306052006,530605,5306,53,Lewobunga,86251,-8.1420276704553,122.95264860266
5306052007,530605,5306,53,Sinamalaka,86251,-8.1785819222123,122.93417559644
5306052008,530605,5306,53,Ratulodong,86251,-8.1541962134331,122.90434074058
5306052009,530605,5306,53,Sinarhadigala,86251,-8.1549936246183,122.87550796957
5306052010,530605,5306,53,Bahinga,86251,-8.1677020191792,122.82109870037
5306052011,530605,5306,53,Waibao,86251,-8.2009429066521,122.77669680593
5306052012,530605,5306,53,Lamatutu,86251,-8.1277191619385,122.80608054427
5306052013,530605,5306,53,Latonliwo,86251,-8.1185064882967,122.84677638665
5306052015,530605,5306,53,Kolaka,86251,-8.1726070726982,122.96226199364
5306052016,530605,5306,53,Bandona,86251,-8.1640692008478,122.84761510744
5306052017,530605,5306,53,"Nusa Nipa",86251,-8.1576615529449,122.79755233184
5306052018,530605,5306,53,"Patisira Walang",86251,-8.0915157757669,122.86960125386
5306052020,530605,5306,53,Gekengderan,86251,-8.129565529752,122.93141170368
5306052021,530605,5306,53,Aransina,86251,-8.1143284413551,122.8276481048
5306052022,530605,5306,53,"Latonliwo Dua",86251,-8.1058454821869,122.85032797921
5306052023,530605,5306,53,Lamanabi,86251,-8.1229653585954,122.89922758745
5306061001,530606,5306,53,Ritaebang,86272,-8.5303239152727,122.90184426655
5306062002,530606,5306,53,"Tanah Lein",86272,-8.5893695102093,122.89251701476
5306062003,530606,5306,53,Lamaole,86272,-8.5641290863426,122.90440127139
5306062004,530606,5306,53,Kalelu,86272,-8.5385526089024,122.92722306312
5306062005,530606,5306,53,Nuhalolon,86272,-8.5034452417331,122.93969098272
5306062007,530606,5306,53,"Balaweling II",86272,-8.4679717819421,122.96252096088
5306062008,530606,5306,53,"Balaweling I",86272,-8.4560824112334,122.96993814031
5306062009,530606,5306,53,Pamakayo,86272,-8.4489134817987,122.99147472335
5306062012,530606,5306,53,Ongalereng,86272,-8.4557607451305,123.00209113086
5306062013,530606,5306,53,Karawatung,86272,-8.4582013345428,123.01746456359
5306062014,530606,5306,53,Lamawohong,86272,-8.5633665200564,122.94067519497
5306062015,530606,5306,53,Daniwato,86272,-8.4807889786049,122.96094278953
5306062017,530606,5306,53,"Lewotanah Ole",86272,-8.5893332856795,122.92570817724
5306062019,530606,5306,53,Titehena,86272,-8.5352802821276,122.95056269252
5306062020,530606,5306,53,Lewonama,86272,-8.4498919016397,122.98138689468
5306072002,530607,5306,53,Watanhura,86271,-8.4733499667785,123.07211063524
5306072003,530607,5306,53,Lebao,86271,-8.4716474382129,123.08442964301
5306072004,530607,5306,53,Watohari,86271,-8.4563204595229,123.13338158146
5306072005,530607,5306,53,Motonwutun,86271,-8.4414232843163,123.16299855218
5306072006,530607,5306,53,Watobuku,86271,-8.4310019936472,123.15266803397
5306072007,530607,5306,53,Labelen,86271,-8.4372351856838,123.13373082851
5306072008,530607,5306,53,Menanga,86271,-8.4430518002147,123.09415039414
5306072009,530607,5306,53,"Lohayong I",86271,-8.4364830821898,123.07686069494
5306072010,530607,5306,53,Wulublolong,86271,-8.4466842848128,123.04822152966
5306072011,530607,5306,53,Liwo,86271,-8.4662252168347,123.09752605383
5306072012,530607,5306,53,"Tanah Werang",86271,-8.4461693959108,123.15337475824
5306072013,530607,5306,53,Lewohedo,86271,-8.453454242173,123.03592039788
5306072014,530607,5306,53,"Lohayong II",86271,-8.4367806207822,123.06149754177
5306072016,530607,5306,53,"Watanhura II",86271,-8.4761345880912,123.05717818833
5306072017,530607,5306,53,Lewogeka,86271,-8.4494269104209,123.06765208267
5306072018,530607,5306,53,Lamawai,86271,-8.4568637917532,123.10920140306
5306072019,530607,5306,53,Kawuta,86271,-8.4433408771176,123.11512352985
5306082008,530608,5306,53,Duanur,86263,-8.2631483810954,123.12420836422
5306082010,530608,5306,53,"Bukit Seburi I",86263,-8.3324896891809,123.1252247571
5306082011,530608,5306,53,Waiwadan,86263,-8.287331304071,123.09595961194
5306082012,530608,5306,53,Danibao,86263,-8.3121516759343,123.10106644262
5306082013,530608,5306,53,Pajinian,86263,-8.2942605252353,123.07407484995
5306082014,530608,5306,53,"Ile Pati",86263,-8.335013010583,123.0890337685
5306082015,530608,5306,53,Wureh,86263,-8.3203414605415,123.04770387763
5306082016,530608,5306,53,Tonuwotan,86263,-8.2972364256677,123.10851332024
5306082017,530608,5306,53,Hurung,86263,-8.287381096689,123.08131757739
5306082019,530608,5306,53,Bungalima,86263,-8.3143954289144,123.06216769015
5306082021,530608,5306,53,Homa,86263,-8.2758411501417,123.10098231341
5306082024,530608,5306,53,"Bukit Seburi II",86263,-8.320220217284,123.12284198732
5306082026,530608,5306,53,Kimakamak,86263,-8.3021748742472,123.06625337901
5306082030,530608,5306,53,Watobaya,86263,-8.3030508313638,123.12481493689
5306082032,530608,5306,53,"Nimun Danibao",86263,-8.3388191971828,123.11853020769
5306082033,530608,5306,53,Waitukan,86263,-8.2756457857651,123.12639131932
5306082035,530608,5306,53,Wolokibang,86263,-8.316916314287,123.07912052248
5306082036,530608,5306,53,Riangpadu,86263,-8.3113661023734,123.09059734234
5306092001,530609,5306,53,Wailebe,86260,-8.3675141998884,123.01225985558
5306092002,530609,5306,53,Wotanulumado,86260,-8.3884571213187,123.00832061571
5306092003,530609,5306,53,Nayubaya,86260,-8.3832111967352,123.04714599628
5306092004,530609,5306,53,Oyangbarang,86260,-8.3838353899085,123.06226875065
5306092005,530609,5306,53,Kawela,86260,-8.3589774120619,123.05579716233
5306092006,530609,5306,53,Klukengnuking,86260,-8.3815336773067,123.08268868615
5306092007,530609,5306,53,Pandai,86260,-8.3748836220844,123.09267158959
5306092008,530609,5306,53,Bliko,86260,-8.3348513864043,123.030985154
5306092009,530609,5306,53,Samsoge,86260,-8.3832462144963,123.03687936562
5306092011,530609,5306,53,Tobilota,86260,-8.3496116347088,123.01849569475
5306092012,530609,5306,53,"Tana Tukan",86260,-8.3933903928313,123.02083200012
5306092013,530609,5306,53,Demondei,86260,-8.3493684566185,123.09950249223
5306101001,530610,5306,53,"Waiwerang Kota",86261,-8.3809015017076,123.15857537578
5306101002,530610,5306,53,Lamatwelu,86261,-8.364080331588,123.22533365279
5306102003,530610,5306,53,Dawataa,86261,-8.367302266206,123.1187584775
5306102004,530610,5306,53,Teromh,86261,-8.3901059631647,123.12058395733
5306102005,530610,5306,53,Bilal,86261,-8.3767103676476,123.13144311741
5306102006,530610,5306,53,"Lamahala Jaya",86261,-8.3870812107301,123.15211252094
5306102007,530610,5306,53,Waiburak,86261,-8.3832620288253,123.17985213938
5306102008,530610,5306,53,Narasaosina,86261,-8.3575405447227,123.17909550666
5306102009,530610,5306,53,Karinglamalouk,86261,-8.3382843388869,123.2180542081
5306102010,530610,5306,53,Tuawolo,86261,-8.3596667793595,123.21151318623
5306102011,530610,5306,53,Kiwangona,86261,-8.365246585433,123.19725818657
5306102012,530610,5306,53,Tapobali,86261,-8.3297411813799,123.19054238484
5306102013,530610,5306,53,Lewobunga,86261,-8.352140977975,123.1905660409
5306102014,530610,5306,53,Belota,86261,-8.3752165688304,123.10361667561
5306102015,530610,5306,53,"Ipi Ebang",86261,-8.3716029474346,123.14371625377
5306102016,530610,5306,53,Lamalata,86261,-8.3414197410362,123.23426618543
5306102017,530610,5306,53,Puhu,86261,-8.3200014487032,123.19012682382
5306102018,530610,5306,53,"Kwaelaga Lamawato",86261,-8.3305607403828,123.21047131958
5306102019,530610,5306,53,Gelong,86261,-8.3344669564606,123.18894389145
5306102020,530610,5306,53,"Lelen Bala",86261,-8.3613325829009,123.1341338077
5306102021,530610,5306,53,Saosina,86261,-8.3621770873287,123.16314092026
5306112001,530611,5306,53,Rodentena,86265,-8.301151685015,123.2366329015
5306112002,530611,5306,53,Adolaba,86265,-8.2700085296965,123.24666869138
5306112003,530611,5306,53,Hinga,86265,-8.3059855316433,123.22467581547
5306112004,530611,5306,53,Lamapaha,86265,-8.312584214837,123.22838870709
5306112005,530611,5306,53,Sukutokan,86265,-8.306905458102,123.24370023621
5306112006,530611,5306,53,Nisakarang,86265,-8.3250640399797,123.22822266206
5306112007,530611,5306,53,Muda,86265,-8.3242435579599,123.24106623758
5306112008,530611,5306,53,Horinara,86265,-8.3182551219571,123.21536331588
5306112009,530611,5306,53,Pepakelu,86265,-8.2550205965229,123.23689693055
5306112010,530611,5306,53,Lambunga,86265,-8.2778602530217,123.22087988297
5306112012,530611,5306,53,Mangaaleng,86265,-8.2947722932607,123.21127447206
5306112019,530611,5306,53,Keluwain,86265,-8.296287001251,123.22572797407
5306122001,530612,5306,53,Watololong,86266,-8.3232241271294,123.25178221954
5306122002,530612,5306,53,Tuagoetobi,86266,-8.3260740802371,123.27884248532
5306122003,530612,5306,53,Weranggere,86266,-8.3054587652815,123.25703680775
5306122004,530612,5306,53,Oringbele,86266,-8.3007075684361,123.2863206875
5306122005,530612,5306,53,Watoone,86266,-8.3170830566257,123.26383874121
5306122006,530612,5306,53,Lamabelawa,86266,-8.2948298331078,123.25708844542
5306122007,530612,5306,53,Pledo,86266,-8.2760392546424,123.30840969612
5306122008,530612,5306,53,Lewopulo,86266,-8.2715899135313,123.25582034841
5306122009,530612,5306,53,Sandosi,86266,-8.2677463423288,123.27732406191
5306122010,530612,5306,53,Balaweling,86266,-8.2716181759415,123.26897386942
5306122011,530612,5306,53,Tobitika,86266,-8.2655185557614,123.28446993631
5306122012,530612,5306,53,Riangduli,86266,-8.3113153375643,123.29440604817
5306122013,530612,5306,53,Waiwuring,86266,-8.295951298541,123.30344119741
5306122014,530612,5306,53,Baobage,86266,-8.2631963310042,123.29581113288
5306122015,530612,5306,53,Lamaleka,86266,-8.2910132259699,123.26813135992
5306122016,530612,5306,53,"Balaweling Noten",86266,-8.2668345898971,123.26486853859
5306132001,530613,5306,53,Bedalewun,86253,-8.3836271517605,123.23058387411
5306132002,530613,5306,53,Nihaone,86253,-8.3664983835951,123.23995624576
5306132003,530613,5306,53,Lewobelolong,86253,-8.3859260870862,123.24065041437
5306132004,530613,5306,53,Bungalawan,86253,-8.3864824313667,123.23666661618
5306132005,530613,5306,53,Lamawolo,86253,-8.3795674451337,123.25202077518
5306132006,530613,5306,53,Helanlangowuyo,86253,-8.3792852192321,123.25873385424
5306132007,530613,5306,53,Lewopao,86253,-8.3773355601985,123.26469239238
5306132008,530613,5306,53,Gayak,86253,-8.376134958926,123.29117555359
5306132009,530613,5306,53,Boleng,86253,-8.3817672081491,123.29492163417
5306132010,530613,5306,53,Neleblolong,86253,-8.3624192598382,123.27149865024
5306132011,530613,5306,53,Duablolong,86253,-8.3461900300393,123.29528475699
5306132012,530613,5306,53,Lewokeleng,86253,-8.3822519453195,123.22428651318
5306132013,530613,5306,53,Nelelamawangi,86253,-8.366652728436,123.2846763353
5306132014,530613,5306,53,Harubala,86253,-8.377499240796,123.27237742865
5306132015,530613,5306,53,Nelelamadike,86253,-8.373818733632,123.27814399831
5306132016,530613,5306,53,Lamabayung,86253,-8.3502215812746,123.27412213676
5306132017,530613,5306,53,Lewat,86253,-8.3711640875161,123.2336720277
5306132018,530613,5306,53,Dokeng,86253,-8.357904175119,123.24794669255
5306132019,530613,5306,53,Bayuntaa,86253,-8.3837581004806,123.2449482885
5306132020,530613,5306,53,Nobo,86253,-8.383079174666,123.28746056684
5306132021,530613,5306,53,"Nelelamawangi Dua",86253,-8.3672301294553,123.29598239635
5306142001,530614,5306,53,Lamika,86219,-8.4256004800632,122.84623659816
5306142002,530614,5306,53,"Watotika Ile",86219,-8.4201250222363,122.85993584295
5306142003,530614,5306,53,Lewokluok,86219,-8.3528780935986,122.84274244063
5306142004,530614,5306,53,Blepanawa,86219,-8.3719306262347,122.85737271813
5306142005,530614,5306,53,Kawalelo,86219,-8.4303828257444,122.87926437615
5306142006,530614,5306,53,Bama,86219,-8.3744328107581,122.8729141227
5306142007,530614,5306,53,Lewomuda,86219,-8.4443720082403,122.85232525659
5306152001,530615,5306,53,"Ile Padung",86252,-8.3014528782329,122.88079202108
5306152002,530615,5306,53,Bantala,86252,-8.3060812278558,122.90894380017
5306152003,530615,5306,53,"Sinar Hading",86252,-8.2606691016215,122.90699543158
5306152004,530615,5306,53,Paingnapang,86252,-8.2453555329882,122.93863246303
5306152005,530615,5306,53,"Baluk Herin",86252,-8.2159038155192,122.93706011927
5306152006,530615,5306,53,Riangkotek,86252,-8.2870398970973,122.90348606177
5306152007,530615,5306,53,Lewobelen,86252,-8.3150749373175,122.85560557665
5306162001,530616,5306,53,Riangbura,86254,-8.5878414541628,122.77526161768
5306162002,530616,5306,53,Birawan,86254,-8.577961688738,122.82371609362
5306162003,530616,5306,53,Nurri,86254,-8.5211392148863,122.78987576136
5306162004,530616,5306,53,Nobokonga,86254,-8.4805847609799,122.77650775365
5306162005,530616,5306,53,Lewoawang,86254,-8.5832639132649,122.79815139715
5306162006,530616,5306,53,Dulipali,86254,-8.500479815552,122.75624673851
5306162007,530616,5306,53,"Riang Rita",86254,-8.5522112526079,122.81654010586
5306172001,530617,5306,53,Sagu,86262,-8.2454315647115,123.20042943785
5306172002,530617,5306,53,Kolimasang,86262,-8.2698040770008,123.19263475032
5306172003,530617,5306,53,Kolilanang,86262,-8.2797664612083,123.18677336068
5306172004,530617,5306,53,Tikatukan,86262,-8.3047813518781,123.18939516878
5306172005,530617,5306,53,"Nisa Nulan",86262,-8.262862183403,123.20599440895
5306172006,530617,5306,53,Lamahoda,86262,-8.2724807942861,123.16843976123
5306172007,530617,5306,53,Adonara,86262,-8.2477882358993,123.14388531065
5306172008,530617,5306,53,Kolipetung,86262,-8.3097165655899,123.20044811045
5306182001,530618,5306,53,Horowura,86264,-8.3519418911812,123.14942300484
5306182002,530618,5306,53,Kokotobo,86264,-8.3156671905555,123.1376949559
5306182003,530618,5306,53,Lite,86264,-8.3343569116811,123.14871013156
5306182004,530618,5306,53,Kenotan,86264,-8.3288658574288,123.16528166465
5306182005,530618,5306,53,Nubalema,86264,-8.3163242533824,123.16745189424
5306182006,530618,5306,53,Wewit,86264,-8.2901506490307,123.15376495918
5306182007,530618,5306,53,Lewobele,86264,-8.3012725787167,123.14566899382
5306182008,530618,5306,53,Baya,86264,-8.2967987470105,123.13569029279
5306182009,530618,5306,53,Bidara,86264,-8.3014960227885,123.15067880705
5306182010,530618,5306,53,Oesayang,86264,-8.2999384105582,123.17138085957
5306182011,530618,5306,53,"Hoko Horowura",86264,-8.3471468598131,123.1389500661
5306182012,530618,5306,53,Lewopao,86264,-8.3240085119566,123.14518671484
5306182013,530618,5306,53,"Nubalema Dua",86264,-8.3000021662139,123.16177833948
5306192001,530619,5306,53,Kelike,86273,-8.4762612715881,123.00357826705
5306192002,530619,5306,53,"Kelike Aimatan",86273,-8.4713737373453,123.01742075135
5306192003,530619,5306,53,Sulengwaseng,86273,-8.5034691890101,122.96952882804
5306192004,530619,5306,53,Kenere,86273,-8.491492278039,122.98793742237
5306192005,530619,5306,53,Lemanu,86273,-8.4830437887136,122.99497209195
5306192006,530619,5306,53,Lewograran,86273,-8.4692170191684,123.0333011583
5306192007,530619,5306,53,Bubuatagamu,86273,-8.4749493636944,123.04359100021
5307012001,530701,5307,53,Masabewa,86153,-8.7236275576209,122.02753406094
5307012003,530701,5307,53,Wolowiro,86153,-8.7789875363564,122.00582157065
5307012004,530701,5307,53,Mbengu,86153,-8.7797552655504,122.02884824676
5307012005,530701,5307,53,Paga,86153,-8.7506044869717,122.05101756561
5307012008,530701,5307,53,Lenandareta,86153,-8.7416942090807,122.01770970384
5307012012,530701,5307,53,Mauloo,86153,-8.7595915814503,122.02186538113
5307012013,530701,5307,53,Wolorega,86153,-8.6938736508982,122.02235610175
5307012015,530701,5307,53,Wolowona,86153,-8.7559560108057,122.03213115697
5307012017,530701,5307,53,Begu,86153,,
5307012018,530701,5307,53,Kotandelu,86153,,
5307012019,530701,5307,53,Lowolabo,86153,,
5307012020,530701,5307,53,Aebubu,86153,,
5307012021,530701,5307,53,Regapu'u,86153,,
5307012022,530701,5307,53,Rejo,86153,,
5307022001,530702,5307,53,Bhera,86113,-8.7019113037502,122.06438674758
5307022002,530702,5307,53,Dobo,86113,-8.7114322949249,122.09623806887
5307022003,530702,5307,53,Gera,86113,-8.6552364178098,122.06772615937
5307022004,530702,5307,53,Liakutu,86113,-8.6433967099235,122.04589507422
5307022005,530702,5307,53,Parabubu,86113,-8.628433557737,122.00940254559
5307022006,530702,5307,53,Wolodhesa,86113,-8.670759488324,122.03483423614
5307022007,530702,5307,53,Korobhera,86113,-8.7370683618499,122.07762310542
5307022008,530702,5307,53,Napugera,86113,-8.6383022882252,121.99546724563
5307022009,530702,5307,53,Kowi,86113,-8.6823211517888,122.02617952818
5307022010,530702,5307,53,"Dobo Nuapuu",86113,-8.6879978614447,122.08697145471
5307022011,530702,5307,53,Ratekalo,86113,,
5307022012,530702,5307,53,Ndaimbere,86113,,
5307032001,530703,5307,53,Lela,86161,-8.7187950553067,122.17112746917
5307032002,530703,5307,53,Watutedang,86161,-8.7245036669913,122.18078532349
5307032003,530703,5307,53,Korowuwu,86161,-8.7101600662433,122.12912063676
5307032004,530703,5307,53,Kolidetung,86161,-8.7238739243448,122.11654184551
5307032005,530703,5307,53,Sikka,86161,-8.7358839736027,122.21431146971
5307032006,530703,5307,53,Iligai,86161,-8.7136848061414,122.19993961169
5307032007,530703,5307,53,Hepang,86161,-8.7172994894752,122.14863996957
5307032008,530703,5307,53,Baopaat,86161,-8.7116210984379,122.16288859227
5307032009,530703,5307,53,Du,86161,-8.7297291214175,122.19730278308
5307042001,530704,5307,53,Nita,86151,-8.6754535906616,122.17379860564
5307042002,530704,5307,53,Takaplager,86151,-8.6517087903756,122.18372590972
5307042003,530704,5307,53,Tebuk,86151,-8.6918669051155,122.17454376346
5307042004,530704,5307,53,Ladogahar,86151,-8.6522917547246,122.15247050181
5307042005,530704,5307,53,Nitakloang,86151,-8.6663680480149,122.16558247478
5307042006,530704,5307,53,Wuliwutik,86151,-8.6325770019788,122.15878749408
5307042007,530704,5307,53,Lusitada,86151,-8.69591872552,122.15828128162
5307042008,530704,5307,53,Bloro,86151,-8.6737662178855,122.15030164534
5307042009,530704,5307,53,Riit,86151,-8.6464161259253,122.12926056145
5307042010,530704,5307,53,Tilang,86151,-8.6885309170441,122.12951298688
5307042011,530704,5307,53,Nirangkliung,86151,-8.6415563645179,122.0927598633
5307042017,530704,5307,53,Mahebora,86151,-8.6500314611294,122.11078797026
5307042018,530704,5307,53,Nangablo,86151,,
5307042019,530704,5307,53,"Kara Kabu",86151,,
5307042020,530704,5307,53,"Tada Lado",86151,,
5307051006,530705,5307,53,Madawat,86112,-8.6300295159275,122.20185695386
5307051007,530705,5307,53,Nangalimang,86118,-8.6483538527353,122.20100771937
5307051008,530705,5307,53,Kabor,86112,-8.6222872924188,122.2158784575
5307051009,530705,5307,53,"Kota Uneng",86113,-8.6148975780878,122.20867402444
5307052014,530705,5307,53,Pemana,86116,-8.3538077224605,122.31585048859
5307052015,530705,5307,53,Samparong,86116,-8.1157150268008,122.12126261893
5307052016,530705,5307,53,"Gunung Sari",86116,-8.3612311619417,122.2922014575
5307062001,530706,5307,53,Maluriwu,86110,-8.3014575270593,121.72295325827
5307062002,530706,5307,53,Reruwairere,86110,-8.3155205824619,121.7315633639
5307062003,530706,5307,53,Tuanggeo,86110,-8.3116128110149,121.70526150159
5307062004,530706,5307,53,Ladolaka,86110,-8.302762989776,121.70882979387
5307062005,530706,5307,53,Nitunglea,86110,-8.336512811636,121.6941701549
5307062006,530706,5307,53,Rokirole,86110,-8.3165802050301,121.69598378623
5307062007,530706,5307,53,Kesokoja,86110,-8.3138576163317,121.71764443102
5307062008,530706,5307,53,Lidi,86110,-8.337916345568,121.72711214687
5307072002,530707,5307,53,"Nelle Urung",86119,-8.6593561186062,122.21697104355
5307072003,530707,5307,53,"Nelle Wutung",86119,-8.6963039280716,122.22242170626
5307072004,530707,5307,53,"Nelle Barat",86119,-8.6914301545612,122.21287282947
5307072005,530707,5307,53,"Nella Lorang",86119,-8.6742720456406,122.21695639592
5307072006,530707,5307,53,Manubura,86119,-8.6669757360227,122.20919153929
5307082001,530708,5307,53,"Darat Gunung",86183,-8.5108625112819,122.55201083204
5307082002,530708,5307,53,Ojang,86183,-8.4636845144512,122.6507339656
5307082003,530708,5307,53,Hikong,86183,-8.5319556105219,122.63626052925
5307082006,530708,5307,53,Nebe,86183,-8.4912862882662,122.58022911304
5307082007,530708,5307,53,Wailamung,86183,-8.4447712090025,122.59481907645
5307082008,530708,5307,53,Lewomada,86183,-8.4151987638655,122.64873593161
5307082010,530708,5307,53,Nangahale,86183,-8.5550958316858,122.52349444315
5307082011,530708,5307,53,"Darat Pantai",86183,-8.4938253815074,122.50770668843
5307082013,530708,5307,53,Talibura,86183,-8.535112808576,122.54541473749
5307082014,530708,5307,53,Kringa,86183,-8.4870140346978,122.62261580007
5307082015,530708,5307,53,Bangkoor,86183,-8.4775643910729,122.54751212092
5307082017,530708,5307,53,Timutawa,86183,-8.4922564371504,122.66406882219
5307082019,530708,5307,53,"Udek Du'en",86183,,
5307082020,530708,5307,53,"Watu Omok",86183,,
5307082021,530708,5307,53,Waipaar,86183,,
5307082022,530708,5307,53,Baokremot,86183,,
5307082023,530708,5307,53,Henga,86183,,
5307082024,530708,5307,53,Likonggete,86183,,
5307082025,530708,5307,53,Watubaing,86183,,
5307082026,530708,5307,53,Mamai,86183,,
5307092001,530709,5307,53,Runut,86185,-8.6118858073586,122.5108066773
5307092002,530709,5307,53,Egon,86185,-8.646999806944,122.41417903286
5307092003,530709,5307,53,Pogon,86185,-8.677090552707,122.33567131654
5307092004,530709,5307,53,Aibura,86185,-8.6682981250078,122.33755854073
5307092005,530709,5307,53,Wairbleler,86185,-8.646469948759,122.33515699429
5307092006,530709,5307,53,Hoder,86185,-8.6460940727052,122.36754021392
5307092007,530709,5307,53,Wairterang,86185,-8.6359055379104,122.46867392447
5307092008,530709,5307,53,Nangatobong,86185,-8.6373385474664,122.44659947207
5307092009,530709,5307,53,Watudiran,86185,-8.6502281952651,122.54855959419
5307092010,530709,5307,53,"Mahe Kelan",86185,,
5307092011,530709,5307,53,"Egon Buluk",86185,,
5307102005,530710,5307,53,Seusina,86182,-8.673004706863,122.30019484563
5307102007,530710,5307,53,Kopong,86182,-8.6755593515859,122.29064258496
5307102008,530710,5307,53,Namangkewa,86182,-8.6498617665214,122.29813639668
5307102009,530710,5307,53,Iantena,86182,-8.6903987650197,122.28565398699
5307102016,530710,5307,53,Umagera,86182,-8.6690647320442,122.27632087927
5307102020,530710,5307,53,Geliting,86182,-8.644741154687,122.29053343304
5307102021,530710,5307,53,Waiara,86182,-8.6485555974715,122.30874605424
5307102024,530710,5307,53,Wairkoja,86182,-8.6511790077106,122.2836791329
5307102026,530710,5307,53,Watukobu,86182,,
5307112001,530711,5307,53,Hokor,86171,-8.7326599501731,122.2461246021
5307112002,530711,5307,53,Wolonwalu,86171,-8.7335671779754,122.26948895298
5307112003,530711,5307,53,Wolokoli,86171,-8.7192645683853,122.28150712176
5307112004,530711,5307,53,Bola,86171,-8.732820473966,122.29196481448
5307112005,530711,5307,53,Umauta,86171,-8.7194074179627,122.30060729511
5307112006,530711,5307,53,Ipir,86171,-8.7307677195324,122.31792477623
5307112018,530711,5307,53,"Bura Bekor",86171,,
5307112019,530711,5307,53,Watukrus,86171,,
5307122001,530712,5307,53,Magepanda,86152,-8.571428401695,122.06073542755
5307122002,530712,5307,53,Reroroja,86152,-8.5636196819531,122.01367495022
5307122003,530712,5307,53,Done,86152,-8.5873525922177,122.03625427331
5307122004,530712,5307,53,Kolisia,86152,-8.5735301864772,122.11349032016
5307122005,530712,5307,53,"Kolisia B",86152,-8.5578833989086,122.08372908145
5307122006,530712,5307,53,"Woda Mude",86152,,
5307122007,530712,5307,53,"Legu Woda",86152,,
5307122008,530712,5307,53,Waturia,86152,,
5307132001,530713,5307,53,Natarmage,86184,-8.6220315929832,122.58591584057
5307132002,530713,5307,53,Tanarawa,86184,-8.5862799260318,122.59835035519
5307132003,530713,5307,53,Pruda,86184,-8.6113732744754,122.63040100453
5307132004,530713,5307,53,Werang,86184,-8.5538692222178,122.60902032227
5307132005,530713,5307,53,"Tua Bao",86184,-8.5804755818197,122.54358519199
5307132006,530713,5307,53,Ilinmedo,86184,-8.557018822657,122.56802571475
5307132007,530713,5307,53,"Watu Moning",86184,,
5307141001,530714,5307,53,Hewuli,86115,-8.586229798937,122.15706307042
5307141002,530714,5307,53,Wailiti,86114,-8.6034906363812,122.17025748984
5307141003,530714,5307,53,Wolomarang,86114,-8.6168650217164,122.18907019497
5307141004,530714,5307,53,Wuring,86115,-8.5756456659536,122.14297356777
5307151001,530715,5307,53,Beru,86111,-8.6313578643205,122.22251426176
5307151002,530715,5307,53,"Kota Baru",86215,-8.630275397526,122.21695224573
5307151003,530715,5307,53,Nangameting,86118,-8.6316146287368,122.227698303
5307151004,530715,5307,53,Waioti,86118,-8.6350412456664,122.23694749311
5307151005,530715,5307,53,Wairotang,86111,-8.6244028641482,122.22687146781
5307152006,530715,5307,53,"Koja Doi",86116,-8.4724992393646,122.36494699569
5307152007,530715,5307,53,Kojagete,86116,-8.4508014282952,122.38303256216
5307152008,530715,5307,53,"Lepo Lima",86116,-8.6443361333351,122.21821687808
5307152009,530715,5307,53,Perumaan,86116,-8.4475537829281,122.47362149814
5307152010,530715,5307,53,Watugong,86116,-8.6748256189184,122.22989496461
5307152011,530715,5307,53,"Gong Bekor",86116,,
5307162001,530716,5307,53,"Koting A",86116,-8.6771161679383,122.19410343944
5307162002,530716,5307,53,"Koting B",86116,-8.6863781995895,122.1877435886
5307162003,530716,5307,53,"Koting C",86116,-8.6989762853885,122.18671783628
5307162004,530716,5307,53,"Koting D",86116,-8.7002285860784,122.20288166186
5307162005,530716,5307,53,Paubekor,86116,-8.6941737165512,122.2099016638
5307162006,530716,5307,53,Ribang,86116,-8.665442966547,122.19384219037
5307162007,530716,5307,53,"Watu Repa",86116,,
5307172001,530717,5307,53,"Bu Selatan",86154,-8.7478825669846,121.96625070702
5307172002,530717,5307,53,"Bu Utara",86154,-8.7276816062555,121.94956962992
5307172003,530717,5307,53,"Bu Watuweti",86154,-8.7058359002003,121.95021438772
5307172004,530717,5307,53,Loke,86154,-8.691716920206,121.97315056618
5307172005,530717,5307,53,Renggarasi,86154,-8.7162260738744,121.97487566231
5307172006,530717,5307,53,Detubinga,86154,-8.7378736384352,121.98517623098
5307172007,530717,5307,53,Tuwa,86154,-8.6961257579792,121.99734267297
5307172008,530717,5307,53,Poma,86154,-8.656958642358,121.98451169321
5307172009,530717,5307,53,"Bu Barat",86154,,
5307172010,530717,5307,53,"Bu Nuapu'u",86154,,
5307182001,530718,5307,53,Rubit,86181,-8.6905440966071,122.34878981353
5307182002,530718,5307,53,Wolomapa,86181,-8.6903759034937,122.32658829496
5307182003,530718,5307,53,Baomekot,86181,-8.7068293514666,122.33023469773
5307182004,530718,5307,53,Kajowair,86181,-8.7011415250363,122.31728428316
5307182005,530718,5307,53,Hewokloang,86181,-8.6972772399653,122.30610995546
5307182006,530718,5307,53,Heopuat,86181,-8.6745353999965,122.30791096218
5307182007,530718,5307,53,Munerana,86181,-8.6765036045475,122.31569005828
5307192001,530719,5307,53,"Teka Iku",86180,-8.6957117001829,122.24351918419
5307192002,530719,5307,53,Mekendetung,86180,-8.6992746754498,122.25908845451
5307192003,530719,5307,53,Kokowahor,86180,-8.6681896292421,122.26855984798
5307192004,530719,5307,53,Balatatatin,86180,-8.6964240554112,122.27372146016
5307192005,530719,5307,53,Watuliwung,86180,-8.6531956811406,122.25688632926
5307192006,530719,5307,53,"Tana Duen",86180,-8.6601440518598,122.26254539644
5307192007,530719,5307,53,Watumilok,86180,-8.6449321210209,122.27703109193
5307192008,530719,5307,53,Habi,86180,-8.6543543995994,122.24882910151
5307192009,530719,5307,53,Langir,86180,-8.6597820136608,122.24084697339
5307202001,530720,5307,53,Waihawa,86170,-8.7408041900626,122.37222057941
5307202002,530720,5307,53,Nenbura,86170,-8.7218080304583,122.40005041826
5307202003,530720,5307,53,Wogalirit,86170,-8.7068481487053,122.39033729098
5307202004,530720,5307,53,Watumerak,86170,-8.7038538335878,122.3798861417
5307202005,530720,5307,53,Wolonterang,86170,-8.7276524727838,122.35736782309
5307202006,530720,5307,53,Kloangpopot,86170,-8.712584427688,122.35193315688
5307202007,530720,5307,53,Wolomotong,86170,-8.7000281937087,122.35449074262
5307202008,530720,5307,53,"Mahe Tanah",86170,,
5307202009,530720,5307,53,Pelibaler,86170,,
5307212001,530721,5307,53,Hale,86172,-8.6898024920132,122.50073113669
5307212002,530721,5307,53,Hebing,86172,-8.7107099482701,122.46208570354
5307212003,530721,5307,53,Natakoli,86172,-8.7164330350054,122.42336559099
5307212004,530721,5307,53,"Egon Gahar",86172,-8.6972121803737,122.43853413531
5308011001,530801,5308,53,Ndorurea,86351,-8.7796120938625,121.4765600511
5308012002,530801,5308,53,Ondorea,86351,-8.7786205988544,121.4485248552
5308012003,530801,5308,53,Watumite,86351,-8.7156437447562,121.40938215189
5308012004,530801,5308,53,Tendarea,86351,-8.7229097494279,121.43861262985
5308012005,530801,5308,53,Kerirea,86351,-8.7250834972413,121.49171147993
5308012006,530801,5308,53,Tendambepa,86351,-8.6941939786333,121.45095386527
5308012007,530801,5308,53,Zozozea,86351,-8.7823653157214,121.51108759511
5308012008,530801,5308,53,Rapowawo,86351,-8.7673564480304,121.53140166491
5308012009,530801,5308,53,Nggorea,86351,-8.7991953045709,121.51521257991
5308012010,530801,5308,53,Raporendu,86351,-8.796571989319,121.53637930302
5308012011,530801,5308,53,Bheramari,86351,-8.7862110162901,121.56310028773
5308012012,530801,5308,53,Tiwerea,86351,-8.7443605117551,121.45721798505
5308012013,530801,5308,53,Sanggarhorho,86351,-8.7688670971486,121.50210657568
5308012014,530801,5308,53,Ndeturea,86351,-8.7791115872959,121.48539351934
5308012015,530801,5308,53,"Ndorurea I",86351,-8.7653740831717,121.46654150421
5308012016,530801,5308,53,Penggajawa,86351,-8.7945813273048,121.49271301142
5308012017,530801,5308,53,Jegharangga,86351,-8.775355251595,121.55168098063
5308012018,530801,5308,53,"Ondorea Barat",86351,-8.7813831551855,121.4281982461
5308012019,530801,5308,53,Romarea,86351,-8.6967558066655,121.41922848595
5308012020,530801,5308,53,Timbaria,86351,-8.7395401993571,121.43570152704
5308012021,530801,5308,53,Mbobhenga,86351,-8.7058989874209,121.43963565765
5308012022,530801,5308,53,Malawaru,86351,-8.6729683294337,121.45226537442
