[
    {
        "code": 7301,
        "province_code": 73,
        "name": "Kab. Kepulauan Selayar",
        "latitude": -6.55789406017426,
        "longitude": 120.71787979061727
    },
    {
        "code": 7302,
        "province_code": 73,
        "name": "Kab. Bulukumba",
        "latitude": -5.43145040240935,
        "longitude": 120.23432620358022
    },
    {
        "code": 7303,
        "province_code": 73,
        "name": "Kab. Bantaeng",
        "latitude": -5.490181034353774,
        "longitude": 119.98736459322907
    },
    {
        "code": 7304,
        "province_code": 73,
        "name": "Kab. Jeneponto",
        "latitude": -5.567027149888587,
        "longitude": 119.69887994925473
    },
    {
        "code": 7305,
        "province_code": 73,
        "name": "Kab. Takalar",
        "latitude": -5.418454518894519,
        "longitude": 119.47414660010823
    },
    {
        "code": 7306,
        "province_code": 73,
        "name": "Kab. Gowa",
        "latitude": -5.308904454522386,
        "longitude": 119.71872022687438
    },
    {
        "code": 7307,
        "province_code": 73,
        "name": "Kab. Sinjai",
        "latitude": -5.209283365946931,
        "longitude": 120.13541509179171
    },
    {
        "code": 7308,
        "province_code": 73,
        "name": "Kab. Bone",
        "latitude": -4.694987934538423,
        "longitude": 120.13005213977289
    },
    {
        "code": 7309,
        "province_code": 73,
        "name": "Kab. Maros",
        "latitude": -4.9996246996889075,
        "longitude": 119.72628670335565
    },
    {
        "code": 7310,
        "province_code": 73,
        "name": "Kab. Pangkajene Kepulauan",
        "latitude": -4.938544568684989,
        "longitude": 119.47958974336662
    },
    {
        "code": 7311,
        "province_code": 73,
        "name": "Kab. Barru",
        "latitude": -4.439995747432739,
        "longitude": 119.69484668463267
    },
    {
        "code": 7312,
        "province_code": 73,
        "name": "Kab. Soppeng",
        "latitude": -4.337042412503776,
        "longitude": 119.89337873636721
    },
    {
        "code": 7313,
        "province_code": 73,
        "name": "Kab. Wajo",
        "latitude": -3.991826295113855,
        "longitude": 120.17283503987849
    },
    {
        "code": 7314,
        "province_code": 73,
        "name": "Kab. Sidenreng Rappang",
        "latitude": -3.813113314640377,
        "longitude": 119.95848331905877
    },
    {
        "code": 7315,
        "province_code": 73,
        "name": "Kab. Pinrang",
        "latitude": -3.6282475322800787,
        "longitude": 119.60267110363264
    },
    {
        "code": 7316,
        "province_code": 73,
        "name": "Kab. Enrekang",
        "latitude": -3.503855637450004,
        "longitude": 119.87457405940276
    },
    {
        "code": 7317,
        "province_code": 73,
        "name": "Kab. Luwu",
        "latitude": -3.1992107616132457,
        "longitude": 120.1831190890794
    },
    {
        "code": 7318,
        "province_code": 73,
        "name": "Kab. Tana Toraja",
        "latitude": -3.115606220806726,
        "longitude": 119.71162993559463
    },
    {
        "code": 7322,
        "province_code": 73,
        "name": "Kab. Luwu Utara",
        "latitude": -2.3959351841425476,
        "longitude": 120.16443417949097
    },
    {
        "code": 7324,
        "province_code": 73,
        "name": "Kab. Luwu Timur",
        "latitude": -2.5560452751219573,
        "longitude": 121.12833364788712
    },
    {
        "code": 7326,
        "province_code": 73,
        "name": "Kab. Toraja Utara",
        "latitude": -2.8796217484782005,
        "longitude": 119.86426012459226
    },
    {
        "code": 7371,
        "province_code": 73,
        "name": "Kota Makassar",
        "latitude": -5.135610238766096,
        "longitude": 119.46389981936488
    },
    {
        "code": 7372,
        "province_code": 73,
        "name": "Kota Pare Pare",
        "latitude": -4.031642649348139,
        "longitude": 119.66355535309485
    },
    {
        "code": 7373,
        "province_code": 73,
        "name": "Kota Palopo",
        "latitude": -2.9797069485195546,
        "longitude": 120.14776633592399
    }
]