code,district_code,regency_code,province_code,name,postal_code,latitude,longitude
7301011001,730101,7301,73,"Benteng Utara",92812,-6.105801996889,120.46764269782
7301011002,730101,7301,73,Benteng,92812,-6.1180684585469,120.46578463211
7301011003,730101,7301,73,"Benteng Selatan",92812,-6.1255316308473,120.46302334042
7301021001,730102,7301,73,"Putabangun ",92811,-6.1218290789442,120.50750348746
7301021002,730102,7301,73,"Bontobangun ",92811,-6.1502962151338,120.48938098079
7301022003,730102,7301,73,Bontosunggu,92811,-6.180408113354,120.44051079914
7301022004,730102,7301,73,Bontoborusu,92811,-6.1865739698914,120.40849378254
7301022005,730102,7301,73,Bontolebang,92811,-6.1201424726763,120.41929425868
7301022006,730102,7301,73,Bontotangnga,92811,-6.188765397029,120.48230979266
7301022007,730102,7301,73,Kahu-Kahu,92811,-6.1516195381569,120.41051393475
7301022008,730102,7301,73,Kalepadang,92811,-6.1645721213024,120.48889130931
7301031001,730103,7301,73,Batangmata,92854,-5.9266980316342,120.44954160689
7301031002,730103,7301,73,"Batangmata Sapo",92854,-5.9288918733019,120.50570443704
7301032003,730103,7301,73,Pamatata,92854,-5.8367913071617,120.5058506197
7301032004,730103,7301,73,Tanete,92854,-5.8579474979778,120.50736449657
7301032005,730103,7301,73,Bungaiya,92854,-5.8287688203279,120.47678262188
7301032006,730103,7301,73,"Kayu Bauk",92854,-5.8772290759937,120.50890757352
7301032007,730103,7301,73,"Barat Lambongan",92854,-5.9023988029036,120.46630986191
7301032008,730103,7301,73,"Bontona Saluk",92854,-5.9044414035893,120.51101727789
7301032009,730103,7301,73,Onto,92854,-5.947657384387,120.50143634325
7301032010,730103,7301,73,Maharayya,92854,-5.948461198071,120.46368091297
7301032011,730103,7301,73,"Menara Indah",92854,-5.7468079452042,120.48290650879
7301032015,730103,7301,73,Tamalanrea,92854,-5.9263051627286,120.46781477845
7301042001,730104,7301,73,Parak,92851,-6.075276796333,120.47346441196
7301042002,730104,7301,73,Barugaiya,92851,-6.0295645934453,120.45911303261
7301042003,730104,7301,73,Jambuiya,92851,-6.0620540934969,120.49351224749
7301042004,730104,7301,73,Mare-Mare,92851,-6.0444907533232,120.48801984095
7301042005,730104,7301,73,Polebunging,92851,-6.0229793726314,120.48784644789
7301042006,730104,7301,73,"Bonea Makmur",92851,-6.0120770252601,120.5392528172
7301042008,730104,7301,73,Bontomarannu,92851,-6.0790239306314,120.52937308646
7301042010,730104,7301,73,"Bonea Timur",92851,-6.0473702586341,120.53863834877
7301042011,730104,7301,73,Bontokoraang,92851,-6.1036758272079,120.53494632134
7301042012,730104,7301,73,Kaburu,92851,-6.0737014320561,120.48778292083
7301052001,730105,7301,73,Harapan,92855,-6.2487891105848,120.4877641525
7301052002,730105,7301,73,Patikarya,92855,-6.2268374866104,120.46901414245
7301052003,730105,7301,73,Patilereng,92855,-6.2112391127763,120.49872652166
7301052004,730105,7301,73,"Laiyolo Baru",92855,-6.2699655306489,120.5050738733
7301052005,730105,7301,73,Laiyolo,92855,-6.3016655765526,120.50922500953
7301052006,730105,7301,73,Lantibongan,92855,-6.3672153758231,120.49341657905
7301052007,730105,7301,73,"Binanga Sombaiya",92855,-6.3367641987373,120.49860958305
7301052008,730105,7301,73,Lowa,92855,-6.4143056485587,120.4834471868
7301052009,730105,7301,73,Appatanah,92855,-6.4687559893419,120.48572183179
7301052010,730105,7301,73,Tambolongan,92855,-6.6128673073991,120.43324823069
7301052011,730105,7301,73,Polassi,92855,-6.6804154908959,120.43189895544
7301052012,730105,7301,73,"Khusus Bahuluang",92855,-6.4800928329599,120.42712010991
7301062001,730106,7301,73,"Kembang Ragi",92861,-7.0670814829751,120.63443268809
7301062003,730106,7301,73,Ma'minasa,92861,-7.1146170869062,120.70561277858
7301062005,730106,7301,73,Tanamalala,92861,-7.0759262500115,120.57407367153
7301062006,730106,7301,73,"Labuang Pamajang",92861,-7.0929269494612,120.65191408741
7301062007,730106,7301,73,Massungke,92861,-7.0276737957282,120.63520408263
7301062009,730106,7301,73,Bontosaile,92811,-7.0497049828927,120.67134656411
7301062011,730106,7301,73,"Teluk Kampe",92861,-7.1156545031451,120.67019575836
7301072001,730107,7301,73,Bonerate,92862,-7.3555651854776,121.09012095295
7301072002,730107,7301,73,Majapahit,92862,-7.3764587674652,121.08554045492
7301072003,730107,7301,73,"Batu Bingkung",92862,-7.3567970390024,121.11541793541
7301072004,730107,7301,73,Bonea,92862,-7.3702455375107,121.14176636214
7301072005,730107,7301,73,Lambego,92862,-7.3049035931151,120.98951544651
7301072006,730107,7301,73,Komba-Komba,92862,-7.2841432283595,120.85937134011
7301072007,730107,7301,73,Sambali,92862,-7.3529739243551,121.14864109269
7301072008,730107,7301,73,Lamantu,92862,-7.3279972265836,121.09215994239
7301082001,730108,7301,73,Kayuadi,92860,-6.8534564706624,120.79968911487
7301082002,730108,7301,73,Batang,92860,-6.8181895824712,120.7974378828
7301082003,730108,7301,73,"Nyiur Indah",92860,-6.7953143777421,120.79362669079
7301082004,730108,7301,73,Tambuna,92860,-7.0351754792708,121.07959307951
7301082005,730108,7301,73,Jinato,92860,-6.8622844297553,121.20606140563
7301082006,730108,7301,73,Rajuni,92860,-6.5551682136065,121.03166632412
7301082007,730108,7301,73,Latondu,92860,-6.502506779321,120.98696407997
7301082008,730108,7301,73,Tarupa,92860,-6.4605883690417,121.12148162934
7301082009,730108,7301,73,"Khusus Pasitallu",92860,-7.0736843183036,121.12127370968
7301092001,730109,7301,73,Kalaotoa,92863,-7.3870433678898,121.7941483856
7301092002,730109,7301,73,Garaupa,92863,-7.3585670527841,121.78080682636
7301092003,730109,7301,73,"Lembang Matene",92863,-7.3703960245362,121.827084197
7301092004,730109,7301,73,"Pulo Madu",92863,-7.4852934439776,121.76957449534
7301092005,730109,7301,73,Karumpa,92863,-7.2594983485333,121.76700249396
7301092006,730109,7301,73,"Garaupa Raya",92863,-7.4056149075802,121.76311369463
7301102001,730110,7301,73,Bontobulaeng,92861,-7.0728419015198,120.77271300992
7301102002,730110,7301,73,Bontobaru,92861,-7.0773115146443,120.70793426456
7301102003,730110,7301,73,Bontomalling,92861,-7.118186778576,120.75736899122
7301102004,730110,7301,73,"Lembang Baji",92861,-7.1157912416669,120.73033330015
7301102005,730110,7301,73,Bontojati,92861,-7.0887758188542,120.73336394634
7301102006,730110,7301,73,Ujung,92861,-7.0923096166615,120.76338471999
7301112001,730111,7301,73,Buki,92854,-5.9691940695714,120.46519259082
7301112002,730111,7301,73,"Lalang Bata",92854,-5.9728262516013,120.49245466244
7301112003,730111,7301,73,"Balang Butung",92854,-5.9512395190006,120.53287872524
7301112004,730111,7301,73,Kohala,92851,-6.0050838326328,120.49754268496
7301112005,730111,7301,73,Bontolempangan,92851,-5.9941983999522,120.47768543022
7301112006,730111,7301,73,"Mekar Indah",92854,-5.9910854919503,120.45521653169
7301112007,730111,7301,73,"Buki Timur",92854,-5.9801520885058,120.52609542556
7302011001,730201,7302,73,Matekko,92561,-5.5575888423895,120.16377880112
7302011002,730201,7302,73,Jalanjang,92561,-5.5650900002458,120.13883191208
7302011003,730201,7302,73,"Mario Rennu",92561,-5.5650525645078,120.11170115724
7302012004,730201,7302,73,Bialo,92561,-5.5313405839011,120.15820165961
7302012005,730201,7302,73,Bontomacinna,92561,-5.5388543698305,120.13803010513
7302012006,730201,7302,73,Gattareng,92561,-5.4657846007545,120.0799811092
7302012007,730201,7302,73,Dampang,92561,-5.4869839408781,120.13389089001
7302012008,730201,7302,73,Bontosunggu,92561,-5.5172906765526,120.16465604588
7302012009,730201,7302,73,Palambarae,92561,-5.5032733538678,120.20312505334
7302012010,730201,7302,73,Bontonyeleng,92561,-5.482078698231,120.17696316739
7302012011,730201,7302,73,"Benteng Malewang",92561,-5.4368197129817,120.05813200114
7302012012,730201,7302,73,Padang,92561,-5.5043065204177,120.11969002822
7302012013,730201,7302,73,Bontoraja,92561,-5.4977218813272,120.10296287398
7302012014,730201,7302,73,"Paenre Lompoe",92561,-5.5377810813725,120.17787266629
7302012015,730201,7302,73,"Benteng Gattareng",92561,-5.4626519134181,120.10028451858
7302012016,730201,7302,73,"Bukit Harapan",92561,-5.4601294261723,120.15590560654
7302012017,730201,7302,73,Polewali,92561,-5.51979072003,120.18957581513
7302012018,730201,7302,73,Bontomasila,92561,-5.5315656413705,120.11420210042
7302012019,730201,7302,73,Barombong,92561,-5.5118973895258,120.14033085409
7302012020,730201,7302,73,"Bukit Tinggi",92561,-5.5013326772923,120.16522430632
7302012021,730201,7302,73,Taccorong,92561,-5.5260347136744,120.21069707336
7302021001,730202,7302,73,"Tanah Kongkong",92513,-5.554444454929,120.18156547599
7302021002,730202,7302,73,Bentengnge,92511,-5.5603983546556,120.19332680798
7302021003,730202,7302,73,"Terang Terang",92511,-5.5543961717547,120.19803266326
7302021004,730202,7302,73,Kalumeme,92518,-5.5345281708943,120.22839897214
7302021005,730202,7302,73,Bintarore,92514,-5.5613793692659,120.18060531238
7302021006,730202,7302,73,Kasimpureng,92511,-5.5615120965862,120.18823388644
7302021007,730202,7302,73,Caile,92517,-5.5424223551808,120.19761018534
7302021008,730202,7302,73,Loka,92511,-5.5526123566448,120.18885816502
7302021009,730202,7302,73,"Ela Ela",92511,-5.5465770744028,120.20849766802
7302031001,730203,7302,73,"Tanahl Lemo",92571,-5.5509659621464,120.38573866129
7302031002,730203,7302,73,"Sapo Lohe",92571,-5.5097735099191,120.34361188934
7302031003,730203,7302,73,Benjala,92571,-5.4927115843337,120.35630453099
7302031004,730203,7302,73,"Tanah Beru",92571,-5.5171587790824,120.38185479551
7302032005,730203,7302,73,Bira,92571,-5.6029503482031,120.43421041237
7302032006,730203,7302,73,Ara,92571,-5.5347297740859,120.42158058168
7302032007,730203,7302,73,Darubiah,92571,-5.5671278438876,120.42708360508
7302032008,730203,7302,73,Lembanna,92571,-5.5111533584178,120.42811268896
7302041001,730204,7302,73,"Eka Tiro",92572,-5.4759013696087,120.4331800985
7302042002,730204,7302,73,Dwitiro,92572,-5.4495756860761,120.40963644656
7302042003,730204,7302,73,Tritiro,92572,-5.4966352118934,120.4285976287
7302042004,730204,7302,73,Batang,92572,-5.4602676231465,120.38509523758
7302042005,730204,7302,73,Bontotangnga,92572,-5.4518630438582,120.36351308291
7302042006,730204,7302,73,Caramming,92572,-5.4954311051698,120.39185989476
7302042007,730204,7302,73,Tamalanrea,92572,-5.4772670372538,120.37683743215
7302042008,730204,7302,73,Bontobarua,92572,-5.4481611540555,120.34568745701
7302042009,730204,7302,73,Pakubalaho,92572,-5.4859140990285,120.41499546898
7302042010,730204,7302,73,Bontomarannu,92572,-5.4648874894889,120.34500478355
7302042011,730204,7302,73,Bontobulaeng,92572,-5.4420191586722,120.383842422
7302042012,730204,7302,73,"Buhung Bundang",92572,-5.4708187414486,120.4082561359
7302042013,730204,7302,73,Lamanda,92572,-5.4834111263355,120.39638767995
7302051001,730205,7302,73,Tanuntung,92573,-5.4086814042052,120.40173237057
7302051002,730205,7302,73,"Bonto Kamase",92573,-5.433616326975,120.41943106162
7302052003,730205,7302,73,Karassing,92573,-5.425747814943,120.33820847848
7302052004,730205,7302,73,Singa,92573,-5.3977613074508,120.36932689181
7302052005,730205,7302,73,Gunturu,92573,-5.3760644800986,120.39194606992
7302052006,730205,7302,73,Borong,92573,-5.4231906398149,120.37572863458
7302052007,730205,7302,73,Tugondeng,92573,-5.3973172213964,120.32807045266
7302052008,730205,7302,73,Pataro,92573,-5.3779561059892,120.36372278089
7302061001,730206,7302,73,"Tanah Jaya",92574,-5.3408313572071,120.36597535585
7302061002,730206,7302,73,Laikang,92574,-5.3496381632207,120.38756572672
7302062003,730206,7302,73,Tambangan,92574,-5.3471028626457,120.30897697075
7302062004,730206,7302,73,Lembanna,92574,-5.3483082035917,120.3273982584
7302062005,730206,7302,73,"Possi Tanah",92574,-5.3233988362599,120.34265010359
7302062006,730206,7302,73,"Tanah Towa",92574,-5.3215381567874,120.29607816772
7302062007,730206,7302,73,Bontobiraeng,92574,-5.3771945492902,120.29178057974
7302062008,730206,7302,73,Lembang,92574,-5.3594744988267,120.34260358515
7302062009,730206,7302,73,Batunilamung,92574,-5.3012995661905,120.29783679649
7302062010,730206,7302,73,Mattoanging,92574,-5.312558380562,120.32503293889
7302062011,730206,7302,73,Malleleng,92574,-5.3199814227079,120.31437619033
7302062012,730206,7302,73,"Bonto Baji",92574,-5.3331603013927,120.28043568084
7302062013,730206,7302,73,Bontorannu,92574,-5.3726971250902,120.32899537886
7302062014,730206,7302,73,Pattiroang,92574,-5.3143476886231,120.26943715308
7302062015,730206,7302,73,Sapanang,92574,-5.2975838290516,120.26887689815
7302062016,730206,7302,73,Sangkala,92574,-5.3503972716261,120.27681292415
7302062017,730206,7302,73,"Lembang Lohe",92574,-5.3576540566992,120.35495593366
7302062018,730206,7302,73,Lolisang,92574,-5.2985818140288,120.33470649721
7302062019,730206,7302,73,Pantama,92574,-5.3188368408619,120.35196961835
7302071001,730207,7302,73,Tanete,92552,-5.338315916345,120.13040731659
7302071002,730207,7302,73,Jawijawi,92552,-5.3318523880044,120.17033391812
7302071003,730207,7302,73,"Balla Saraja",92552,-5.3528644070509,120.16571071956
7302072004,730207,7302,73,Bontobulaeng,92552,-5.3624469735919,120.1175249865
7302072005,730207,7302,73,"Bulo Bulo",92552,-5.3639476825421,120.15793725401
7302072006,730207,7302,73,Bontominasa,92552,-5.334169417669,120.22677305784
7302072007,730207,7302,73,Balangtaroang,92552,-5.3445898304016,120.09847932037
7302072008,730207,7302,73,Barugae,92552,-5.3206315260151,120.11365988027
7302072009,730207,7302,73,Salassae,92552,-5.3766860811455,120.21167922159
7302072010,730207,7302,73,Kambuno,92552,-5.3283630512585,120.1032584994
7302072011,730207,7302,73,Jojjolo,92552,-5.35609094963,120.22081981524
7302072012,730207,7302,73,Sapobonto,92552,-5.3513538619727,120.07629476643
7302072013,730207,7302,73,Tibona,92552,-5.3146994695328,120.21007327519
7302072014,730207,7302,73,Balangpesoang,92552,-5.3079032897221,120.14434894324
7302072015,730207,7302,73,Batulohe,92552,-5.3255392624709,120.24967739445
7302072016,730207,7302,73,Bontomangiring,92552,-5.3873363502563,120.25598788187
7302072017,730207,7302,73,"Baruga Riattang",92552,-5.3341155817433,120.09628972428
7302081001,730208,7302,73,"Borong Rappoa",92517,-5.3725257486539,119.99924907428
7302082002,730208,7302,73,Mattirowalie,92517,-5.440640334311,120.11139085647
7302082003,730208,7302,73,Kindang,92517,-5.3581394574025,120.04379016368
7302082004,730208,7302,73,Arinhua,92517,-5.420082056907,120.07900585076
7302082005,730208,7302,73,Tamaona,92517,-5.3803428797296,120.08504327416
7302082006,730208,7302,73,"Benteng Palioi",92517,-5.4422239002846,120.13145835881
7302082007,730208,7302,73,Balibo,92517,-5.4581490332288,120.11382487076
7302082008,730208,7302,73,Garuntungan,92517,-5.4016498474946,120.08529642767
7302082009,730208,7302,73,Orogading,92517,-5.3810448697738,120.06152445222
7302082010,730208,7302,73,Sipaenre,92517,-5.422031795222,120.05869989523
7302082011,730208,7302,73,Kahayya,92517,-5.3387161741543,119.99356708825
7302082012,730208,7302,73,"Somba Palioli",92517,-5.4238318774197,120.12333338303
7302082013,730208,7302,73,Sopa,92517,-5.4682223380984,120.13731639616
7302091001,730209,7302,73,Dannuang,92562,-5.5288880795708,120.27253245818
7302092002,730209,7302,73,Garanta,92562,-5.4985003254247,120.28682169235
7302092003,730209,7302,73,Balleanging,92562,-5.4606517538731,120.28837815863
7302092004,730209,7302,73,Balong,92562,-5.4676341201649,120.269105674
7302092005,730209,7302,73,Seppang,92562,-5.4966101231906,120.23349470016
7302092006,730209,7302,73,Manyampa,92562,-5.4782918735657,120.31943783922
7302092007,730209,7302,73,Tammatto,92562,-5.4197305611393,120.28325040882
7302092008,730209,7302,73,Padangloang,92562,-5.4962417760916,120.25566193585
7302092009,730209,7302,73,Manjalling,92562,-5.5160951285791,120.28191608853
7302092010,730209,7302,73,Lonrong,92562,-5.4610175867186,120.24683098181
7302092011,730209,7302,73,Salemba,92562,-5.5264331089054,120.25011237916
7302092012,730209,7302,73,Bijawang,92562,-5.4749144608664,120.22225611228
7302092013,730209,7302,73,Paccaramengang,92562,-5.4307830109782,120.30712342394
7302101002,730210,7302,73,Palampang,92553,-5.3805961779032,120.16528425019
7302102001,730210,7302,73,Bontomanai,92553,-5.4436807757064,120.19450383477
7302102003,730210,7302,73,Bontobangun,92553,-5.3970776659224,120.1659994324
7302102004,730210,7302,73,Karama,92553,-5.4012936241454,120.21591473899
7302102005,730210,7302,73,Bontolohe,92553,-5.3753468660708,120.11381990282
7302102006,730210,7302,73,Bajiminasa,92553,-5.3974415073302,120.14388262159
7302102007,730210,7302,73,"Bonto Matene",92553,-5.3912534406328,120.1216323745
7302102008,730210,7302,73,"Tanah Harapan",92553,-5.4654430792793,120.19828426163
7302102009,730210,7302,73,Batukaroppa,92553,-5.4198383082921,120.20125216814
7302102010,730210,7302,73,Bontoharu,92553,-5.3918573091769,120.19725598031
7302102011,730210,7302,73,Swatani,92553,-5.421162519216,120.24197712646
7302102012,730210,7302,73,Bulolohe,92553,-5.4320411455135,120.19562860179
7302102013,730210,7302,73,Anrang,92553,-5.4212144653572,120.15009397738
7302102014,730210,7302,73,Pangalloang,92553,-5.4117589805621,120.17454684841
7302102015,730210,7302,73,Topanda,92553,-5.4527020869137,120.21175866516
7303011001,730301,7303,73,"Bonto Manai",92451,-5.5471451574263,119.90688531337
7303011002,730301,7303,73,"Bonto Lebang",92451,-5.5452638962925,119.91957630733
7303011003,730301,7303,73,"Bonto Sunggu",92451,-5.5321760856104,119.92583590296
7303011004,730301,7303,73,"Bonto Atu",92451,-5.528488090964,119.93606648323
7303011005,730301,7303,73,"Bonto Rita",92451,-5.5284078895501,119.94817236554
7303011006,730301,7303,73,"Bonto Langkasa",92451,-5.5402883373193,119.89769812447
7303011007,730301,7303,73,"Bonto Jaya",92451,-5.5343531324892,119.8664966555
7303012008,730301,7303,73,"Bonto Jai",92451,-5.5623559983491,119.90923808506
7303012009,730301,7303,73,"Bonto Cinde",92451,-5.542581889747,119.88639561244
7303012010,730301,7303,73,"Bonto Loe",92451,-5.550580510268,119.87275538495
7303012012,730301,7303,73,"Bonto Salluang",92451,-5.5335307003945,119.91123766699
7303021001,730302,7303,73,Tappanjeng,92411,-5.5444893371269,119.94487901444
7303021002,730302,7303,73,Pallantikang,92411,-5.5413102129272,119.95196849719
7303021003,730302,7303,73,Letta,92415,-5.551416504787,119.95423242732
7303021004,730302,7303,73,Mallilingi,92411,-5.5399976882073,119.95878837452
7303021005,730302,7303,73,Lembang,92411,-5.5462950443491,119.96914219834
7303021006,730302,7303,73,Lamalaka,92412,-5.5497139139236,119.98235757336
7303021007,730302,7303,73,Karatuang,92411,-5.5074935375298,119.96370520045
7303021008,730302,7303,73,Onto,92413,-5.4850171982088,119.97088966762
7303022009,730302,7303,73,"Kayu Loe",92411,-5.4623125206908,119.97401890227
7303032001,730303,7303,73,"Ulu Galung",92414,-5.5264120323103,119.97994379742
7303032002,730303,7303,73,Lonrong,92415,-5.5074597646848,119.99510560807
7303032003,730303,7303,73,Barua,92415,-5.4884062176123,120.01243944525
7303032004,730303,7303,73,Kampala,92415,-5.44074000285,119.98668307732
7303032005,730303,7303,73,Pa'bentengan,92415,-5.4838266929548,119.99177787244
7303032006,730303,7303,73,Mappilawing,92415,-5.5024046941571,119.98731735719
7303032007,730303,7303,73,Pa'bumbungang,92415,-5.4516034787499,119.98363535092
7303032008,730303,7303,73,Mamampang,92415,-5.5177749483505,119.9699481214
7303032009,730303,7303,73,"Parang Loe",92415,-5.4610033117172,120.00774449074
7303041001,730304,7303,73,"Lembang Gantarang Keke",92462,-5.4798624465989,120.03761255257
7303041003,730304,7303,73,Banyorang,92462,-5.4582161485915,120.03475571956
7303041004,730304,7303,73,Campaga,92462,-5.4570484609093,120.01988976272
7303041005,730304,7303,73,"Eren Ereng",92462,-5.4322739964356,120.03885779625
7303042006,730304,7303,73,Labbo,92462,-5.4128984818874,119.99699620293
7303042007,730304,7303,73,Pattaneteang,92462,-5.3974955278842,120.00489853228
7303042008,730304,7303,73,Pattallassang,92462,-5.4768631022064,120.06332976598
7303042009,730304,7303,73,Bonto-bontoa,92462,-5.4536104606256,120.05001731274
7303042010,730304,7303,73,"Bonto Tappalang",92462,-5.4357438904581,120.00273087361
7303042011,730304,7303,73,Balumbung,92462,-5.4372407170179,120.020390609
7303052002,730305,7303,73,Biangkeke,92460,-5.5418965390488,120.01642800285
7303052003,730305,7303,73,Pa'jukukang,92460,-5.5581446784462,120.03480345961
7303052004,730305,7303,73,Biangloe,92460,-5.5171987314818,120.00099774541
7303052005,730305,7303,73,"Borong Loe",92460,-5.5563279068396,120.05089625147
7303052006,730305,7303,73,Baruga,92460,-5.5728567290159,120.09142075117
7303052010,730305,7303,73,Nipa-nipa,92460,-5.5560285766429,120.02206443221
7303052012,730305,7303,73,"Papan Loe",92460,-5.56224919103,120.06989493139
7303052013,730305,7303,73,Rappoa,92460,-5.5451910272398,119.99109857838
7303052014,730305,7303,73,Lumpangan,92460,-5.5417497224869,120.00238410026
7303052015,730305,7303,73,"Batu Karaeng",92460,-5.5335999677489,119.99978446325
7303062001,730306,7303,73,"Bonto Marannu",92452,-5.4492859073774,119.91628503073
7303062002,730306,7303,73,"Bonto Tangnga",92452,-5.4623987179566,119.92060705619
7303062006,730306,7303,73,"Bonto Tallasa",92452,-5.4944213504503,119.89060262064
7303062007,730306,7303,73,"Bonto Rannu",92452,-5.514841943877,119.88142453279
7303062010,730306,7303,73,"Bonto Daeng",92452,-5.4712798397261,119.90434873156
7303062011,730306,7303,73,"Bonto Lojong",92452,-5.4111129040042,119.9467385448
7303071001,730307,7303,73,"Gantarang Keke",92461,-5.5055869866624,120.03639686625
7303071002,730307,7303,73,"Tanah Loe",92461,-5.5107935668846,120.01669494754
7303072003,730307,7303,73,Layoa,92461,-5.5443539120522,120.08934564451
7303072004,730307,7303,73,Bajiminasa,92461,-5.5066637747367,120.08085656045
7303072005,730307,7303,73,Tombolo,92461,-5.5293901443984,120.0399938121
7303072006,730307,7303,73,Kaloling,92461,-5.5162994660281,120.05936395082
7303082001,730308,7303,73,"Bonto Tiro",92450,-5.508197652714,119.94414070468
7303082002,730308,7303,73,"Bonto Karaeng",92450,-5.4779395310055,119.92508824028
7303082003,730308,7303,73,"Bonto Maccini",92450,-5.5054491779059,119.92619721415
7303082004,730308,7303,73,"Bonto Mate'ne",92450,-5.5154641562901,119.89771476115
7303082005,730308,7303,73,"Bonto Majannang",92450,-5.5009064055714,119.91125621721
7303082006,730308,7303,73,"Bonto Bulaeng",92450,-5.4776473609946,119.9474455979
7304011001,730401,7304,73,Benteng,92352,-5.5787579804091,119.55991573324
7304011002,730401,7304,73,Pallengu,92352,-5.5951615514884,119.57199819027
7304011003,730401,7304,73,"Pantai Bahari",92352,-5.5869673055791,119.55128566373
7304011004,730401,7304,73,"Bontorannu ",92352,-5.6095144838472,119.59357166587
7304012005,730401,7304,73,Pallantikang,92352,-5.5481800795766,119.57652623376
7304012006,730401,7304,73,Kalimporo,92352,-5.5776520294188,119.58711199114
7304012007,730401,7304,73,Punagaya,92352,-5.6211207287748,119.56414251958
7304012008,730401,7304,73,Mallasoro,92352,-5.6430883765154,119.57063603877
7304012009,730401,7304,73,Kapita,92352,-5.5363055772612,119.63065205404
7304012010,730401,7304,73,Marayoka,92352,-5.4976003911257,119.6452908488
7304012011,730401,7304,73,Jenetallasa,92352,-5.5804077883801,119.61506782999
7304012012,730401,7304,73,"Tombo Tombolo",92352,-5.5951501272243,119.60635977658
7304012013,730401,7304,73,"Gunung Silanu",92352,-5.5354034784975,119.6027491448
7304012014,730401,7304,73,Bontomanai,92352,-5.5625720817114,119.61293318647
7304021001,730402,7304,73,"Bonto Tangnga",92350,-5.6354543716035,119.67971035195
7304021002,730402,7304,73,"Tonro Kassi",92350,-5.6075961025812,119.64322274217
7304021003,730402,7304,73,"Tonro Kassi Barat",92350,-5.609617659844,119.6239045077
7304021004,730402,7304,73,"Tonro Kassi Timur",92350,-5.6146562325608,119.6597354351
7304021005,730402,7304,73,"Taman Roya",92350,-5.6292263161266,119.66472419445
7304021006,730402,7304,73,Manjangloe,92350,-5.6389311292139,119.70314877913
7304022007,730402,7304,73,Borongtala,92350,-5.674067683664,119.67485123484
7304022008,730402,7304,73,Bontosunggu,92350,-5.6721145901202,119.6516628708
7304022009,730402,7304,73,Turatea,92350,-5.6527773539199,119.67769110308
7304022010,730402,7304,73,Karelayu,92350,-5.620830288098,119.70179223534
7304022011,730402,7304,73,Bontojai,92350,-5.6623071374884,119.66136896383
7304022012,730402,7304,73,"Turatea Timur",92350,-5.662929346961,119.69438108261
7304031001,730403,7304,73,Pabiringa,92316,-5.691668316969,119.71038885446
7304031002,730403,7304,73,Balang,92315,-5.6644973852669,119.72840679147
7304031003,730403,7304,73,Empoang,92311,-5.6672542176348,119.76234726159
7304031004,730403,7304,73,"Balang Toa",92311,-5.6765472219907,119.73424897645
7304031005,730403,7304,73,"Balang Beru",92316,-5.6592108047577,119.71214002599
7304031006,730403,7304,73,"Empoang Selatan",92311,-5.6877633641906,119.76576535489
7304031007,730403,7304,73,Sidenre,92311,-5.688324500109,119.74443703429
7304031008,730403,7304,73,"Empoang Utara",92316,-5.6529523153671,119.75252855703
7304031009,730403,7304,73,"Monro Monro",92316,-5.6934467239824,119.73497916326
7304031010,730403,7304,73,"Biring Kassi",92311,-5.6871882368804,119.6878096689
7304031011,730403,7304,73,Panaikang,92311,-5.6790257067434,119.71609807204
7304031012,730403,7304,73,"Bontoa ",92316,-5.6446199606068,119.72053253467
7304032013,730403,7304,73,Sapanang,92314,-5.6449096712427,119.72771375972
7304041001,730404,7304,73,"Togo Togo",92360,-5.6177565405849,119.815562176
7304041002,730404,7304,73,"Bonto Raya",92360,-5.6078763209079,119.82426636603
7304042003,730404,7304,73,Maccinibaji,92360,-5.643987678869,119.7873479178
7304042008,730404,7304,73,"Camba Camba",92360,-5.6427883860618,119.81015841502
7304042009,730404,7304,73,Kaluku,92360,-5.6202055503285,119.80285524817
7304042014,730404,7304,73,Bungeng,92360,-5.6260496719954,119.84444596318
7304051001,730405,7304,73,Tolo,92371,-5.564023358424,119.80181348578
7304051002,730405,7304,73,"Tolo Utara",92371,-5.5288261697194,119.82199401532
7304051003,730405,7304,73,"Tolo Selatan",92371,-5.5828571790004,119.8120282331
7304051004,730405,7304,73,"Tolo Timur",92371,-5.5363816388353,119.83002603174
7304051005,730405,7304,73,"Tolo Barat",92371,-5.5858019068516,119.79911976293
7304052006,730405,7304,73,Gantarang,92371,-5.5499075152958,119.84970533605
7304052009,730405,7304,73,Bontolebang,92371,-5.5783258885354,119.82603772751
7304052010,730405,7304,73,Bontonompo,92371,-5.533341067415,119.85516668793
7304052014,730405,7304,73,Samataring,92371,-5.5588287367515,119.83626841926
7304052021,730405,7304,73,Tombolo,92371,-5.5313566669387,119.84253459386
7304061002,730406,7304,73,"Bulu Jaya",92353,-5.5044256102123,119.53249294127
7304062001,730406,7304,73,Banrimanurung,92353,-5.5510892385735,119.53872659478
7304062003,730406,7304,73,Barana,92353,-5.4581948238712,119.54429963689
7304062004,730406,7304,73,Beroanging,92353,-5.4821421218793,119.59246706102
7304062005,730406,7304,73,Tuju,92353,-5.5298308433794,119.51907265356
7304062006,730406,7304,73,Garassikang,92353,-5.5714429384726,119.53156755863
7304062007,730406,7304,73,Pattiro,92353,-5.5482838773876,119.55386908755
7304062008,730406,7304,73,Pappalluang,92353,-5.4479993190721,119.63360117041
7304071002,730407,7304,73,Bontoramba,92351,-5.5922671992611,119.68435054528
7304072001,730407,7304,73,Bulusibatang,92351,-5.5517517332168,119.67451121992
7304072003,730407,7304,73,Balumbungan,92351,-5.606181973713,119.69828311557
7304072004,730407,7304,73,Bangkalaloe,92351,-5.6028898659031,119.71695006487
7304072005,730407,7304,73,Datara,92351,-5.5796869056282,119.72381575829
7304072006,730407,7304,73,Maero,92351,-5.5925646956468,119.66038512216
7304072007,730407,7304,73,Kareloe,92351,-5.5270151212023,119.68903837787
7304072008,730407,7304,73,Batujala,92351,-5.5596938309805,119.66031386777
7304072009,730407,7304,73,Bulusuka,92351,-5.5717970590561,119.64081873528
7304072010,730407,7304,73,Tanammawang,92351,-5.5527528744402,119.70725837445
7304072011,730407,7304,73,Lentu,92351,-5.6100095307998,119.67918646896
7304072012,730407,7304,73,Baraya,92351,-5.573575673503,119.70277038625
7304082001,730408,7304,73,Paitana,92313,-5.5787023544235,119.78161718965
7304082002,730408,7304,73,"Bonto Mate'ne",92313,-5.6074860375045,119.76956232149
7304082003,730408,7304,73,Mangepong,92313,-5.5839394050313,119.76046646467
7304082004,730408,7304,73,Bululoe,92313,-5.5782485863167,119.74263203063
7304082005,730408,7304,73,"Kayuloe Barat",92312,-5.6300513187555,119.74597406392
7304082006,730408,7304,73,Langkura,92313,-5.5949581255865,119.78151281197
7304082007,730408,7304,73,Bungungloe,92313,-5.6186118961093,119.78532888785
7304082008,730408,7304,73,"Kayuloe Timur",92313,-5.6325110580688,119.76630477775
7304082009,730408,7304,73,Jombe,92313,-5.6240526100906,119.72761994803
7304082010,730408,7304,73,Tanjonga,92313,-5.6060068644961,119.74461291937
7304082011,730408,7304,73,Parasanganberu,92313,-5.6176966976165,119.76390261322
7304092001,730409,7304,73,"Bulo Bulo",92361,-5.6879526453908,119.79884298756
7304092002,730409,7304,73,Arungkeke,92361,-5.6629100726075,119.83443659128
7304092003,730409,7304,73,Palajau,92361,-5.6738226655845,119.80628615124
7304092004,730409,7304,73,Boronglamu,92361,-5.6516970532746,119.82764316287
7304092005,730409,7304,73,"Arungkeke Pallantikang",92361,-5.6382662999429,119.83418488945
7304092006,730409,7304,73,Kalumpangloe,92361,-5.6644150810935,119.79275884929
7304092007,730409,7304,73,Kampala,92361,-5.6883089938773,119.78546327939
7304102001,730410,7304,73,Rumbia,92371,-5.4968921054278,119.85103443853
7304102002,730410,7304,73,Lebangmanai,92371,-5.5143840809515,119.86484493323
7304102003,730410,7304,73,Bontomanai,92371,-5.4815070259123,119.84594898953
7304102004,730410,7304,73,Bontotiro,92572,-5.4365576067031,119.88229512533
7304102005,730410,7304,73,Loka,92516,-5.4437962122172,119.89731662566
7304102006,730410,7304,73,Tompobulu,92371,-5.4519479918346,119.86960323344
7304102007,730410,7304,73,Kassi,92371,-5.4609896019326,119.89182110716
7304102008,730410,7304,73,Pallantikang,92371,-5.4792817433153,119.87446406684
7304102009,730410,7304,73,"Lebangmanai Utara",92371,-5.5003744577867,119.86966604891
7304102010,730410,7304,73,Bontocini,92371,-5.4623303598757,119.86276120257
7304102011,730410,7304,73,Janetallasa,92314,-5.4198497096465,119.92312186657
7304102012,730410,7304,73,"Ujung Bulu",92371,-5.4137241853527,119.91496660448
7304112001,730411,7304,73,Pao,92362,-5.6148589818485,119.85439230485
7304112002,730411,7304,73,Bontorappo,92362,-5.6047871912346,119.83783158614
7304112003,730411,7304,73,Tarowang,92362,-5.5907861673478,119.86004392083
7304112004,730411,7304,73,"Allu Tarowang",92362,-5.5841380477944,119.84675182868
7304112005,730411,7304,73,Balangbaru,92362,-5.5876901798839,119.86695746527
7304112006,730411,7304,73,"Balangloe Tarowang",92362,-5.5909005054938,119.87930900517
7304112007,730411,7304,73,"Bonto Ujung",92362,-5.576181043066,119.87935202297
7304112008,730411,7304,73,Tino,92362,-5.5679251799556,119.88855735415
7305011001,730501,7305,73,Takalar,92232,-5.4714617269059,119.41405590517
7305012003,730501,7305,73,Patani,92232,-5.448035283965,119.41976934805
7305012009,730501,7305,73,Soreang,92232,-5.4551767494518,119.40250110321
7305012010,730501,7305,73,Pa'batangang,92232,-5.4385512159114,119.41915628253
7305021002,730502,7305,73,Mangadu,92261,-5.4805464542573,119.44108332095
7305022001,730502,7305,73,Lengkese,92261,-5.4896238336433,119.46204061828
7305022003,730502,7305,73,Topejawa,92261,-5.4980467965061,119.42995224049
7305022004,730502,7305,73,Lakatong,92261,-5.5109772679668,119.441705397
7305022007,730502,7305,73,Banggae,92261,-5.4790703798651,119.42990322322
7305022008,730502,7305,73,Bontomanai,92261,-5.5127846665569,119.46624592533
7305031001,730503,7305,73,Pa'bundukang,92252,-5.4636788583917,119.44231670008
7305031002,730503,7305,73,Pattene,92252,-5.4185240005504,119.47135263621
7305031003,730503,7305,73,Bontokadatto,92252,-5.4661529202432,119.49019818006
7305031004,730503,7305,73,Canrego,92252,-5.4636584512318,119.46165336714
7305031005,730503,7305,73,Bulukunyi,92252,-5.4445846897727,119.47968232523
7305031010,730503,7305,73,Rajaya,92252,-5.4804318720568,119.50400867569
7305032006,730503,7305,73,Moncongkomba,92252,-5.4161799328955,119.49437471239
7305032007,730503,7305,73,Cakura,92252,-5.4297609212624,119.5326344212
7305032008,730503,7305,73,Lantang,92252,-5.3997572922104,119.51165982241
7305032009,730503,7305,73,Su'rulangi,92252,-5.4445506204127,119.50911208528
7305032011,730503,7305,73,"Kale Lantang",92252,-5.4111296133724,119.52953865895
7305041001,730504,7305,73,Panrannuangku,92221,-5.3883486972161,119.46838099675
7305041002,730504,7305,73,Manongkoki,92221,-5.3875113074148,119.44916774489
7305041003,730504,7305,73,Malewang,92221,-5.3629209231945,119.45538668045
7305041004,730504,7305,73,Palleko,92221,-5.3638548037932,119.46666161932
7305041005,730504,7305,73,Mattompodale,92221,-5.3397510492207,119.47211541997
7305041006,730504,7305,73,"Parang Luara",92221,-5.3420423361738,119.48697373854
7305042007,730504,7305,73,Lassang,92221,-5.3238336634565,119.50587965994
7305042009,730504,7305,73,Pa'rappunganta,92221,-5.3598103882689,119.48490897325
7305042010,730504,7305,73,Towata,92221,-5.3119931839257,119.54815992614
7305042016,730504,7305,73,"Lassang Barat",92221,-5.3220832835033,119.47782819351
7305052006,730505,7305,73,"Bonto Kanang",92254,-5.3595718232508,119.36739840367
7305052007,730505,7305,73,Bontomarannu,92254,-5.3880451648004,119.36524354903
7305052008,730505,7305,73,Mangindara,92254,-5.4013002653672,119.36376707648
7305052009,730505,7305,73,Bontokassi,92254,-5.3766864625648,119.38423643237
7305052011,730505,7305,73,Bentang,92254,-5.3561006717264,119.383031989
7305052012,730505,7305,73,Barangmamase,92254,-5.3821939783197,119.37712988887
7305052013,730505,7305,73,Sawakong,92254,-5.3693523174569,119.3927264834
7305052015,730505,7305,73,Popo,92254,-5.3720828527169,119.36549905525
7305052016,730505,7305,73,Tarowang,92254,-5.3577171629499,119.3965957671
7305052017,730505,7305,73,Kalukubodo,92254,-5.3960111446313,119.3605943353
7305052018,730505,7305,73,Kadatong,92254,-5.3655828532178,119.37719558457
7305052019,730505,7305,73,"Kale Bentang",92254,-5.3548114811027,119.37461597288
7305052020,730505,7305,73,Kanaeng,92254,-5.3503373902267,119.36394788925
7305061004,730506,7305,73,Bontolebang,92255,-5.259199319903,119.38951871895
7305062001,730506,7305,73,Pakkabba,92255,-5.2418763594619,119.4097610698
7305062002,730506,7305,73,Bontolanra,92255,-5.2423347127473,119.39530900433
7305062003,730506,7305,73,"Aeng Batu Batu",92255,-5.2341787640186,119.38658051979
7305062005,730506,7305,73,Tamalate,92255,-5.2565927080085,119.38170708433
7305062006,730506,7305,73,Tamasaju,92255,-5.2770871680766,119.37989826864
7305062007,730506,7305,73,Bontosunggu,92255,-5.2946988605442,119.37470157532
7305062010,730506,7305,73,"Aeng Towa",92255,-5.2217214311863,119.39214950576
7305062011,730506,7305,73,Bontokaddopepe,92255,-5.2574470125707,119.42552237309
7305062012,730506,7305,73,Sampulungan,92255,-5.246548758691,119.38298604802
7305062013,730506,7305,73,"Maccini Sombala",92255,-5.2841448503965,119.37662701286
7305062014,730506,7305,73,"Sawakung Beba",92255,-5.2696815542315,119.38132253607
7305062015,730506,7305,73,"Biring Kassi",92255,-5.2225050245569,119.3857486056
7305062016,730506,7305,73,"Kaballokang Pakkabba",92255,-5.2387965118851,119.40142633095
7305071001,730507,7305,73,Pattallassang,92211,-5.4376388694101,119.43688026377
7305071002,730507,7305,73,Pallantikang,92211,-5.4545972232476,119.42903375816
7305071003,730507,7305,73,"Somba Bella ",92211,-5.4172655082077,119.43173554629
7305071004,730507,7305,73,Kalabbirang,92211,-5.4217221758128,119.4459924565
7305071005,730507,7305,73,"Maradekaya ",92211,-5.4222137613529,119.45838376142
7305071006,730507,7305,73,Pappa,92211,-5.4452530182557,119.44759796687
7305071007,730507,7305,73,Bajeng,92211,-5.4040959012903,119.44669125814
7305071008,730507,7305,73,Sabintang,92211,-5.4025903716741,119.45991327032
7305071009,730507,7305,73,Salaka,92211,-5.4010385174637,119.43249806107
7305082001,730508,7305,73,Laguruda,92231,-5.4266985036414,119.37531781662
7305082002,730508,7305,73,Banyuanyara,92231,-5.4394074134685,119.40437960948
7305082003,730508,7305,73,Sanrobone,92231,-5.4314138386456,119.39172344492
7305082004,730508,7305,73,Paddinging,92231,-5.4183950421819,119.41112241754
7305082005,730508,7305,73,"Ujung Baji",92231,-5.4449572235026,119.38640591026
7305082006,730508,7305,73,Tonasa,92231,-5.4178878888177,119.39459781666
7305092001,730509,7305,73,"Galesong Baru",92254,-5.3176706431463,119.36753332099
7305092002,730509,7305,73,"Galesong Kota",92254,-5.3201698333329,119.36429232455
7305092003,730509,7305,73,Bontoloe,92254,-5.3454489565202,119.3705266467
7305092004,730509,7305,73,Boddia,92254,-5.3294509277512,119.36146206066
7305092005,730509,7305,73,Bontomangape,92254,-5.3456784446677,119.39161296551
7305092006,730509,7305,73,Parangmata,92254,-5.3229423588394,119.38694951167
7305092007,730509,7305,73,Parambambe,92254,-5.3340718151983,119.39198267724
7305092008,730509,7305,73,"Pa'rasangang Beru",92255,-5.312952736241,119.38698847015
7305092009,730509,7305,73,Pa'lalakkang,92255,-5.304830134205,119.37048168009
7305092010,730509,7305,73,Pattinoang,92255,-5.3355057948937,119.37570920878
7305092011,730509,7305,73,"Kalenna Bontongape",92255,-5.3434851902742,119.3819453623
7305092012,730509,7305,73,Kalukuang,92255,-5.3094305524226,119.37688267643
7305092013,730509,7305,73,Mappakalompo,92255,-5.3375041817095,119.36050260108
7305092014,730509,7305,73,Campagaya,92255,-5.3496489577959,119.3984088488
7305092015,730509,7305,73,"Galesong Timur",92255,-5.3232736755033,119.37382009201
7305092016,730509,7305,73,"Kampung Beru",92255,-5.3129342648101,119.36706483387
7305092017,730509,7305,73,Tarembang,92255,-5.330488065163,119.3698053735
7305102001,730510,7305,73,Tompotana,92232,-5.4831701794127,119.30457702483
7305102002,730510,7305,73,"Mattiro Baji",92232,-5.4492472111873,119.2266995599
7305102003,730510,7305,73,Rewataya,92232,-5.5073813025334,119.25707803658
7305102004,730510,7305,73,Balangdatu,92232,-5.5178700843298,119.28171393113
7305102005,730510,7305,73,"Maccini Baji",92232,-5.4971268589655,119.29445026076
7305102006,730510,7305,73,"Minasa Baji",92232,-5.4607953974677,119.28421200062
7305112001,730511,7305,73,Ko'mara,92221,-5.4072636494361,119.61239756609
7305112002,730511,7305,73,"Kale Ko'mara",92221,-5.4096753789095,119.56465503957
7305112003,730511,7305,73,Barugaya,92221,-5.3554932664554,119.57482653896
7305112004,730511,7305,73,"Parang Baddo",92221,-5.3431162790349,119.50595578244
7305112005,730511,7305,73,Massamaturu,92221,-5.3646702223768,119.5044369418
7305112006,730511,7305,73,Timbuseng,92221,-5.3751816609096,119.5268259833
7305112007,730511,7305,73,Balangtanaya,92221,-5.3826131354027,119.48983588719
7305112008,730511,7305,73,"Kampung Beru",92221,-5.3358682978014,119.52398532499
7305122001,730512,7305,73,Panyangkalang,92261,-5.5389474914917,119.49544378541
7305122002,730512,7305,73,Bontoparang,92261,-5.531023693203,119.4816339966
7305122003,730512,7305,73,Pattopakang,92261,-5.5411577669858,119.46648735851
7305122004,730512,7305,73,Cikoang,92261,-5.5485920466359,119.44306786596
7305122005,730512,7305,73,Punaga,92261,-5.571985457314,119.43324610704
7305122006,730512,7305,73,Laikang,92261,-5.5822400614622,119.46128752527
7306011001,730601,7306,73,Bontonompo,92153,-5.3323665511787,119.43629478947
7306011002,730601,7306,73,Tamallayang,92153,-5.3373081571909,119.44813211675
7306011003,730601,7306,73,Kalaserena,92153,-5.3433337345714,119.45852286157
7306012004,730601,7306,73,"Bontolangkasa Utara",92153,-5.3494631044886,119.43341360346
7306012005,730601,7306,73,"Bontolangkasa Selatan",92153,-5.3659165527425,119.42493774835
7306012006,730601,7306,73,Barembeng,92153,-5.3578580015285,119.41363082009
7306012015,730601,7306,73,Manjapai,92153,-5.3889120860598,119.43133343183
7306012016,730601,7306,73,Bontobiraeng,92153,-5.3251699377951,119.42483350748
7306012017,730601,7306,73,Romanglasa,92153,-5.3331779179177,119.4119202129
7306012018,730601,7306,73,Katangka,92153,-5.3626014413497,119.4413212831
7306012019,730601,7306,73,Bulogading,92153,-5.3352696324126,119.40292444829
7306012020,730601,7306,73,Bategulung,92153,-5.3749738025889,119.44482978758
7306012021,730601,7306,73,Kalabarembeng,92153,-5.3471495664083,119.4114421432
7306012022,730601,7306,73,"Bontobiraeng Selatan",92153,-5.3352846722742,119.42178860422
7306021001,730602,7306,73,Kalebajeng,92152,-5.2986415114117,119.43917431159
7306021002,730602,7306,73,Limbung,92152,-5.2976598668343,119.43252115894
7306021017,730602,7306,73,Tubajeng,92152,-5.3012254848019,119.42388061176
7306021018,730602,7306,73,"Mata Allo",92152,-5.2858714678229,119.43749334194
7306022003,730602,7306,73,Bontosunggu,92152,-5.2638176662707,119.43065604973
7306022006,730602,7306,73,Maccinibaji,92152,-5.2996716385468,119.45559007938
7306022007,730602,7306,73,Pa'bentengang,92152,-5.304727016444,119.49520147383
7306022009,730602,7306,73,Tangkebajeng,92152,-5.314592080593,119.43045252028
7306022010,730602,7306,73,Maradekaya,92152,-5.2797468045066,119.44905032604
7306022011,730602,7306,73,Panciro,92152,-5.239195537341,119.43133984775
7306022012,730602,7306,73,Lempangang,92152,-5.2674946057507,119.41870617802
7306022013,730602,7306,73,Bone,92152,-5.2804858356565,119.420162971
7306022015,730602,7306,73,Pannyangkalang,92152,-5.3161532978585,119.44940485092
7306022019,730602,7306,73,Paraikatte,92152,-5.2921598695054,119.48425742326
7306031001,730603,7306,73,Malakaji,92175,-5.4330842174148,119.83869216395
7306031002,730603,7306,73,Cikoro,92175,-5.4047402884254,119.89573019472
7306032003,730603,7306,73,Garing,92175,-5.4925317852761,119.8148552153
7306032004,730603,7306,73,Datara,92175,-5.469609357035,119.80715444624
7306032005,730603,7306,73,Rappolemba,92175,-5.3808161855864,119.89627031801
7306032006,730603,7306,73,Rappoala,92175,-5.3783356478088,119.87289820955
7306032007,730603,7306,73,Tanete,92175,-5.4548325999307,119.8495765831
7306032008,730603,7306,73,Bontobuddung,92175,-5.4693808411405,119.82826871454
7306041001,730604,7306,73,Malino,92178,-5.2401978165539,119.86810134385
7306041002,730604,7306,73,Buluttana,92178,-5.2676315662784,119.85412180221
7306041003,730604,7306,73,Gantarang,92178,-5.2270769365703,119.85598332457
7306041010,730604,7306,73,Pattapang,92178,-5.2531475909757,119.90141854113
7306041011,730604,7306,73,"Bonto Lerung",92178,-5.2888457933917,119.89720718947
7306041012,730604,7306,73,Garassi,92178,-5.2117594580136,119.84138004794
7306042004,730604,7306,73,Parigi,92178,-5.2494256927643,119.79437290719
7306051001,730605,7306,73,Lanna,92179,-5.24689851498,119.63933041926
7306051002,730605,7306,73,Bontoparang,92179,-5.2547013783635,119.60035602607
7306052006,730605,7306,73,Lonjoboko,92179,-5.2613837008012,119.73472639102
7306052008,730605,7306,73,Borisallo,92179,-5.2151772869888,119.70704725942
7306052009,730605,7306,73,Belapunranga,92179,-5.2138820238283,119.63927946708
7306052010,730605,7306,73,Bontokassi,92179,-5.2327509219583,119.74015820023
7306052011,730605,7306,73,Belabori,92179,-5.1803740042174,119.64300955222
7306061001,730606,7306,73,Borongloe,92171,-5.2342296106532,119.49422775039
7306061002,730606,7306,73,Bontomanai,92171,-5.2343019291711,119.51254846963
7306061012,730606,7306,73,"Romang Lompoa",92171,-5.2202038044689,119.5048224748
7306062003,730606,7306,73,Pakatto,92171,-5.2435175399758,119.53153859943
7306062004,730606,7306,73,Nirannuang,92171,-5.2622784734746,119.55859200161
7306062005,730606,7306,73,Romangloe,92171,-5.2871111106331,119.54393650972
7306062006,730606,7306,73,Sokkolia,92171,-5.2637156520811,119.51946637581
7306062013,730606,7306,73,"Mata Allo",92171,-5.2701168296075,119.5352327054
7306062014,730606,7306,73,Bili-bili,92171,-5.2813297586516,119.57205078867
7306071001,730607,7306,73,Tetebatu,92161,-5.2319617330645,119.46128377946
7306071002,730607,7306,73,Pangkabinanga,92161,-5.2230251415895,119.46251297751
7306071003,730607,7306,73,Parangbanoa,92161,-5.2445350996589,119.48308888771
7306071015,730607,7306,73,Mangalli,92161,-5.2257785562249,119.44720543437
7306072004,730607,7306,73,Bontoala,92161,-5.2107128406743,119.44236103589
7306072005,730607,7306,73,Pallangga,92161,-5.2388589186036,119.45493196824
7306072006,730607,7306,73,Julubori,92161,-5.2646651034746,119.46325912047
7306072007,730607,7306,73,Kampili,92161,-5.2614602871456,119.49415666347
7306072008,730607,7306,73,Panakkukang,92161,-5.2474739899627,119.43826403158
7306072009,730607,7306,73,Bontoramba,92161,-5.2795612877691,119.50490022861
7306072010,730607,7306,73,"Jene tallasa",92161,-5.2189004300827,119.43448075161
7306072011,730607,7306,73,Julukanaya,92161,-5.2763580874156,119.45967529587
7306072012,730607,7306,73,Julupa'mai,92161,-5.2810971685359,119.48409250455
7306072013,730607,7306,73,Bungaejaya,92161,-5.2527665339747,119.44917267817
7306072014,730607,7306,73,Toddotoa,92161,-5.2549842125757,119.47141630707
7306072016,730607,7306,73,Taeng,92161,-5.1984510013202,119.43465579099
7306081001,730608,7306,73,Sungguminasa,92111,-5.2042025492251,119.45178352937
7306081002,730608,7306,73,"Bonto Bontoa",92111,-5.2047957842291,119.45718531773
7306081003,730608,7306,73,Batangkaluku,92117,-5.2098855899065,119.46408574843
7306081004,730608,7306,73,Tompobalang,92112,-5.2158131764377,119.46031692053
7306081005,730608,7306,73,Samata,92113,-5.1948515647095,119.49996892769
7306081006,730608,7306,73,Katangka,92114,-5.19166262737,119.4472063307
7306081007,730608,7306,73,"Pandang Pandang",92115,-5.1971138524527,119.44490820874
7306081008,730608,7306,73,Tombolo,92114,-5.1884994405862,119.46267311736
7306081009,730608,7306,73,Kalegowa,92116,-5.195390049931,119.45053476959
7306081010,730608,7306,73,Romangpolong,92118,-5.2044445168619,119.49818756448
7306081011,730608,7306,73,Paccinongang,92113,-5.1940104620156,119.47196922146
7306081012,730608,7306,73,Tamarunang,92112,-5.211788279004,119.47531144466
7306081013,730608,7306,73,Bontoramba,92119,-5.2236958548098,119.47905172236
7306081014,730608,7306,73,Mawang,92119,-5.2160313291079,119.49093015675
7306091001,730609,7306,73,Sapaya,92177,-5.3829287696924,119.74883539845
7306091010,730609,7306,73,Je'nebatu,92177,-5.3377819845522,119.75792387356
7306092002,730609,7306,73,Bontomanai,92177,-5.3285536455363,119.69961022763
7306092003,730609,7306,73,Buakkang,92177,-5.3518508797457,119.67557085185
7306092004,730609,7306,73,Bissoloro,92177,-5.3583018452777,119.63542279344
7306092011,730609,7306,73,Rannaloe,92177,-5.3911492425997,119.6961230579
7306092012,730609,7306,73,Mangempang,92177,-5.3288172297038,119.6715289497
7306101001,730610,7306,73,Tamaona,92170,-5.1924615611995,119.92995727815
7306102002,730610,7306,73,Ta'binjai,92170,-5.1766782422495,119.98845629103
7306102003,730610,7306,73,Erelembang,92170,-5.1559987398031,119.88912308807
7306102004,730610,7306,73,Kanreapia,92170,-5.2634869744207,119.94595509862
7306102005,730610,7306,73,Pao,92170,-5.1518423814545,119.93764615008
7306102006,730610,7306,73,Balassuka,92170,-5.2186649520436,119.98146093998
7306102007,730610,7306,73,Mamampang,92170,-5.2064061482533,119.96271944986
7306102008,730610,7306,73,Tonasa,92170,-5.2184205562499,119.93166304783
7306102009,730610,7306,73,Bolaromang,92170,-5.2543207457495,119.97144982113
7306111002,730611,7306,73,"Tonrorita ",90244,-5.4828921781791,119.78245382087
7306111004,730611,7306,73,Lauwa,90244,-5.4302885627185,119.75006131694
7306112001,730611,7306,73,Taring,90244,-5.5374309026591,119.79118137211
7306112003,730611,7306,73,Pencong,90244,-5.5211763736219,119.74492375019
7306112005,730611,7306,73,Berutallasa,90244,-5.4903032255123,119.71722778965
7306112006,730611,7306,73,Parangloe,90244,-5.553753664516,119.76074240408
7306112007,730611,7306,73,Baturappe,90244,-5.4719184194462,119.67389558727
7306112008,730611,7306,73,Batumalonro,90244,-5.4257679156171,119.67705687152
7306112009,730611,7306,73,Borimasunggu,90244,-5.4834529695583,119.75627791137
7306112010,730611,7306,73,Lembangloe,90244,-5.5475304479203,119.73351544258
7306112011,730611,7306,73,Julukanaya,90244,-5.4486213168067,119.74350618767
7306121001,730612,7306,73,"Benteng Somba Opu",90225,-5.1937600622868,119.4053340848
7306121005,730612,7306,73,"Lembang Parang",90225,-5.2315407551038,119.42395120818
7306122002,730612,7306,73,Kanjilo,90225,-5.2229994861988,119.41519710657
7306122003,730612,7306,73,Moncobalang,90225,-5.2617498970569,119.40477107953
7306122004,730612,7306,73,Tinggimae,90225,-5.2513499361481,119.41820795519
7306122006,730612,7306,73,Biringala,90225,-5.2753739833419,119.39689499075
7306122007,730612,7306,73,Tamannyeleng,90225,-5.2046797388029,119.4186739298
7306132001,730613,7306,73,Timbuseng,92172,-5.2381706097777,119.56411600361
7306132002,730613,7306,73,Pallantikang,92172,-5.2149394645043,119.58864049952
7306132003,730613,7306,73,Sunggumanai,92172,-5.1987906251305,119.52801372866
7306132004,730613,7306,73,Paccellekang,92172,-5.1779500299869,119.56169423566
7306132005,730613,7306,73,Pattallassang,92172,-5.2092033395449,119.55424204077
7306132006,730613,7306,73,Je'nemadinging,92172,-5.1748048819492,119.52834612672
7306132007,730613,7306,73,Panaikang,92172,-5.1890637987709,119.57909582525
7306132008,730613,7306,73,Borongpala'la,92172,-5.2156181110305,119.53389306924
7306142001,730614,7306,73,Manuju,92173,-5.2813544744695,119.67811212174
7306142002,730614,7306,73,Pattallikang,92173,-5.3064555268347,119.63614753717
7306142003,730614,7306,73,Tamalatea,92173,-5.290954008988,119.7357957607
7306142004,730614,7306,73,Moncongloe,92173,-5.279840754378,119.60636792538
7306142005,730614,7306,73,Bilalang,92173,-5.2766819484928,119.63796174692
7306142006,730614,7306,73,Tassese,92173,-5.3128591568695,119.7229967755
7306142007,730614,7306,73,"Tanak Karaeng",92173,-5.3051050338125,119.59116912952
7306152001,730615,7306,73,Julumate'ne,92176,-5.4293057307367,119.79004189725
7306152002,730615,7306,73,Bontolempangang,92176,-5.4214988612922,119.80581208993
7306152003,730615,7306,73,Lassa-Lassa,92176,-5.4017676307401,119.81057018275
7306152004,730615,7306,73,Bontoloe,92176,-5.3603629534215,119.84564422756
7306152005,730615,7306,73,Pa'ladingang,92176,-5.3491345973047,119.82451789389
7306152006,730615,7306,73,Paranglompoa,92176,-5.3592028441826,119.79581157304
7306152007,730615,7306,73,Bontotangnga,92176,-5.3612678920017,119.8723986463
7306152008,730615,7306,73,Ulujangang,92176,-5.423838553676,119.76865481807
7306161009,730616,7306,73,Bontoramba,92154,-5.4017089268997,119.39113716848
7306162001,730616,7306,73,Sengka,92154,-5.3782701687681,119.41243534203
7306162002,730616,7306,73,Tanrara,92154,-5.3983411918661,119.41242838343
7306162003,730616,7306,73,Tindang,92154,-5.389539239502,119.39961587715
7306162004,730616,7306,73,Pa'bundukang,92154,-5.3966216256415,119.3776565474
7306162005,730616,7306,73,Bontosunggu,92154,-5.4113073341762,119.38385784493
7306162006,730616,7306,73,Salajangki,92154,-5.411761301459,119.37161033537
7306162007,730616,7306,73,Salajo,92154,-5.44720399802,119.41326418097
7306162008,730616,7306,73,Jipang,92154,-5.4265267365744,119.42293243657
7306172001,730617,7306,73,Majannang,92174,-5.2869862752493,119.83932535208
7306172002,730617,7306,73,Jonjo,92174,-5.2913664873011,119.79706955274
7306172003,730617,7306,73,Manimbahoi,92174,-5.3152637286333,119.8988848957
7306172004,730617,7306,73,Sicini,92174,-5.3124330809715,119.79865390699
7306172005,730617,7306,73,Bilanrengi,92174,-5.3140654220691,119.84764940068
7306182001,730618,7306,73,Borimatangkasa,92151,-5.2942420414211,119.41611165601
7306182002,730618,7306,73,Mandalle,92151,-5.2934175296412,119.38485980917
7306182003,730618,7306,73,Manjalling,92151,-5.2915111355191,119.40253774642
7306182004,730618,7306,73,Gentungang,92151,-5.3185439928246,119.40512665391
7306182005,730618,7306,73,Tanabangka,92151,-5.3108244131314,119.41663969292
7306182006,730618,7306,73,Kalemandalle,92151,-5.2837877678339,119.39687771602
7306182007,730618,7306,73,Bontomanai,92151,-5.303619556935,119.39475432329
7307011001,730701,7307,73,Tassililu,92653,-5.2122409735693,120.00452110098
7307011002,730701,7307,73,Balakia,92653,-5.2449633298186,119.98996663397
7307012003,730701,7307,73,"Gunung Perak",92653,-5.3028605233407,119.96645378462
7307012004,730701,7307,73,Arabika,92653,-5.2271591874645,120.02799027398
7307012005,730701,7307,73,"Bonto Salama",92653,-5.1862247232348,120.0413080357
7307012006,730701,7307,73,"Turungan Baji",92653,-5.1476273505879,120.0671370311
7307012007,730701,7307,73,Barania,92653,-5.2694869003096,120.00425692261
7307012008,730701,7307,73,"Boto Lempangan",92653,-5.2565368143723,120.02880129468
7307012009,730701,7307,73,Terasa,92653,-5.1481811025362,120.01407676401
7307021001,730702,7307,73,"Sangiaseri ",92661,-5.2656885727807,120.14460161717
7307022002,730702,7307,73,Puncak,92661,-5.2710541701164,120.1071135335
7307022003,730702,7307,73,Songing,92661,-5.2469690510046,120.11724968032
7307022004,730702,7307,73,Aska,92661,-5.2053674246392,120.22316301693
7307022005,730702,7307,73,Talle,92661,-5.2034962422657,120.15675234541
7307022006,730702,7307,73,Palae,92661,-5.2012648625508,120.19871621406
7307022007,730702,7307,73,"Bulu Kamase",92661,-5.1783806463122,120.18850945356
7307022008,730702,7307,73,Palangka,92661,-5.2978343445949,120.11033840252
7307022009,730702,7307,73,Polewali,92661,-5.2465050746361,120.09668704536
7307022010,730702,7307,73,Gareccing,92661,-5.234326041506,120.15180879818
7307022011,730702,7307,73,Alenangka,92661,-5.2324993461128,120.1768909306
7307031001,730703,7307,73,"Samataring ",92671,-5.1417985429546,120.25816732071
7307032002,730703,7307,73,Sanjai,92671,-5.2138507483324,120.29577634203
7307032003,730703,7307,73,Pattalassang,92671,-5.1900366714526,120.2508820227
7307032004,730703,7307,73,Panaikang,92671,-5.1685329390323,120.27161257767
7307032005,730703,7307,73,Saukang,92671,-5.1422363944451,120.23315217328
7307032006,730703,7307,73,Kampala,92671,-5.1536508450137,120.20800663651
7307032007,730703,7307,73,Lasiai,92671,-5.2048480080025,120.2688002254
7307032008,730703,7307,73,Biroro,92671,-5.2201742893406,120.24829248048
7307032009,730703,7307,73,Kaloling,92671,-5.1644151617143,120.24332168789
7307032010,730703,7307,73,Pasimarannu,92671,-5.1865443381662,120.27605210185
7307032011,730703,7307,73,Tongke-Tongke,92671,-5.1566852457516,120.26675840088
7307032012,730703,7307,73,Salohe,92671,-5.1656338436118,120.22603960655
7307032013,730703,7307,73,"Bongki Lengkese",92671,-5.1338718987572,120.20440188503
7307041001,730704,7307,73,Samaenre,92652,-5.1557174224184,120.17068970348
7307042002,730704,7307,73,"Mattunreng Tellue",92652,-5.1354089118949,120.16333687019
7307042003,730704,7307,73,Kompang,92652,-5.2121474648267,120.06641963686
7307042004,730704,7307,73,Baru,92652,-5.1971974538009,120.13086446252
7307042005,730704,7307,73,Pattongko,92652,-5.1935899055725,120.07798856837
7307042006,730704,7307,73,Saotengnga,92652,-5.1868906675258,120.11195936508
7307042007,730704,7307,73,Saohiring,92652,-5.1499349728805,120.11386239393
7307042008,730704,7307,73,Kanrung,92652,-5.1616173242292,120.1426199687
7307042009,730704,7307,73,Saotanre,92652,-5.2250621071223,120.10149126934
7307042010,730704,7307,73,Bonto,92652,-5.169383048701,120.09567083688
7307042011,730704,7307,73,Gantarang,92652,-5.2336900335994,120.05956060826
7307051001,730705,7307,73,Biringere,92611,-5.1289169375708,120.24211706712
7307051002,730705,7307,73,"Lamatti Rilau",92613,-5.1009909745372,120.22865289714
7307051003,730705,7307,73,Balangnipa,92612,-5.1181523594556,120.25779496788
7307051004,730705,7307,73,Lappa,92614,-5.1189523621874,120.27412970975
7307051005,730705,7307,73,Bongki,92615,-5.1073795969753,120.24602367599
7307051006,730705,7307,73,Alehanuae,92616,-5.1185379717412,120.21289683671
7307062001,730706,7307,73,"Lamatti Riattang",92654,-5.0988245411587,120.15756826202
7307062002,730706,7307,73,"Lamatti Riaja",92654,-5.1056928288138,120.19213122984
7307062003,730706,7307,73,"Bulu Tellue",92654,-5.1133789793543,120.12744034894
7307062004,730706,7307,73,Duampanuae,92654,-5.0717601046899,120.12445793748
7307062005,730706,7307,73,Tompobulu,92654,-5.1055985394558,120.09037334359
7307062006,730706,7307,73,"Lamatti Riawang",92654,-5.089613328095,120.17763351829
7307062007,730706,7307,73,Lappacinrana,92654,-5.0684212278055,120.14523852058
7307071001,730707,7307,73,"Pasir Putih",92662,-5.3238070435131,120.06386123922
7307072002,730707,7307,73,"Batu Belerang",92662,-5.3078621182216,120.00338795616
7307072003,730707,7307,73,"Biji Nangka",92662,-5.2965416850457,120.07007718405
7307072004,730707,7307,73,Barambang,92662,-5.2877322476515,120.04133158467
7307072005,730707,7307,73,"Bonto Sinala",92662,-5.3099972491432,120.0760112023
7307072006,730707,7307,73,"Kassi Buleng",92662,-5.3301356229551,120.04329331412
7307072007,730707,7307,73,"Bonto Katute",92662,-5.2654254957975,120.05734675126
7307072008,730707,7307,73,"Bonto Tengnga",92662,-5.3225358954803,120.01232732336
7307081001,730708,7307,73,Mannanti,92681,-5.2678241148734,120.2264694062
7307082002,730708,7307,73,Saotengah,92681,-5.2697982657568,120.18883217734
7307082003,730708,7307,73,Kalobba,92681,-5.2965754183948,120.16924037077
7307082004,730708,7307,73,"Tellu Limpoe",92681,-5.2794828623175,120.25312846507
7307082005,730708,7307,73,Massaile,92681,-5.2377491655873,120.20610469166
7307082006,730708,7307,73,"Lembang Lohe",92681,-5.2484994307964,120.22329625809
7307082007,730708,7307,73,Pattongko,92681,-5.2670574012621,120.3183678358
7307082008,730708,7307,73,Bua,92681,-5.2389590903235,120.30524129434
7307082009,730708,7307,73,"Suka Maju",92681,-5.2374788094465,120.27836648476
7307082010,730708,7307,73,Erabaru,92681,-5.275014315612,120.30223832934
7307082011,730708,7307,73,Samaturue,92681,-5.2635821528573,120.16826383243
7307092001,730709,7307,73,"Pulau Harapan",92616,-5.1024020482905,120.4175533505
7307092002,730709,7307,73,"Pulau Buhung Pitue",92616,-5.1211954185875,120.39193881644
7307092003,730709,7307,73,"Pulau Padaelo",92616,-5.0549459697886,120.42118017602
7307092004,730709,7307,73,"Pulau Persatuan",92616,-5.0485837198888,120.39571293359
7308011001,730801,7308,73,Kahu,92767,-5.0417684390053,120.04683350839
7308012002,730801,7308,73,"Watang Cani",92768,-5.0433626033337,119.89238639663
7308012003,730801,7308,73,Pattuku,92768,-5.0892199612562,119.93792769756
7308012004,730801,7308,73,Bontojai,92768,-5.1107868016675,119.98668538083
7308012005,730801,7308,73,Bana,92768,-5.0918627082621,120.05408207194
7308012006,730801,7308,73,Pammusureng,92768,-5.0554903548732,120.0873626799
7308012007,730801,7308,73,Langi,92768,-5.0243489775815,120.00778409422
7308012008,730801,7308,73,"Ere Cinnong",92768,-5.0289967282774,119.95074696652
7308012009,730801,7308,73,"Bulu Sirua",92768,-5.0823733575669,120.01213646619
7308012010,730801,7308,73,Lamoncong,92768,-4.9625021522659,119.98942718264
7308012011,730801,7308,73,Mattirowalie,92768,-4.9591367197265,119.922311852
7308021001,730802,7308,73,Palattae,92767,-4.9720587917122,120.11567810598
7308022002,730802,7308,73,Nusa,92767,-5.0302758030912,120.18695038846
7308022003,730802,7308,73,Pasaka,92767,-5.0365979590414,120.14152276442
7308022004,730802,7308,73,Labuaja,92767,-4.9987824731682,120.12367132607
7308022005,730802,7308,73,Cakkela,92767,-5.0037477862103,120.09398654145
7308022006,730802,7308,73,Balle,92767,-4.9803914469869,120.13791715302
7308022007,730802,7308,73,Matajang,92767,-4.997448403242,120.06537413057
7308022008,730802,7308,73,Cenrana,92754,-4.949904278897,120.09952906803
7308022009,730802,7308,73,Sanrego,92767,-4.9237163825389,120.04418769904
7308022010,730802,7308,73,Biru,92714,-4.9620998517995,120.06475936892
7308022011,730802,7308,73,Palakka,92761,-4.9186907058012,120.07378093696
7308022012,730802,7308,73,"Tompong Patu",92767,-4.9004980263085,120.01997443618
7308022013,730802,7308,73,Hulo,92767,-4.9191132973895,120.10139437792
7308022014,730802,7308,73,Cammilo,92767,-5.0225042546119,120.09876035829
7308022015,730802,7308,73,Carima,92767,-4.9668067977965,120.09675480046
7308022016,730802,7308,73,Mattoanging,92767,-5.0381486919783,120.17094804991
7308022017,730802,7308,73,Arallae,92767,-5.0082522023316,120.1419200337
7308022018,730802,7308,73,"Bonto Padang",92767,-4.952771064395,120.04881630313
7308022019,730802,7308,73,Lalepo,92767,-5.0397430002009,120.11736070568
7308022020,730802,7308,73,Maggenrang,92767,-4.9856149039276,120.0967107142
7308031001,730803,7308,73,"Awang Tangka",92777,-5.0782540435412,120.27862739889
7308032002,730803,7308,73,Raja,92777,-5.0585020719435,120.16215528379
7308032003,730803,7308,73,Abbumpungeng,92777,-5.0888748968957,120.20820690506
7308032004,730803,7308,73,"Bulu Tanah",92777,-5.0647774764689,120.20599469637
7308032005,730803,7308,73,Gona,92777,-5.0724246746448,120.24252843701
7308032006,730803,7308,73,Buareng,92777,-5.0891655672936,120.24087304396
7308032007,730803,7308,73,Polewali,92777,-5.0865925523678,120.28020993771
7308032008,730803,7308,73,Padaelo,92777,-5.0675829693018,120.25653992887
7308032009,730803,7308,73,Ancu,92777,-5.069834753618,120.2835612816
7308032010,730803,7308,73,Tarasu,92777,-5.0482060549146,120.27251089871
7308032011,730803,7308,73,Lemo,92777,-5.0620731850355,120.18870058765
7308032012,730803,7308,73,Kalero,92777,-5.0271951652259,120.20943698465
7308032013,730803,7308,73,Lappabosse,92777,-5.0378940527432,120.22774609784
7308032014,730803,7308,73,Waetuo,92777,-5.0773523024029,120.21752643273
7308032015,730803,7308,73,Pude,92777,-5.0614613767174,120.27147767968
7308032016,730803,7308,73,Angkue,92777,-5.0531199434046,120.29227603485
7308032017,730803,7308,73,Massangkae,92777,-5.1042244433605,120.26961881716
7308032018,730803,7308,73,Mallahae,92777,-5.0939526453485,120.27533300763
7308041001,730804,7308,73,Pancaitana,92775,-4.9890664681605,120.27099224674
7308042002,730804,7308,73,Malimongeng,92775,-5.0331388661782,120.25467710659
7308042003,730804,7308,73,Manera,92775,-5.0058476288394,120.29197222288
7308042004,730804,7308,73,Ulubalang,92775,-4.9776191976752,120.23118236076
7308042005,730804,7308,73,Gattareng,92775,-4.9978293568639,120.18998936709
7308042006,730804,7308,73,Bellu,92775,-5.0177067109675,120.15802750815
7308042007,730804,7308,73,Tebba,92775,-5.0062397803428,120.2528289681
7308042008,730804,7308,73,Mappatoba,92775,-5.0194179577789,120.27066407007
7308052001,730805,7308,73,"Bulu Bulu",92774,-4.9025853368454,120.26689622835
7308052002,730805,7308,73,Gareccing,92774,-4.9322623196644,120.25616601139
7308052003,730805,7308,73,Biccoing,92774,-4.9588374784884,120.25093189713
7308052004,730805,7308,73,Ujunge,92774,-4.9668126343003,120.29430707052
7308052005,730805,7308,73,Libureng,92774,-4.8757251464501,120.26977972719
7308052006,730805,7308,73,Rappa,92774,-4.8464018684443,120.23275185928
7308052007,730805,7308,73,Bacu,92774,-4.9815069500634,120.28981364545
7308052008,730805,7308,73,Muara,92774,-4.9647658622259,120.28226457019
7308052009,730805,7308,73,"Bone Pute",92774,-4.9397305831948,120.29353636433
7308052010,730805,7308,73,Padatuo,92774,-4.8908384773687,120.27737180393
7308052011,730805,7308,73,Samaenre,92774,-4.86399150833,120.29483025572
7308061001,730806,7308,73,"Tanah Batue",92766,-4.7753601154252,119.98843001773
7308061010,730806,7308,73,Ceppaga,92766,-4.8299886480426,120.08167215534
7308062002,730806,7308,73,"Tompo Bulu",92766,-4.8575279539682,119.96483792654
7308062003,730806,7308,73,Tappale,92766,-4.8900652558947,120.06007369552
7308062004,730806,7308,73,Polewali,92766,-4.8932875247893,120.10295403963
7308062005,730806,7308,73,Pitumpidange,92766,-4.8806234016827,120.0796959467
7308062006,730806,7308,73,Bune,92766,-4.7923224593352,120.04064898328
7308062007,730806,7308,73,Swadaya,92766,-4.7986291811532,119.99195994732
7308062008,730806,7308,73,Binuang,92766,-4.7682546894276,120.02304672055
7308062009,730806,7308,73,Mallinrung,92766,-4.778473765147,120.07739302855
7308062011,730806,7308,73,Baringeng,92766,-4.9157657164899,119.93800225445
7308062012,730806,7308,73,Mario,92766,-4.8442002555504,120.03515869724
7308062013,730806,7308,73,Wanuawaru,92766,-4.8461813908689,120.10070535912
7308062014,730806,7308,73,Mattirowalie,92766,-4.8175293764462,120.0494318757
7308062015,730806,7308,73,Poleonro,92766,-4.8226381517931,120.00568958161
7308062016,730806,7308,73,"Matirro Bulu",92766,-4.7971206185645,120.12744145953
7308062017,730806,7308,73,Matirrodeceng,92766,-4.7660099580154,120.04652288614
7308062018,730806,7308,73,Suwa,92766,-4.869754417008,120.10294251269
7308062019,730806,7308,73,Laburasseng,92766,-4.8656290043067,120.05573155469
7308062020,730806,7308,73,"Ponre Ponre",92766,-4.865162582012,120.00820192142
7308071001,730807,7308,73,Padaelo,92773,-4.81141634416,120.34463901303
7308072002,730807,7308,73,Mattirowalie,92773,-4.7626804916036,120.20699151537
7308072003,730807,7308,73,Mario,92773,-4.828401987171,120.32277218857
7308072004,730807,7308,73,"Ujung Salangketo",92773,-4.8317480641105,120.35294628814
7308072005,730807,7308,73,"Tellu Boccoe",92773,-4.8051336501466,120.35078631445
7308072006,730807,7308,73,"Mattampa Walie",92773,-4.7850133824929,120.3513904291
7308072007,730807,7308,73,"Ujung Tanah",92773,-4.7568625107531,120.28410328518
7308072008,730807,7308,73,Sumaling,92773,-4.7799656804073,120.37217782592
7308072009,730807,7308,73,Tellongeng,92773,-4.7839047886224,120.28675122611
7308072010,730807,7308,73,Data,92773,-4.7951986954783,120.37482747501
7308072011,730807,7308,73,"Batu Gading",92773,-4.8160336830759,120.26248237426
7308072012,730807,7308,73,Cege,92773,-4.818810765273,120.36913274833
7308072013,730807,7308,73,Kadai,92773,-4.8014401473957,120.33908663665
7308072014,730807,7308,73,Lakukang,92773,-4.7604798113731,120.33181490418
7308072015,730807,7308,73,Pattiro,92773,-4.7635244949652,120.36840458043
7308072016,730807,7308,73,Lapasa,92773,-4.844065452507,120.29014908006
7308072017,730807,7308,73,Karella,92773,-4.8159543903855,120.30986159309
7308072018,730807,7308,73,"Lappa Upang",92773,-4.8002042046466,120.2123997925
7308081001,730808,7308,73,Maroanging,92781,-4.6611378351417,120.36063070631
7308082002,730808,7308,73,"Pattiro Bajo",92781,-4.6607764272208,120.37343239526
7308082003,730808,7308,73,"Massenreng Pulu",92781,-4.7190160240217,120.34998135436
7308082004,730808,7308,73,"Tunreng Tellue",92781,-4.7194168263621,120.37253298169
7308082005,730808,7308,73,Polewali,92781,-4.6767246517353,120.33366644166
7308082006,730808,7308,73,"Tadang Palie",92781,-4.6434754643632,120.33621584602
7308082007,730808,7308,73,Cinnong,92781,-4.6708619282728,120.35352488917
7308082008,730808,7308,73,Mallusetasi,92781,-4.6761456511934,120.40965148783
7308082009,730808,7308,73,Pakkasalo,92781,-4.6619076474836,120.39258212776
7308082010,730808,7308,73,"Pattiro Sompe",92781,-4.6490323059088,120.42796769477
7308082011,730808,7308,73,"Ajang Pulu",92781,-4.6421685707398,120.36358879006
7308082012,730808,7308,73,"Sumpang Minangae",92781,-4.6163403002033,120.39906557159
7308082013,730808,7308,73,Mabbiring,92781,-4.6888873716079,120.37951391743
7308082014,730808,7308,73,Pasaka,92781,-4.746017611831,120.37589309945
7308082015,730808,7308,73,Kalibong,92781,-4.6615706079865,120.31914934968
7308082016,730808,7308,73,"Pattiro Riolo",92781,-4.6373351232119,120.40026151103
7308082017,730808,7308,73,"Letta Tanah",92781,-4.6317887522345,120.38311089732
7308082018,730808,7308,73,Manajeng,92781,-4.6142867201512,120.38625689427
7308082019,730808,7308,73,Bulie,92781,-4.7231867965417,120.39158749265
7308082020,730808,7308,73,"Balieng Toa",92781,-4.7449097590326,120.34187260681
7308091006,730809,7308,73,Apala,92771,-4.6155921213312,120.3227228242
7308092001,730809,7308,73,Bacu,92771,-4.593615723897,120.21590497606
7308092002,730809,7308,73,Lampoko,92771,-4.5891698989161,120.239300888
7308092003,730809,7308,73,Congko,92771,-4.5621615226703,120.24670519326
7308092004,730809,7308,73,Wollangi,92771,-4.5951453516019,120.26435861711
7308092005,730809,7308,73,Parippung,92771,-4.6347178490194,120.31652388121
7308092007,730809,7308,73,Barebbo,92771,-4.5880136488169,120.35547707746
7308092008,730809,7308,73,Kampuno,92771,-4.6092662080504,120.34736107369
7308092009,730809,7308,73,Kading,90225,-4.5784875830466,120.37212985725
7308092010,730809,7308,73,Kajaolaliddong,92771,-4.5953323729317,120.28382605942
7308092011,730809,7308,73,Samaelo,92771,-4.6114326297864,120.30188473364
7308092012,730809,7308,73,Corawali,92771,-4.5907048760629,120.31719341248
7308092013,730809,7308,73,Talungeng,92771,-4.5890975557584,120.33917674826
7308092014,730809,7308,73,Watu,92771,-4.5935622050748,120.38106101113
7308092015,730809,7308,73,Cingkang,92771,-4.5699917087565,120.22811890894
7308092016,730809,7308,73,Cinnong,92771,-4.5754402132582,120.25529327118
7308092017,730809,7308,73,Cempaniga,92771,-4.5908962634127,120.194046953
7308092018,730809,7308,73,Sugiale,92771,-4.6218296915024,120.35913543784
7308101001,730810,7308,73,Tanete,92772,-4.6851596790002,120.28905568189
7308102002,730810,7308,73,Arasoe,92772,-4.7163669211042,120.32317789716
7308102003,730810,7308,73,"Tanete Harapan",92772,-4.7000387710011,120.27973826971
7308102004,730810,7308,73,Lompu,92772,-4.6743071136526,120.25630994059
7308102005,730810,7308,73,Walenreng,92772,-4.6377242213824,120.27851796058
7308102006,730810,7308,73,"Ajang Pulu",92772,-4.6479905201616,120.23754124868
7308102007,730810,7308,73,"Padang Loang",92772,-4.6104004160733,120.26713488108
7308102008,730810,7308,73,Abbumpungeng,92772,-4.7364467326602,120.27505703465
7308102009,730810,7308,73,Kawerang,92772,-4.6585256851025,120.28698568775
7308102010,730810,7308,73,Awo,92772,-4.622165178469,120.29363466439
7308102011,730810,7308,73,Kanco,92772,-4.6183525039762,120.24591037363
7308102012,730810,7308,73,Cinennung,92772,-4.7206624523525,120.27513030983
7308112001,730811,7308,73,Mappesangka,92765,-4.7497204145642,120.09863500571
7308112002,730811,7308,73,Salebba,92765,-4.7058144975274,120.13867200856
7308112003,730811,7308,73,Mattampae,92765,-4.6244774692013,120.18823703306
7308112004,730811,7308,73,Pattimpa,92765,-4.6423678164066,120.19456494224
7308112005,730811,7308,73,"Tellu Boccoe",92765,-4.6033764823174,120.13371543082
7308112006,730811,7308,73,"Turu Adae",92765,-4.7076485770112,120.07539308314
7308112007,730811,7308,73,Salampe,92765,-4.7306299314069,120.19156126678
7308112008,730811,7308,73,Poleonro,92765,-4.6507225722848,120.13557389013
7308112009,730811,7308,73,Bolli,92765,-4.6822818028744,120.20305914966
7308122001,730812,7308,73,Mattampawalie,92760,-4.7447662466652,119.94476419285
7308122002,730812,7308,73,"Lili Riattang",92760,-4.742479196956,120.00601570696
7308122003,730812,7308,73,"Sengeng Palie",92760,-4.7252968849742,119.97624172301
7308122004,730812,7308,73,"Tenri Pakkua",92760,-4.700387726693,119.96177184292
7308122005,730812,7308,73,Patangkai,92760,-4.6853721710927,119.9977465006
7308122006,730812,7308,73,"Ujung Lamuru",92760,-4.6674574946212,119.98118664186
7308122007,730812,7308,73,"Pattuku Limpoe",92760,-4.6824120690233,119.93088034725
7308122008,730812,7308,73,Waekeccee,92760,-4.7146719817241,120.01108575917
7308122009,730812,7308,73,Tonronge,92760,-4.7133341927924,119.92822629615
7308131001,730813,7308,73,Lalebata,92764,-4.5973447058348,119.98237134112
7308132002,730813,7308,73,"Mattampa Walie",92764,-4.6425513554609,119.97749026501
7308132003,730813,7308,73,Poleonro,92764,-4.6170142484054,119.98083821917
7308132004,730813,7308,73,"Sengeng Palie",92764,-4.5704324443496,119.99114341491
7308132005,730813,7308,73,"Mattampa Bulu",92764,-4.5939877569213,119.93345425453
7308132006,730813,7308,73,"Turu Cinnae",92764,-4.5411930108598,119.92132330645
7308132007,730813,7308,73,Seberang,92764,-4.5369988622775,120.02772563893
7308132008,730813,7308,73,"Massenreng pulu",92764,-4.6491184253031,119.93574461317
7308132009,730813,7308,73,Mamminasae,92764,-4.5759758580409,119.92065616359
7308132010,730813,7308,73,Padaelo,92764,-4.5412224172503,119.99415721618
7308132011,730813,7308,73,Barugae,92764,-4.5167322450433,120.05153425041
7308132012,730813,7308,73,Barakkae,92764,-4.6201055327037,119.93692929881
7308141001,730814,7308,73,Cinnong,92762,-4.5050839478785,120.18610593258
7308142002,730814,7308,73,"Lilina Ajangale",92762,-4.5444718252693,120.09971868205
7308142003,730814,7308,73,"Cani Sirenreng",92762,-4.5301754104243,120.15267283763
7308142004,730814,7308,73,"Ulaweng Cinnong",92762,-4.5154946442873,120.18825115398
7308142005,730814,7308,73,Pallawarukka,92762,-4.4998968823696,120.20496596136
7308142006,730814,7308,73,Jompie,92762,-4.4794281821637,120.17940215334
7308142007,730814,7308,73,Sappewalie,92762,-4.5128383609481,120.16606801172
7308142008,730814,7308,73,Lamakkaraseng,92762,-4.4887248708949,120.16393436924
7308142009,730814,7308,73,"Mula Menree",92762,-4.4894432585676,120.14098102834
7308142010,730814,7308,73,"Tea Musu",92762,-4.4868127816377,120.07589769075
7308142011,730814,7308,73,"Tea Malala",92762,-4.4611796793182,120.12828914099
7308142012,730814,7308,73,Galung,92762,-4.4639129741522,120.15866585115
7308142013,730814,7308,73,"Tadang Palie",92762,-4.5252239688492,120.12598050669
7308142014,730814,7308,73,Timusu,92762,-4.5046862732624,120.11190368826
7308142015,730814,7308,73,Manurunge,92762,-4.509385675684,120.17728960645
7308152001,730815,7308,73,Cinenung,92761,-4.574896510792,120.17824818273
7308152002,730815,7308,73,Siame,92761,-4.5562702496412,120.16692344337
7308152003,730815,7308,73,Pasempe,92761,-4.5398298881722,120.1982659235
7308152004,730815,7308,73,Ureng,92761,-4.5163761605536,120.21353380735
7308152005,730815,7308,73,Usa,92761,-4.5114897607989,120.23469310011
7308152006,730815,7308,73,Mico,92761,-4.484152681892,120.23996927568
7308152007,730815,7308,73,Bainang,92761,-4.495236358102,120.27613043498
7308152008,730815,7308,73,Passippo,92761,-4.5077876480957,120.26164577143
7308152009,730815,7308,73,"Tanah Tengnga",92761,-4.5235259562389,120.25915463358
7308152010,730815,7308,73,Tirong,92761,-4.5506304391685,120.28030010114
7308152011,730815,7308,73,"Mattanete Bua",92761,-4.5696294697924,120.27003705797
7308152012,730815,7308,73,Maduri,92761,-4.5757348284274,120.28042479621
7308152013,730815,7308,73,Melle,92761,-4.5818086838714,120.29878049523
7308152014,730815,7308,73,Lemoape,92761,-4.5445452568943,120.23370298056
7308152015,730815,7308,73,Panyili,92761,-4.5466684055714,120.26431477789
7308161001,730816,7308,73,Maccope,92776,-4.4864121779267,120.34168832061
7308162002,730816,7308,73,Carebbu,92776,-4.4411090417326,120.25051244651
7308162003,730816,7308,73,Cumpiga,92776,-4.4591119705651,120.27796852187
7308162004,730816,7308,73,Paccing,92776,-4.4831393800274,120.29978820781
7308162005,730816,7308,73,Lattekko,92776,-4.4157828461927,120.27867716657
7308162006,730816,7308,73,Matuju,92776,-4.4325062390194,120.30410434175
7308162007,730816,7308,73,Unra,92776,-4.4458110118,120.32984604104
7308162008,730816,7308,73,Kading,92776,-4.45154203946,120.3487956786
7308162009,730816,7308,73,Mallari,92776,-4.4643616988097,120.36311036676
7308162010,730816,7308,73,Kajuara,92776,-4.4300815185531,120.33035138252
7308162011,730816,7308,73,Jaling,92776,-4.4372000204551,120.2841588116
7308162012,730816,7308,73,Bulumpare'e,92776,-4.4423235428025,120.23251269689
7308162013,730816,7308,73,Abbanuang,92776,-4.4695118570975,120.26249838074
7308162014,730816,7308,73,Lappoase,92776,-4.4705090002714,120.30327158438
7308162015,730816,7308,73,Awolagading,92776,-4.439131886588,120.26811598995
7308162016,730816,7308,73,Carigading,92776,-4.4197964738732,120.33636723272
7308162017,730816,7308,73,"Cakke Bone",92776,-4.4676391905534,120.33348109331
7308162018,730816,7308,73,"Mappalo Ulaweng",92776,-4.45487669014,120.30463437301
7308171001,730817,7308,73,Otting,92752,-4.4081829217778,120.24345600604
7308171002,730817,7308,73,Tokaseng,92752,-4.3977719745559,120.26608941383
7308172003,730817,7308,73,Palongki,92752,-4.4419304471569,120.17428650218
7308172004,730817,7308,73,Tajong,92752,-4.4598271227511,120.19079373715
7308172005,730817,7308,73,Ulo,92752,-4.4236017877189,120.20469377913
7308172006,730817,7308,73,Lanca,92752,-4.3930947119519,120.23266256835
7308172007,730817,7308,73,Itterung,92752,-4.4006757843044,120.29748540161
7308172008,730817,7308,73,Mattoanging,92752,-4.4132280093397,120.31930895901
7308172009,730817,7308,73,Lamuru,92752,-4.3924809251809,120.33645044163
7308172010,730817,7308,73,Waji,92752,-4.3686845748271,120.26013677409
7308172011,730817,7308,73,Ajjalireng,92752,-4.3576050034724,120.25854087968
7308172012,730817,7308,73,Sijelling,92752,-4.3346366704194,120.27187508161
7308172013,730817,7308,73,Lea,92752,-4.3202403081148,120.3016908605
7308172014,730817,7308,73,Padaidi,92752,-4.4751548961444,120.21051085759
7308172015,730817,7308,73,Pongka,92752,-4.4035852329492,120.17130636439
7308172016,730817,7308,73,Lappae,92752,-4.3789102680284,120.2265789559
7308172017,730817,7308,73,Patangnga,92752,-4.3470840986221,120.28942408632
7308181001,730818,7308,73,"Pompanua ",92755,-4.234165457507,120.15651460843
7308181002,730818,7308,73,"Pompanua Riattang",92755,-4.2334386344021,120.136244476
7308182003,730818,7308,73,Welado,92755,-4.2384502513676,120.17965246296
7308182004,730818,7308,73,"Pinceng Pute",92755,-4.2471846667538,120.18689858336
7308182005,730818,7308,73,Opo,92755,-4.2558056410285,120.15041189153
7308182006,730818,7308,73,Labissa,92755,-4.2627367327148,120.17433020813
7308182007,730818,7308,73,Timurung,92755,-4.2854623593251,120.16298609706
7308182008,730818,7308,73,Leppangeng,92755,-4.3133153880135,120.15262786893
7308182009,730818,7308,73,"Allamungeng Patue",92755,-4.2887024878939,120.14232234695
7308182010,730818,7308,73,Amessangeng,92755,-4.2947938572508,120.12098570078
7308182011,730818,7308,73,Lebbae,92755,-4.2862382240525,120.08511896475
7308182012,730818,7308,73,Manciri,92755,-4.3139640156971,120.08723232505
7308182013,730818,7308,73,Telle,92755,-4.2519099322049,120.11980847064
7308182014,730818,7308,73,Pacciro,92755,-4.2651479902586,120.09603879313
7308191001,730819,7308,73,Unyi,92753,-4.2974073304604,120.2287706942
7308192002,730819,7308,73,Mario,92753,-4.3826773572255,120.2006541023
7308192003,730819,7308,73,Laccori,92753,-4.3487024055496,120.23345088104
7308192004,730819,7308,73,Pattiro,92753,-4.3228196896797,120.25388834056
7308192005,730819,7308,73,Cabbeng,92753,-4.326809489431,120.22685115288
7308192006,730819,7308,73,Panyili,92753,-4.3540633979451,120.19127716227
7308192007,730819,7308,73,Sanrangeng,92753,-4.3177206248787,120.17054284544
7308192008,730819,7308,73,Sailong,92753,-4.3035352448895,120.18682990658
7308192009,730819,7308,73,Melle,92753,-4.3119627912409,120.20843251355
7308192010,730819,7308,73,Pakkasalo,92753,-4.2964937596695,120.25347841718
7308192011,730819,7308,73,Tawaroe,92753,-4.2771007655621,120.2626223941
7308192012,730819,7308,73,Uloe,92753,-4.2879497530323,120.23732337354
7308192013,730819,7308,73,Ujung,92753,-4.2893649591788,120.20316337344
7308192014,730819,7308,73,Padacenga,92753,-4.263427434256,120.20183651017
7308192015,730819,7308,73,Lallatang,92753,-4.3300493911301,120.18459303443
7308192016,730819,7308,73,Kampoti,92753,-4.2993909764754,120.28054010392
7308192017,730819,7308,73,"Praja Maju",92753,-4.3718844369329,120.17121295833
7308192018,730819,7308,73,Tocina,92753,-4.3068712081219,120.27086169387
7308192019,730819,7308,73,Tempe,92753,-4.3378402418541,120.21100161666
7308192020,730819,7308,73,Solo,92753,-4.2502495057597,120.22206265244
7308192021,730819,7308,73,"Watang Padacenga",92753,-4.2836306239493,120.18607967431
7308192022,730819,7308,73,Matajang,92753,-4.274425573726,120.22012802428
7308201001,730820,7308,73,"Cenrana ",92754,-4.3229969279934,120.32000271532
7308202002,730820,7308,73,Pacubbe,92754,-4.3758399761069,120.31037853759
7308202003,730820,7308,73,Panyiwi,92754,-4.3743245372642,120.34240987157
7308202004,730820,7308,73,Latonro,92754,-4.3554043603336,120.35742486701
7308202005,730820,7308,73,Watu,92754,-4.3592720456454,120.31463419878
7308202006,730820,7308,73,Nagauleng,92754,-4.341666893039,120.32623347933
7308202007,730820,7308,73,Cakkeware,92754,-4.2801266971352,120.34921033633
7308202008,730820,7308,73,Pallime,92754,-4.3313036364496,120.36278373904
7308202009,730820,7308,73,Laoni,92754,-4.3478058357653,120.37901018296
7308202010,730820,7308,73,Labotto,92754,-4.2405193181702,120.35263751289
7308202011,730820,7308,73,"Awang Cenrana",92754,-4.3000356059557,120.32535698958
7308202012,730820,7308,73,Labongnge,92754,-4.2661145366589,120.30137912263
7308202013,730820,7308,73,Ajalase,92754,-4.3243366211973,120.34935175501
7308202014,730820,7308,73,Pusungnge,92754,-4.3258709257659,120.38091649757
7308202015,730820,7308,73,Pallae,92754,-4.3625894530624,120.3323859643
7308202016,730820,7308,73,"Watang Ta",92754,-4.3833388880563,120.28901299397
7308211001,730821,7308,73,Biru,92714,-4.5657335698572,120.32764280128
7308211002,730821,7308,73,Ta,92712,-4.5357270499342,120.34144574937
7308211003,730821,7308,73,Watampone,92713,-4.5340702715049,120.32358141296
7308211004,730821,7308,73,Bukaka,92711,-4.5234163695702,120.33819376763
7308211005,730821,7308,73,Pappolo,92721,-4.5050854009654,120.34257336342
7308211006,730821,7308,73,Manurunge,92711,-4.5420750258178,120.32890522071
7308211007,730821,7308,73,Walanae,92711,-4.5189086382065,120.32590005037
7308211008,730821,7308,73,Masumpu,92711,-4.5526730227531,120.32943767908
7308221001,730822,7308,73,Macege,92732,-4.5505028434025,120.31533126086
7308221002,730822,7308,73,"Matirro Walie",92731,-4.5149015763529,120.30621162389
7308221003,730822,7308,73,Macanang,92733,-4.5367550231448,120.30765037345
7308221004,730822,7308,73,Majang,92734,-4.5636948656191,120.30420584202
7308221005,730822,7308,73,"Bulu Tempe",92735,-4.5406900885398,120.28973095454
7308221006,730822,7308,73,Jeppee,92732,-4.5405421358157,120.31900534182
7308221007,730822,7308,73,Polewali,92731,-4.4980861784418,120.30715932858
7308221008,730822,7308,73,"Watang Palakka",92731,-4.520739846247,120.28539794854
7308231001,730823,7308,73,Bajoe,92716,-4.5614836721364,120.3773498079
7308231002,730823,7308,73,Cellu,92715,-4.5567356683604,120.36069117655
7308231003,730823,7308,73,Panyula,92717,-4.5179748781241,120.36475982696
7308231004,730823,7308,73,Waetuo,92718,-4.4923933342655,120.37020621756
7308231005,730823,7308,73,Palette,92719,-4.4766331894012,120.38806303669
7308231006,730823,7308,73,Tipojong,92716,-4.5543374581494,120.34630357631
7308231007,730823,7308,73,Toro,92715,-4.5329618715722,120.37034577836
7308231008,730823,7308,73,Lonrae,92716,-4.543460182246,120.37869140205
7308241015,730824,7308,73,Mampotu,92756,-4.4038540615182,120.11750691321
7308242001,730824,7308,73,Liliriattang,92756,-4.4588426561585,120.09411410353
7308242002,730824,7308,73,Mattaropurae,92756,-4.4396187967417,120.13341661841
7308242003,730824,7308,73,"Ulaweng Riaja",92756,-4.4097048798543,120.08248235797
7308242004,730824,7308,73,Waempubbu,92756,-4.4142099130487,120.14319760967
7308242005,730824,7308,73,Waemputtange,92756,-4.4224455395954,120.1109655307
7308242006,730824,7308,73,"Amali Riattang",92756,-4.4356811076718,120.07410435538
7308242007,730824,7308,73,Tassipi,92756,-4.3730606030519,120.12009036415
7308242008,730824,7308,73,Wellulang,92756,-4.3802891660516,120.15179812591
7308242009,730824,7308,73,"Benteng Tellue",92756,-4.3413911988859,120.11806505569
7308242010,730824,7308,73,Tacipong,92756,-4.3909491018098,120.11547632358
7308242011,730824,7308,73,Laponrong,92756,-4.3389012804938,120.15815408563
7308242012,730824,7308,73,Ajanglaleng,92756,-4.3572155934011,120.15013029738
7308242013,730824,7308,73,Tocinnong,92756,-4.4560013521077,120.14957954535
7308242014,730824,7308,73,Bila,92756,-4.4317872901106,120.09715229906
7308252001,730825,7308,73,"Tellang Kere",92771,-4.6920312719124,119.83924845202
7308252002,730825,7308,73,Lagori,92771,-4.6597533926408,119.89774542573
7308252003,730825,7308,73,"Gaya Baru",92771,-4.6354718712219,119.86721705583
7308252004,730825,7308,73,Tapong,92771,-4.6345622358367,119.79833593258
7308252005,730825,7308,73,Sadar,92771,-4.5626686606514,119.82370191066
7308252006,730825,7308,73,Tondong,92771,-4.7970758280097,119.74811555352
7308252007,730825,7308,73,Samaenre,92771,-4.7309430414404,119.8440209614
7308252008,730825,7308,73,"Bonto Masunggu",92771,-4.7803799216022,119.79318599842
7308252009,730825,7308,73,Pallawa,92771,-4.5722436147245,119.86392339927
7308252010,730825,7308,73,Polewali,92771,-4.6948828071842,119.88095995028
7308252011,730825,7308,73,"Batu Putih",92771,-4.6686390575814,119.82039064955
7308262001,730826,7308,73,Samaenre,92763,-4.6935093057982,120.02919644701
7308262002,730826,7308,73,Tungke,92763,-4.6467813243965,120.0672955682
7308262003,730826,7308,73,Selli,92763,-4.6337062523482,120.02188888101
7308262004,730826,7308,73,Bengo,92763,-4.5983189335556,120.05592316757
7308262005,730826,7308,73,Mattaropuli,92763,-4.5841163440802,120.07402664398
7308262006,730826,7308,73,"Lili Riawang",92763,-4.5512273212623,120.0668066366
7308262007,730826,7308,73,Walimpong,92763,-4.6778174180179,120.07056993376
7308262008,730826,7308,73,"Bulu Allaporenge",92763,-4.6055390496074,120.02449415184
7308262009,730826,7308,73,Mattirowalie,92763,-4.5655218167783,120.03218057768
7308272001,730827,7308,73,Patimpeng,92768,-4.9712403980179,120.17891502362
7308272002,730827,7308,73,Latellang,92768,-4.9556765947444,120.14867153955
7308272003,730827,7308,73,"Maddenreng Pulu",92768,-4.9484376480824,120.1785277829
7308272004,730827,7308,73,Masago,92768,-4.9390413843142,120.11934967423
7308272005,730827,7308,73,"Batu Lappa",92768,-4.9489277799305,120.13743877255
7308272006,730827,7308,73,Paccing,92768,-4.9006151011557,120.12924308059
7308272007,730827,7308,73,Massila,92768,-4.9194098113717,120.15123979471
7308272008,730827,7308,73,Talabangi,92768,-4.8820969765031,120.15626678307
7308272009,730827,7308,73,Pationgi,92768,-4.8725327303982,120.1940422383
7308272010,730827,7308,73,"Bulu Ulaweng",92768,-4.8534052195523,120.13605206181
7309011001,730901,7309,73,Hasanuddin,90552,-5.0565976586507,119.54425951633
7309011002,730901,7309,73,Bontoa,90552,-5.0511530657644,119.56176757432
7309012003,730901,7309,73,Tenrigangkae,90552,-5.078160254529,119.56389609397
7309012004,730901,7309,73,Pattontongang,90552,-5.1083421832128,119.56031902322
7309012005,730901,7309,73,"Bonto Mate'ne",90552,-5.0536063627326,119.58144016094
7309012006,730901,7309,73,"Baji Mangngai",90552,-5.0770801371125,119.54786321185
7309021001,730902,7309,73,Cempaniga,90562,-4.906240940409,119.83434317057
7309021002,730902,7309,73,"Mario Pulana",90562,-4.9021773063569,119.86378238309
7309022003,730902,7309,73,Timpuseng,90562,-4.9389318630449,119.79861770348
7309022004,730902,7309,73,Cenrana,90562,-4.9640015923796,119.85741618891
7309022005,730902,7309,73,Sawaru,90562,-4.9319690209123,119.86143955161
7309022006,730902,7309,73,Patanyamang,90562,-4.8718546312427,119.83020334937
7309022007,730902,7309,73,"Pattiro Deceng",90562,-4.9216352745599,119.81891586519
7309022008,730902,7309,73,Benteng,90562,-4.937408147594,119.88396598085
7309031001,730903,7309,73,Kalabbirang,90561,-5.0039048289916,119.69458918593
7309031002,730903,7309,73,"Leang-Leang ",90561,-4.9625328887962,119.71393035946
7309032003,730903,7309,73,Alatengae,90561,-4.9950694068816,119.60568092993
7309032004,730903,7309,73,"Minasa Baji",90561,-5.0091769230266,119.62360537782
7309032005,730903,7309,73,Tukamasea,90561,-4.9465418310876,119.64887179128
7309032006,730903,7309,73,Mattoanging,90561,-4.9836786375602,119.61905950348
7309032007,730903,7309,73,Mangeloreng,90561,-4.9835192689479,119.64181603363
7309032008,730903,7309,73,Baruga,90561,-4.9489222894499,119.61547474476
7309041001,730904,7309,73,"Baji Pa'mai ",90516,-4.993139739179,119.55053478534
7309041002,730904,7309,73,Pallantikang,90516,-5.0163374382007,119.55068351228
7309041003,730904,7309,73,"Baju Bodoa",90515,-5.0028135014266,119.56041564368
7309042004,730904,7309,73,Borikamase,90512,-4.9953100188348,119.52008077849
7309042005,730904,7309,73,Mattirotasi,90511,-4.9794889426873,119.53561422895
7309042006,730904,7309,73,Majannang,90511,-4.9874240262006,119.52808093496
7309042007,730904,7309,73,Borimasunggu,90511,-4.9913549882349,119.50170485566
7309051001,730905,7309,73,Bontoa,90554,-4.9397981666512,119.56736993839
7309052002,730905,7309,73,Pajjukukang,90554,-4.9284979602183,119.53512384415
7309052003,730905,7309,73,Tunikamaseang,90554,-4.9291200130199,119.5582768885
7309052004,730905,7309,73,Tupabiring,90554,-4.918849574084,119.54164745403
7309052005,730905,7309,73,Botolempangang,90554,-4.9024026524041,119.60674032661
7309052006,730905,7309,73,Salenrang,90554,-4.9228472101084,119.60410917174
7309052007,730905,7309,73,"Minasa Upa",90554,-4.9078740101111,119.55988850869
7309052008,730905,7309,73,Ampekale,90554,-4.9010184076093,119.52869868139
7309052009,730905,7309,73,"Bonto Bahari",90554,-4.9396259558721,119.53474745368
7309061001,730906,7309,73,Sabila,90563,-4.8539276172103,119.91442089818
7309062002,730906,7309,73,Padaelo,90563,-4.8837180619057,119.9008415
7309062003,730906,7309,73,"Batu Putih",90563,-4.7959676639412,119.93220926516
7309062004,730906,7309,73,Wanuawaru,90563,-4.7529739717053,119.91642714014
7309062005,730906,7309,73,Tellupanuae,90563,-4.8301402499299,119.88305682215
7309062006,730906,7309,73,Samaenre,90563,-4.7872024981782,119.84203301529
7309062007,730906,7309,73,Bentenge,90563,-4.8233766837307,119.82819755367
7309062008,730906,7309,73,Matampapole,90563,-4.8280915092645,119.92414763434
7309062009,730906,7309,73,Uludaya,90563,-4.7932108153654,119.87588687303
7309062010,730906,7309,73,"Gattareng Matinggi",90563,-4.7667513712544,119.89593664701
7309062011,730906,7309,73,Barugae,90563,-4.8503954598738,119.87422801986
7309071001,730907,7309,73,Borong,90553,-5.0739919625374,119.61736141294
7309072002,730907,7309,73,Allaere,90553,-5.0591938874031,119.60353125643
7309072003,730907,7309,73,Toddopulia,90553,-5.095895727123,119.64291080132
7309072004,730907,7309,73,Kurusumange,90553,-5.1033338932154,119.58186334732
7309072005,730907,7309,73,Lekopancing,90553,-5.1134875881889,119.61316931411
7309072006,730907,7309,73,Damai,90553,-5.0843432092396,119.60181273813
7309072007,730907,7309,73,Sudirman,90553,-5.0920684631376,119.59394868541
7309072008,730907,7309,73,Purnakarya,90553,-5.1384284226657,119.60744987399
7309082001,730908,7309,73,Temmapaduae,90551,-5.0565842389826,119.51251915294
7309082002,730908,7309,73,Nisombalia,90551,-5.0174847749644,119.48676955153
7309082003,730908,7309,73,Tellumpoccoe,90551,-5.0357436665407,119.53369996055
7309082004,730908,7309,73,Ma'rumpa,90551,-5.0566715427959,119.52714661093
7309082005,730908,7309,73,"Bonto Mate'ne",90551,-5.0206388784075,119.52299799033
7309082006,730908,7309,73,Abulosibatang,90551,-5.0234782893684,119.5101969466
7309082007,730908,7309,73,Pa'bentengang,90551,-5.0498020925402,119.49195379301
7309092001,730909,7309,73,Jenetaesa,90560,-5.0232113874347,119.65961461587
7309092002,730909,7309,73,"Bonto Tallasa",90560,-5.0340700635674,119.59702114777
7309092003,730909,7309,73,Sambueja,90560,-5.0662298924254,119.68756441449
7309092004,730909,7309,73,Tanete,90560,-5.0377829530383,119.62389261268
7309092005,730909,7309,73,Samangki,90560,-5.0528305663305,119.72222766323
7309092006,730909,7309,73,Simbang,90560,-5.0427574423577,119.65006714119
7309102001,730910,7309,73,Laiya,90524,-5.0596819843287,119.8222463478
7309102002,730910,7309,73,Labuaja,90524,-5.017435518783,119.74804136034
7309102003,730910,7309,73,Limapoccoe,90524,-4.9948336096016,119.79280506311
7309102004,730910,7309,73,Lebbotengae,90524,-5.0453137567335,119.77454833985
7309102005,730910,7309,73,Rompegading,90524,-4.9653477115746,119.78118743064
7309102006,730910,7309,73,"Baji Pa'mai",90524,-4.9592585810772,119.81187218547
7309102007,730910,7309,73,"Cenrana Baru",90524,-4.9941533869951,119.85215951751
7309112001,730911,7309,73,Tompobulu,90565,-5.1366865647567,119.69876132006
7309112002,730911,7309,73,"Benteng Gajah",90565,-5.1591160237838,119.63573548227
7309112003,730911,7309,73,"Bonto Manai",90565,-5.1184596004992,119.7494212071
7309112004,730911,7309,73,"Bonto Somba",90565,-5.1284501818104,119.83071685506
7309112005,730911,7309,73,Toddolimae,90565,-5.0876270184091,119.67866420082
7309112006,730911,7309,73,Pucak,90565,-5.1411057366778,119.65264120412
7309112007,730911,7309,73,"Bonto Matinggi",90565,-5.153831074169,119.76169100138
7309112008,730911,7309,73,"Bonto Manurung",90565,-5.1673176379124,119.80624514903
7309121001,730912,7309,73,Allepolea,90514,-4.9832763498092,119.57439929476
7309121002,730912,7309,73,"Maccini Baji",90513,-4.9551433930573,119.58224876972
7309121003,730912,7309,73,Soreang,90513,-4.9745953364736,119.55933201791
7309121004,730912,7309,73,Mattirodeceng,90513,-4.9629760261397,119.59859196326
7309122005,730912,7309,73,Marannu,90513,-4.9588117654069,119.53036087643
7309122006,730912,7309,73,"Bonto Marrannu",90513,-4.9551147664038,119.56444447254
7309132001,730913,7309,73,Moncongloe,90564,-5.1447773276836,119.53426846414
7309132002,730913,7309,73,"Moncongloe Bulu",90564,-5.1563912233387,119.56523473538
7309132003,730913,7309,73,"Moncongloe Lappara",90564,-5.1577252795428,119.51938694789
7309132004,730913,7309,73,"Bonto Bunga",90564,-5.1397834377951,119.56333067768
7309132005,730913,7309,73,"Bonto Marannu",90564,-5.1262654220048,119.56206942128
7309141001,730914,7309,73,Pettuadae,90516,-5.0188493023953,119.57604558017
7309141002,730914,7309,73,"Boribellayya ",90512,-4.993637486715,119.59335757459
7309141003,730914,7309,73,"Alliritengae ",90511,-5.0072844932533,119.57084715901
7309141004,730914,7309,73,Turikale,90511,-5.001741126615,119.57771523004
7309141005,730914,7309,73,Taroada,90516,-5.036687128955,119.56406898762
7309141006,730914,7309,73,Raya,90511,-4.9998850808812,119.58649095717
7309141007,730914,7309,73,Adatongeng,90516,-5.0303608669652,119.56127116783
7310011001,731001,7310,73,Sapuka,90673,-7.1573609921234,118.12147501742
7310012002,731001,7310,73,Sabaru,90673,-6.5749503870979,118.83145302634
7310012003,731001,7310,73,"Balo Baloang",90673,-6.9075230380774,118.63431750057
7310012004,731001,7310,73,Sabalana,90673,-6.8440168497072,119.10497212638
7310012005,731001,7310,73,Tampaang,90673,-7.4136968146562,117.81102005903
7310012006,731001,7310,73,Sailus,90673,-7.498654020243,117.46026052574
7310012007,731001,7310,73,Satanger,90673,-7.5466722237875,117.3099815722
7310012008,731001,7310,73,"Kapoposang Bali",90673,-7.5007978895666,117.18328164136
7310012009,731001,7310,73,Poleonro,90673,-7.582785219742,117.44732573829
7310021001,731002,7310,73,"Kalu-Kalukuang ",90672,-5.1961609979666,117.66555570565
7310022002,731002,7310,73,Pammas,90672,-5.0339923947005,117.05667258172
7310022003,731002,7310,73,Sabaru,90672,-5.0901805670982,117.05477948082
7310022004,731002,7310,73,Kanyurang,90672,-5.2293401277025,117.89213403572
7310022005,731002,7310,73,"Doang Doangan Lompo",90672,-5.3819086666311,117.93703126776
7310022006,731002,7310,73,Marasende,90672,-5.1224192504775,118.15423964287
7310022007,731002,7310,73,Dewakang,90672,-5.4416590226315,118.45991153679
7310031001,731003,7310,73,"Mattiro Sompe",90671,-4.941302876622,119.39727662224
7310031016,731003,7310,73,"Mattiro Bintang",90671,-4.9424266907922,119.4189960658
7310032002,731003,7310,73,"Mattiro Deceng",90671,-4.968017503495,119.30216575924
7310032003,731003,7310,73,"Mattiro Langi",90671,-4.865044900523,119.25899336694
7310032009,731003,7310,73,"Mattiro Matae",90671,-4.7142919343087,119.0748886345
7310032010,731003,7310,73,"Mattiro Ujung",90671,-4.7045807846239,118.96455511677
7310032011,731003,7310,73,"Mattiro Dolangeng",90671,-4.8791674662309,119.34601508836
7310032013,731003,7310,73,"Mattiro Bone",90671,-4.9282244565942,119.32083832843
7310032015,731003,7310,73,"Mattaro Adae",90671,-4.9459804306142,119.3414149709
7310041001,731004,7310,73,Jagong,90611,-4.8408541607493,119.5355766671
7310041002,731004,7310,73,"Mappasaile ",90617,-4.8367399303607,119.53092733217
7310041003,731004,7310,73,Pabundukang,90616,-4.8241675837092,119.56080653542
7310041004,731004,7310,73,"Anrong Appaka",90612,-4.8564393599125,119.53284789189
7310041005,731004,7310,73,Sibatua,90613,-4.8772610048747,119.54437327561
7310041006,731004,7310,73,"Padoang Doangan",90617,-4.8374897729687,119.55651001751
7310041007,731004,7310,73,Tumampua,90611,-4.8414986810986,119.54737748204
7310041008,731004,7310,73,Tekolabbua,90617,-4.8544186709235,119.51537113472
7310041009,731004,7310,73,"Bonto Perak",90617,-4.8607930089169,119.55323501391
7310051001,731005,7310,73,"Balleangin ",90661,-4.924361764165,119.69640898476
7310051002,731005,7310,73,"Balocci Baru",90661,-4.8969900742406,119.69359924976
7310051003,731005,7310,73,"Kassi ",90661,-4.898834263452,119.63789785698
7310051004,731005,7310,73,"Tonasa ",90661,-4.8755922979703,119.64529775919
7310052005,731005,7310,73,"Tompo Bulu",90661,-4.9088983100189,119.76660948146
7310061001,731006,7310,73,"Bori Appaka ",90651,-4.8312782972156,119.51748071429
7310061002,731006,7310,73,Samalewa,90651,-4.8119799536383,119.54697777754
7310061003,731006,7310,73,Sapanang,90651,-4.8022523385456,119.57592229325
7310062004,731006,7310,73,"Bowong Cindea",90651,-4.8045116154155,119.52745090417
7310062005,731006,7310,73,Tabo-Tabo,90651,-4.7472518024841,119.66341133607
7310062006,731006,7310,73,Mangilu,90651,-4.7886224660081,119.64428116776
7310062007,731006,7310,73,"Bulu Cindea",90651,-4.808202850144,119.50749088354
7310062008,731006,7310,73,"Biring Ere",90651,-4.7871411704966,119.61715475393
7310071001,731007,7310,73,Labakkang,90653,-4.7721880099254,119.53858021017
7310071002,731007,7310,73,Mangallekana,90653,-4.7901702520767,119.54674401452
7310071003,731007,7310,73,"Pundata Baji",90653,-4.7732138871982,119.50568392513
7310071004,731007,7310,73,Borimasunggu,90653,-4.7874573093402,119.51312254814
7310072005,731007,7310,73,Patallassang,90653,-4.7733960771121,119.56344507266
7310072006,731007,7310,73,Manakku,90653,-4.7591244954843,119.52180287566
7310072007,731007,7310,73,Gentung,90653,-4.7494746733087,119.53628466046
7310072008,731007,7310,73,Batara,90653,-4.7803078622974,119.58022076514
7310072009,731007,7310,73,Taraweang,90653,-4.7712573064064,119.61340917153
7310072010,731007,7310,73,Kanaungan,90653,-4.7344381156913,119.54749671369
7310072011,731007,7310,73,"Bonto Manai",90653,-4.7460270737679,119.50142228747
7310072012,731007,7310,73,Kassiloe,90653,-4.7540806108362,119.56996934453
7310072013,731007,7310,73,"Bara Batu",90653,-4.7502898550521,119.60677153431
7310081001,731008,7310,73,"Bonto-Bonto ",90654,-4.6982782178767,119.55437914789
7310081002,731008,7310,73,Talaka,90654,-4.7123206664764,119.53599335741
7310081003,731008,7310,73,"Ma'rang ",90654,-4.6872075648523,119.57456969312
7310081004,731008,7310,73,"Attang Salo",90654,-4.717602057413,119.57625612398
7310082005,731008,7310,73,"Padang Lampe",90654,-4.7216857110734,119.61132860428
7310082006,731008,7310,73,Tamangapa,90654,-4.6605310737068,119.56097243703
7310082007,731008,7310,73,Pitusunggu,90654,-4.667368269786,119.5474385714
7310082008,731008,7310,73,Pitue,90654,-4.6820879863203,119.53805669648
7310082009,731008,7310,73,Punranga,90654,-4.6790830275231,119.59229591148
7310082010,731008,7310,73,Alesipitto,90654,-4.6995630041454,119.60995491428
7310091001,731009,7310,73,"Bonto Matene",90656,-4.6589086554172,119.58336668883
7310091002,731009,7310,73,Segeri,90656,-4.6423782098842,119.58584226564
7310091003,731009,7310,73,Bone,90656,-4.6305412295884,119.5901132737
7310091004,731009,7310,73,"Bawasalo ",90656,-4.6300879832453,119.56933319992
7310092005,731009,7310,73,Baring,90656,-4.6879713336883,119.63432660757
7310092006,731009,7310,73,Parenreng,90656,-4.6510307991393,119.6320751461
7310101001,731010,7310,73,"Minasa Te'ne ",90615,-4.8284554087349,119.57267778319
7310101002,731010,7310,73,Kalabbirang,90615,-4.8199021696106,119.61816367687
7310101003,731010,7310,73,Biraeng,90614,-4.8400389365473,119.61439291851
7310101004,731010,7310,73,"Bonto Kio",90614,-4.8513922385883,119.5785395709
7310101005,731010,7310,73,Bontoa,90615,-4.8053529486384,119.61409853961
7310101006,731010,7310,73,"Bonto Langkasa",90618,-4.8899643622591,119.57942874029
7310102007,731010,7310,73,Kabba,90619,-4.8692216103373,119.59115464194
7310102008,731010,7310,73,Panaikang,90619,-4.8674725626737,119.6144701985
7310112001,731011,7310,73,Benteng,90655,-4.6288629620073,119.61468697727
