[
    {
        "code": 7301011001,
        "district_code": 730101,
        "regency_code": 7301,
        "province_code": 73,
        "name": "Benteng Utara",
        "postal_code": "92812",
        "latitude": -6.105801996889004,
        "longitude": 120.4676426978156
    },
    {
        "code": 7301011002,
        "district_code": 730101,
        "regency_code": 7301,
        "province_code": 73,
        "name": "Benteng",
        "postal_code": "92812",
        "latitude": -6.118068458546919,
        "longitude": 120.46578463211335
    },
    {
        "code": 7301011003,
        "district_code": 730101,
        "regency_code": 7301,
        "province_code": 73,
        "name": "Benteng Selatan",
        "postal_code": "92812",
        "latitude": -6.125531630847331,
        "longitude": 120.46302334041513
    },
    {
        "code": 7301021001,
        "district_code": 730102,
        "regency_code": 7301,
        "province_code": 73,
        "name": "Putabangun ",
        "postal_code": "92811",
        "latitude": -6.121829078944195,
        "longitude": 120.50750348745785
    },
    {
        "code": 7301021002,
        "district_code": 730102,
        "regency_code": 7301,
        "province_code": 73,
        "name": "Bontobangun ",
        "postal_code": "92811",
        "latitude": -6.15029621513382,
        "longitude": 120.48938098079428
    },
    {
        "code": 7301022003,
        "district_code": 730102,
        "regency_code": 7301,
        "province_code": 73,
        "name": "Bontosunggu",
        "postal_code": "92811",
        "latitude": -6.180408113353952,
        "longitude": 120.44051079913737
    },
    {
        "code": 7301022004,
        "district_code": 730102,
        "regency_code": 7301,
        "province_code": 73,
        "name": "Bontoborusu",
        "postal_code": "92811",
        "latitude": -6.186573969891427,
        "longitude": 120.40849378254303
    },
    {
        "code": 7301022005,
        "district_code": 730102,
        "regency_code": 7301,
        "province_code": 73,
        "name": "Bontolebang",
        "postal_code": "92811",
        "latitude": -6.1201424726763225,
        "longitude": 120.41929425868445
    },
    {
        "code": 7301022006,
        "district_code": 730102,
        "regency_code": 7301,
        "province_code": 73,
        "name": "Bontotangnga",
        "postal_code": "92811",
        "latitude": -6.188765397028988,
        "longitude": 120.48230979266057
    },
    {
        "code": 7301022007,
        "district_code": 730102,
        "regency_code": 7301,
        "province_code": 73,
        "name": "Kahu-Kahu",
        "postal_code": "92811",
        "latitude": -6.151619538156894,
        "longitude": 120.41051393475043
    },
    {
        "code": 7301022008,
        "district_code": 730102,
        "regency_code": 7301,
        "province_code": 73,
        "name": "Kalepadang",
        "postal_code": "92811",
        "latitude": -6.164572121302357,
        "longitude": 120.48889130931346
    },
    {
        "code": 7301031001,
        "district_code": 730103,
        "regency_code": 7301,
        "province_code": 73,
        "name": "Batangmata",
        "postal_code": "92854",
        "latitude": -5.926698031634234,
        "longitude": 120.44954160689288
    },
    {
        "code": 7301031002,
        "district_code": 730103,
        "regency_code": 7301,
        "province_code": 73,
        "name": "Batangmata Sapo",
        "postal_code": "92854",
        "latitude": -5.9288918733018905,
        "longitude": 120.50570443704245
    },
    {
        "code": 7301032003,
        "district_code": 730103,
        "regency_code": 7301,
        "province_code": 73,
        "name": "Pamatata",
        "postal_code": "92854",
        "latitude": -5.836791307161679,
        "longitude": 120.50585061969542
    },
    {
        "code": 7301032004,
        "district_code": 730103,
        "regency_code": 7301,
        "province_code": 73,
        "name": "Tanete",
        "postal_code": "92854",
        "latitude": -5.857947497977819,
        "longitude": 120.50736449656964
    },
    {
        "code": 7301032005,
        "district_code": 730103,
        "regency_code": 7301,
        "province_code": 73,
        "name": "Bungaiya",
        "postal_code": "92854",
        "latitude": -5.828768820327882,
        "longitude": 120.47678262188036
    },
    {
        "code": 7301032006,
        "district_code": 730103,
        "regency_code": 7301,
        "province_code": 73,
        "name": "Kayu Bauk",
        "postal_code": "92854",
        "latitude": -5.877229075993736,
        "longitude": 120.50890757352134
    },
    {
        "code": 7301032007,
        "district_code": 730103,
        "regency_code": 7301,
        "province_code": 73,
        "name": "Barat Lambongan",
        "postal_code": "92854",
        "latitude": -5.902398802903609,
        "longitude": 120.46630986191364
    },
    {
        "code": 7301032008,
        "district_code": 730103,
        "regency_code": 7301,
        "province_code": 73,
        "name": "Bontona Saluk",
        "postal_code": "92854",
        "latitude": -5.904441403589267,
        "longitude": 120.51101727789397
    },
    {
        "code": 7301032009,
        "district_code": 730103,
        "regency_code": 7301,
        "province_code": 73,
        "name": "Onto",
        "postal_code": "92854",
        "latitude": -5.947657384387045,
        "longitude": 120.5014363432491
    },
    {
        "code": 7301032010,
        "district_code": 730103,
        "regency_code": 7301,
        "province_code": 73,
        "name": "Maharayya",
        "postal_code": "92854",
        "latitude": -5.948461198070987,
        "longitude": 120.46368091297495
    },
    {
        "code": 7301032011,
        "district_code": 730103,
        "regency_code": 7301,
        "province_code": 73,
        "name": "Menara Indah",
        "postal_code": "92854",
        "latitude": -5.746807945204226,
        "longitude": 120.48290650879045
    },
    {
        "code": 7301032015,
        "district_code": 730103,
        "regency_code": 7301,
        "province_code": 73,
        "name": "Tamalanrea",
        "postal_code": "92854",
        "latitude": -5.9263051627286165,
        "longitude": 120.46781477845377
    },
    {
        "code": 7301042001,
        "district_code": 730104,
        "regency_code": 7301,
        "province_code": 73,
        "name": "Parak",
        "postal_code": "92851",
        "latitude": -6.075276796333001,
        "longitude": 120.47346441195839
    },
    {
        "code": 7301042002,
        "district_code": 730104,
        "regency_code": 7301,
        "province_code": 73,
        "name": "Barugaiya",
        "postal_code": "92851",
        "latitude": -6.029564593445278,
        "longitude": 120.45911303261333
    },
    {
        "code": 7301042003,
        "district_code": 730104,
        "regency_code": 7301,
        "province_code": 73,
        "name": "Jambuiya",
        "postal_code": "92851",
        "latitude": -6.062054093496927,
        "longitude": 120.4935122474915
    },
    {
        "code": 7301042004,
        "district_code": 730104,
        "regency_code": 7301,
        "province_code": 73,
        "name": "Mare-Mare",
        "postal_code": "92851",
        "latitude": -6.0444907533231635,
        "longitude": 120.48801984095168
    },
    {
        "code": 7301042005,
        "district_code": 730104,
        "regency_code": 7301,
        "province_code": 73,
        "name": "Polebunging",
        "postal_code": "92851",
        "latitude": -6.022979372631394,
        "longitude": 120.4878464478877
    },
    {
        "code": 7301042006,
        "district_code": 730104,
        "regency_code": 7301,
        "province_code": 73,
        "name": "Bonea Makmur",
        "postal_code": "92851",
        "latitude": -6.012077025260102,
        "longitude": 120.53925281719847
    },
    {
        "code": 7301042008,
        "district_code": 730104,
        "regency_code": 7301,
        "province_code": 73,
        "name": "Bontomarannu",
        "postal_code": "92851",
        "latitude": -6.079023930631426,
        "longitude": 120.52937308645966
    },
    {
        "code": 7301042010,
        "district_code": 730104,
        "regency_code": 7301,
        "province_code": 73,
        "name": "Bonea Timur",
        "postal_code": "92851",
        "latitude": -6.047370258634104,
        "longitude": 120.53863834876866
    },
    {
        "code": 7301042011,
        "district_code": 730104,
        "regency_code": 7301,
        "province_code": 73,
        "name": "Bontokoraang",
        "postal_code": "92851",
        "latitude": -6.103675827207927,
        "longitude": 120.53494632133686
    },
    {
        "code": 7301042012,
        "district_code": 730104,
        "regency_code": 7301,
        "province_code": 73,
        "name": "Kaburu",
        "postal_code": "92851",
        "latitude": -6.073701432056091,
        "longitude": 120.48778292083283
    },
    {
        "code": 7301052001,
        "district_code": 730105,
        "regency_code": 7301,
        "province_code": 73,
        "name": "Harapan",
        "postal_code": "92855",
        "latitude": -6.2487891105847595,
        "longitude": 120.48776415249893
    },
    {
        "code": 7301052002,
        "district_code": 730105,
        "regency_code": 7301,
        "province_code": 73,
        "name": "Patikarya",
        "postal_code": "92855",
        "latitude": -6.226837486610364,
        "longitude": 120.46901414245207
    },
    {
        "code": 7301052003,
        "district_code": 730105,
        "regency_code": 7301,
        "province_code": 73,
        "name": "Patilereng",
        "postal_code": "92855",
        "latitude": -6.211239112776319,
        "longitude": 120.49872652165692
    },
    {
        "code": 7301052004,
        "district_code": 730105,
        "regency_code": 7301,
        "province_code": 73,
        "name": "Laiyolo Baru",
        "postal_code": "92855",
        "latitude": -6.269965530648858,
        "longitude": 120.50507387330171
    },
    {
        "code": 7301052005,
        "district_code": 730105,
        "regency_code": 7301,
        "province_code": 73,
        "name": "Laiyolo",
        "postal_code": "92855",
        "latitude": -6.301665576552577,
        "longitude": 120.50922500952782
    },
    {
        "code": 7301052006,
        "district_code": 730105,
        "regency_code": 7301,
        "province_code": 73,
        "name": "Lantibongan",
        "postal_code": "92855",
        "latitude": -6.367215375823055,
        "longitude": 120.49341657905157
    },
    {
        "code": 7301052007,
        "district_code": 730105,
        "regency_code": 7301,
        "province_code": 73,
        "name": "Binanga Sombaiya",
        "postal_code": "92855",
        "latitude": -6.336764198737335,
        "longitude": 120.49860958305224
    },
    {
        "code": 7301052008,
        "district_code": 730105,
        "regency_code": 7301,
        "province_code": 73,
        "name": "Lowa",
        "postal_code": "92855",
        "latitude": -6.4143056485587255,
        "longitude": 120.48344718680195
    },
    {
        "code": 7301052009,
        "district_code": 730105,
        "regency_code": 7301,
        "province_code": 73,
        "name": "Appatanah",
        "postal_code": "92855",
        "latitude": -6.468755989341876,
        "longitude": 120.48572183178938
    },
    {
        "code": 7301052010,
        "district_code": 730105,
        "regency_code": 7301,
        "province_code": 73,
        "name": "Tambolongan",
        "postal_code": "92855",
        "latitude": -6.612867307399143,
        "longitude": 120.43324823069032
    },
    {
        "code": 7301052011,
        "district_code": 730105,
        "regency_code": 7301,
        "province_code": 73,
        "name": "Polassi",
        "postal_code": "92855",
        "latitude": -6.6804154908959035,
        "longitude": 120.43189895543867
    },
    {
        "code": 7301052012,
        "district_code": 730105,
        "regency_code": 7301,
        "province_code": 73,
        "name": "Khusus Bahuluang",
        "postal_code": "92855",
        "latitude": -6.480092832959887,
        "longitude": 120.42712010990986
    },
    {
        "code": 7301062001,
        "district_code": 730106,
        "regency_code": 7301,
        "province_code": 73,
        "name": "Kembang Ragi",
        "postal_code": "92861",
        "latitude": -7.067081482975103,
        "longitude": 120.63443268808724
    },
    {
        "code": 7301062003,
        "district_code": 730106,
        "regency_code": 7301,
        "province_code": 73,
        "name": "Ma'minasa",
        "postal_code": "92861",
        "latitude": -7.1146170869061685,
        "longitude": 120.70561277858279
    },
    {
        "code": 7301062005,
        "district_code": 730106,
        "regency_code": 7301,
        "province_code": 73,
        "name": "Tanamalala",
        "postal_code": "92861",
        "latitude": -7.075926250011463,
        "longitude": 120.57407367153087
    },
    {
        "code": 7301062006,
        "district_code": 730106,
        "regency_code": 7301,
        "province_code": 73,
        "name": "Labuang Pamajang",
        "postal_code": "92861",
        "latitude": -7.092926949461183,
        "longitude": 120.6519140874109
    },
    {
        "code": 7301062007,
        "district_code": 730106,
        "regency_code": 7301,
        "province_code": 73,
        "name": "Massungke",
        "postal_code": "92861",
        "latitude": -7.02767379572824,
        "longitude": 120.63520408262863
    },
    {
        "code": 7301062009,
        "district_code": 730106,
        "regency_code": 7301,
        "province_code": 73,
        "name": "Bontosaile",
        "postal_code": "92811",
        "latitude": -7.04970498289269,
        "longitude": 120.67134656411288
    },
    {
        "code": 7301062011,
        "district_code": 730106,
        "regency_code": 7301,
        "province_code": 73,
        "name": "Teluk Kampe",
        "postal_code": "92861",
        "latitude": -7.115654503145126,
        "longitude": 120.67019575836234
    },
    {
        "code": 7301072001,
        "district_code": 730107,
        "regency_code": 7301,
        "province_code": 73,
        "name": "Bonerate",
        "postal_code": "92862",
        "latitude": -7.355565185477581,
        "longitude": 121.09012095294874
    },
    {
        "code": 7301072002,
        "district_code": 730107,
        "regency_code": 7301,
        "province_code": 73,
        "name": "Majapahit",
        "postal_code": "92862",
        "latitude": -7.376458767465182,
        "longitude": 121.08554045492224
    },
    {
        "code": 7301072003,
        "district_code": 730107,
        "regency_code": 7301,
        "province_code": 73,
        "name": "Batu Bingkung",
        "postal_code": "92862",
        "latitude": -7.356797039002366,
        "longitude": 121.11541793540776
    },
    {
        "code": 7301072004,
        "district_code": 730107,
        "regency_code": 7301,
        "province_code": 73,
        "name": "Bonea",
        "postal_code": "92862",
        "latitude": -7.370245537510674,
        "longitude": 121.14176636213806
    },
    {
        "code": 7301072005,
        "district_code": 730107,
        "regency_code": 7301,
        "province_code": 73,
        "name": "Lambego",
        "postal_code": "92862",
        "latitude": -7.304903593115118,
        "longitude": 120.98951544651005
    },
    {
        "code": 7301072006,
        "district_code": 730107,
        "regency_code": 7301,
        "province_code": 73,
        "name": "Komba-Komba",
        "postal_code": "92862",
        "latitude": -7.284143228359546,
        "longitude": 120.85937134011388
    },
    {
        "code": 7301072007,
        "district_code": 730107,
        "regency_code": 7301,
        "province_code": 73,
        "name": "Sambali",
        "postal_code": "92862",
        "latitude": -7.352973924355114,
        "longitude": 121.14864109269345
    },
    {
        "code": 7301072008,
        "district_code": 730107,
        "regency_code": 7301,
        "province_code": 73,
        "name": "Lamantu",
        "postal_code": "92862",
        "latitude": -7.327997226583588,
        "longitude": 121.09215994239293
    },
    {
        "code": 7301082001,
        "district_code": 730108,
        "regency_code": 7301,
        "province_code": 73,
        "name": "Kayuadi",
        "postal_code": "92860",
        "latitude": -6.853456470662447,
        "longitude": 120.79968911487366
    },
    {
        "code": 7301082002,
        "district_code": 730108,
        "regency_code": 7301,
        "province_code": 73,
        "name": "Batang",
        "postal_code": "92860",
        "latitude": -6.818189582471185,
        "longitude": 120.7974378828
    },
    {
        "code": 7301082003,
        "district_code": 730108,
        "regency_code": 7301,
        "province_code": 73,
        "name": "Nyiur Indah",
        "postal_code": "92860",
        "latitude": -6.795314377742094,
        "longitude": 120.7936266907861
    },
    {
        "code": 7301082004,
        "district_code": 730108,
        "regency_code": 7301,
        "province_code": 73,
        "name": "Tambuna",
        "postal_code": "92860",
        "latitude": -7.035175479270791,
        "longitude": 121.07959307951037
    },
    {
        "code": 7301082005,
        "district_code": 730108,
        "regency_code": 7301,
        "province_code": 73,
        "name": "Jinato",
        "postal_code": "92860",
        "latitude": -6.862284429755349,
        "longitude": 121.20606140562877
    },
    {
        "code": 7301082006,
        "district_code": 730108,
        "regency_code": 7301,
        "province_code": 73,
        "name": "Rajuni",
        "postal_code": "92860",
        "latitude": -6.555168213606487,
        "longitude": 121.03166632411842
    },
    {
        "code": 7301082007,
        "district_code": 730108,
        "regency_code": 7301,
        "province_code": 73,
        "name": "Latondu",
        "postal_code": "92860",
        "latitude": -6.502506779321046,
        "longitude": 120.98696407997174
    },
    {
        "code": 7301082008,
        "district_code": 730108,
        "regency_code": 7301,
        "province_code": 73,
        "name": "Tarupa",
        "postal_code": "92860",
        "latitude": -6.460588369041668,
        "longitude": 121.12148162934226
    },
    {
        "code": 7301082009,
        "district_code": 730108,
        "regency_code": 7301,
        "province_code": 73,
        "name": "Khusus Pasitallu",
        "postal_code": "92860",
        "latitude": -7.073684318303554,
        "longitude": 121.1212737096759
    },
    {
        "code": 7301092001,
        "district_code": 730109,
        "regency_code": 7301,
        "province_code": 73,
        "name": "Kalaotoa",
        "postal_code": "92863",
        "latitude": -7.3870433678898495,
        "longitude": 121.79414838559858
    },
    {
        "code": 7301092002,
        "district_code": 730109,
        "regency_code": 7301,
        "province_code": 73,
        "name": "Garaupa",
        "postal_code": "92863",
        "latitude": -7.3585670527841085,
        "longitude": 121.78080682636109
    },
    {
        "code": 7301092003,
        "district_code": 730109,
        "regency_code": 7301,
        "province_code": 73,
        "name": "Lembang Matene",
        "postal_code": "92863",
        "latitude": -7.370396024536211,
        "longitude": 121.82708419700319
    },
    {
        "code": 7301092004,
        "district_code": 730109,
        "regency_code": 7301,
        "province_code": 73,
        "name": "Pulo Madu",
        "postal_code": "92863",
        "latitude": -7.4852934439776035,
        "longitude": 121.76957449534157
    },
    {
        "code": 7301092005,
        "district_code": 730109,
        "regency_code": 7301,
        "province_code": 73,
        "name": "Karumpa",
        "postal_code": "92863",
        "latitude": -7.259498348533285,
        "longitude": 121.76700249395884
    },
    {
        "code": 7301092006,
        "district_code": 730109,
        "regency_code": 7301,
        "province_code": 73,
        "name": "Garaupa Raya",
        "postal_code": "92863",
        "latitude": -7.4056149075802375,
        "longitude": 121.76311369462806
    },
    {
        "code": 7301102001,
        "district_code": 730110,
        "regency_code": 7301,
        "province_code": 73,
        "name": "Bontobulaeng",
        "postal_code": "92861",
        "latitude": -7.072841901519809,
        "longitude": 120.77271300991751
    },
    {
        "code": 7301102002,
        "district_code": 730110,
        "regency_code": 7301,
        "province_code": 73,
        "name": "Bontobaru",
        "postal_code": "92861",
        "latitude": -7.077311514644336,
        "longitude": 120.7079342645614
    },
    {
        "code": 7301102003,
        "district_code": 730110,
        "regency_code": 7301,
        "province_code": 73,
        "name": "Bontomalling",
        "postal_code": "92861",
        "latitude": -7.1181867785760184,
        "longitude": 120.75736899122101
    },
    {
        "code": 7301102004,
        "district_code": 730110,
        "regency_code": 7301,
        "province_code": 73,
        "name": "Lembang Baji",
        "postal_code": "92861",
        "latitude": -7.115791241666869,
        "longitude": 120.73033330015006
    },
    {
        "code": 7301102005,
        "district_code": 730110,
        "regency_code": 7301,
        "province_code": 73,
        "name": "Bontojati",
        "postal_code": "92861",
        "latitude": -7.0887758188541765,
        "longitude": 120.73336394634455
    },
    {
        "code": 7301102006,
        "district_code": 730110,
        "regency_code": 7301,
        "province_code": 73,
        "name": "Ujung",
        "postal_code": "92861",
        "latitude": -7.092309616661526,
        "longitude": 120.7633847199942
    },
    {
        "code": 7301112001,
        "district_code": 730111,
        "regency_code": 7301,
        "province_code": 73,
        "name": "Buki",
        "postal_code": "92854",
        "latitude": -5.969194069571395,
        "longitude": 120.46519259082254
    },
    {
        "code": 7301112002,
        "district_code": 730111,
        "regency_code": 7301,
        "province_code": 73,
        "name": "Lalang Bata",
        "postal_code": "92854",
        "latitude": -5.9728262516012665,
        "longitude": 120.49245466243858
    },
    {
        "code": 7301112003,
        "district_code": 730111,
        "regency_code": 7301,
        "province_code": 73,
        "name": "Balang Butung",
        "postal_code": "92854",
        "latitude": -5.95123951900058,
        "longitude": 120.53287872523751
    },
    {
        "code": 7301112004,
        "district_code": 730111,
        "regency_code": 7301,
        "province_code": 73,
        "name": "Kohala",
        "postal_code": "92851",
        "latitude": -6.00508383263277,
        "longitude": 120.4975426849609
    },
    {
        "code": 7301112005,
        "district_code": 730111,
        "regency_code": 7301,
        "province_code": 73,
        "name": "Bontolempangan",
        "postal_code": "92851",
        "latitude": -5.994198399952182,
        "longitude": 120.47768543022158
    },
    {
        "code": 7301112006,
        "district_code": 730111,
        "regency_code": 7301,
        "province_code": 73,
        "name": "Mekar Indah",
        "postal_code": "92854",
        "latitude": -5.991085491950266,
        "longitude": 120.45521653168717
    },
    {
        "code": 7301112007,
        "district_code": 730111,
        "regency_code": 7301,
        "province_code": 73,
        "name": "Buki Timur",
        "postal_code": "92854",
        "latitude": -5.980152088505819,
        "longitude": 120.52609542555888
    },
    {
        "code": 7302011001,
        "district_code": 730201,
        "regency_code": 7302,
        "province_code": 73,
        "name": "Matekko",
        "postal_code": "92561",
        "latitude": -5.557588842389509,
        "longitude": 120.16377880112302
    },
    {
        "code": 7302011002,
        "district_code": 730201,
        "regency_code": 7302,
        "province_code": 73,
        "name": "Jalanjang",
        "postal_code": "92561",
        "latitude": -5.565090000245833,
        "longitude": 120.13883191207832
    },
    {
        "code": 7302011003,
        "district_code": 730201,
        "regency_code": 7302,
        "province_code": 73,
        "name": "Mario Rennu",
        "postal_code": "92561",
        "latitude": -5.565052564507815,
        "longitude": 120.11170115723606
    },
    {
        "code": 7302012004,
        "district_code": 730201,
        "regency_code": 7302,
        "province_code": 73,
        "name": "Bialo",
        "postal_code": "92561",
        "latitude": -5.531340583901069,
        "longitude": 120.15820165960511
    },
    {
        "code": 7302012005,
        "district_code": 730201,
        "regency_code": 7302,
        "province_code": 73,
        "name": "Bontomacinna",
        "postal_code": "92561",
        "latitude": -5.5388543698305375,
        "longitude": 120.13803010513399
    },
    {
        "code": 7302012006,
        "district_code": 730201,
        "regency_code": 7302,
        "province_code": 73,
        "name": "Gattareng",
        "postal_code": "92561",
        "latitude": -5.465784600754486,
        "longitude": 120.07998110919881
    },
    {
        "code": 7302012007,
        "district_code": 730201,
        "regency_code": 7302,
        "province_code": 73,
        "name": "Dampang",
        "postal_code": "92561",
        "latitude": -5.486983940878074,
        "longitude": 120.133890890006
    },
    {
        "code": 7302012008,
        "district_code": 730201,
        "regency_code": 7302,
        "province_code": 73,
        "name": "Bontosunggu",
        "postal_code": "92561",
        "latitude": -5.51729067655256,
        "longitude": 120.16465604588063
    },
    {
        "code": 7302012009,
        "district_code": 730201,
        "regency_code": 7302,
        "province_code": 73,
        "name": "Palambarae",
        "postal_code": "92561",
        "latitude": -5.503273353867768,
        "longitude": 120.20312505334067
    },
    {
        "code": 7302012010,
        "district_code": 730201,
        "regency_code": 7302,
        "province_code": 73,
        "name": "Bontonyeleng",
        "postal_code": "92561",
        "latitude": -5.482078698231012,
        "longitude": 120.17696316739129
    },
    {
        "code": 7302012011,
        "district_code": 730201,
        "regency_code": 7302,
        "province_code": 73,
        "name": "Benteng Malewang",
        "postal_code": "92561",
        "latitude": -5.436819712981677,
        "longitude": 120.05813200113597
    },
    {
        "code": 7302012012,
        "district_code": 730201,
        "regency_code": 7302,
        "province_code": 73,
        "name": "Padang",
        "postal_code": "92561",
        "latitude": -5.504306520417682,
        "longitude": 120.11969002821742
    },
    {
        "code": 7302012013,
        "district_code": 730201,
        "regency_code": 7302,
        "province_code": 73,
        "name": "Bontoraja",
        "postal_code": "92561",
        "latitude": -5.497721881327171,
        "longitude": 120.10296287397651
    },
    {
        "code": 7302012014,
        "district_code": 730201,
        "regency_code": 7302,
        "province_code": 73,
        "name": "Paenre Lompoe",
        "postal_code": "92561",
        "latitude": -5.537781081372498,
        "longitude": 120.17787266628542
    },
    {
        "code": 7302012015,
        "district_code": 730201,
        "regency_code": 7302,
        "province_code": 73,
        "name": "Benteng Gattareng",
        "postal_code": "92561",
        "latitude": -5.462651913418095,
        "longitude": 120.10028451857657
    },
    {
        "code": 7302012016,
        "district_code": 730201,
        "regency_code": 7302,
        "province_code": 73,
        "name": "Bukit Harapan",
        "postal_code": "92561",
        "latitude": -5.460129426172311,
        "longitude": 120.15590560653898
    },
    {
        "code": 7302012017,
        "district_code": 730201,
        "regency_code": 7302,
        "province_code": 73,
        "name": "Polewali",
        "postal_code": "92561",
        "latitude": -5.519790720030019,
        "longitude": 120.18957581513378
    },
    {
        "code": 7302012018,
        "district_code": 730201,
        "regency_code": 7302,
        "province_code": 73,
        "name": "Bontomasila",
        "postal_code": "92561",
        "latitude": -5.531565641370507,
        "longitude": 120.11420210041932
    },
    {
        "code": 7302012019,
        "district_code": 730201,
        "regency_code": 7302,
        "province_code": 73,
        "name": "Barombong",
        "postal_code": "92561",
        "latitude": -5.511897389525764,
        "longitude": 120.14033085409172
    },
    {
        "code": 7302012020,
        "district_code": 730201,
        "regency_code": 7302,
        "province_code": 73,
        "name": "Bukit Tinggi",
        "postal_code": "92561",
        "latitude": -5.501332677292309,
        "longitude": 120.1652243063161
    },
    {
        "code": 7302012021,
        "district_code": 730201,
        "regency_code": 7302,
        "province_code": 73,
        "name": "Taccorong",
        "postal_code": "92561",
        "latitude": -5.5260347136744095,
        "longitude": 120.21069707336123
    },
    {
        "code": 7302021001,
        "district_code": 730202,
        "regency_code": 7302,
        "province_code": 73,
        "name": "Tanah Kongkong",
        "postal_code": "92513",
        "latitude": -5.554444454928959,
        "longitude": 120.1815654759925
    },
    {
        "code": 7302021002,
        "district_code": 730202,
        "regency_code": 7302,
        "province_code": 73,
        "name": "Bentengnge",
        "postal_code": "92511",
        "latitude": -5.560398354655576,
        "longitude": 120.19332680798348
    },
    {
        "code": 7302021003,
        "district_code": 730202,
        "regency_code": 7302,
        "province_code": 73,
        "name": "Terang Terang",
        "postal_code": "92511",
        "latitude": -5.554396171754747,
        "longitude": 120.1980326632587
    },
    {
        "code": 7302021004,
        "district_code": 730202,
        "regency_code": 7302,
        "province_code": 73,
        "name": "Kalumeme",
        "postal_code": "92518",
        "latitude": -5.534528170894256,
        "longitude": 120.22839897214061
    },
    {
        "code": 7302021005,
        "district_code": 730202,
        "regency_code": 7302,
        "province_code": 73,
        "name": "Bintarore",
        "postal_code": "92514",
        "latitude": -5.561379369265904,
        "longitude": 120.18060531238339
    },
    {
        "code": 7302021006,
        "district_code": 730202,
        "regency_code": 7302,
        "province_code": 73,
        "name": "Kasimpureng",
        "postal_code": "92511",
        "latitude": -5.561512096586177,
        "longitude": 120.18823388643723
    },
    {
        "code": 7302021007,
        "district_code": 730202,
        "regency_code": 7302,
        "province_code": 73,
        "name": "Caile",
        "postal_code": "92517",
        "latitude": -5.542422355180776,
        "longitude": 120.19761018533521
    },
    {
        "code": 7302021008,
        "district_code": 730202,
        "regency_code": 7302,
        "province_code": 73,
        "name": "Loka",
        "postal_code": "92511",
        "latitude": -5.5526123566447625,
        "longitude": 120.18885816502407
    },
    {
        "code": 7302021009,
        "district_code": 730202,
        "regency_code": 7302,
        "province_code": 73,
        "name": "Ela Ela",
        "postal_code": "92511",
        "latitude": -5.546577074402849,
        "longitude": 120.2084976680221
    },
    {
        "code": 7302031001,
        "district_code": 730203,
        "regency_code": 7302,
        "province_code": 73,
        "name": "Tanahl Lemo",
        "postal_code": "92571",
        "latitude": -5.550965962146413,
        "longitude": 120.38573866129423
    },
    {
        "code": 7302031002,
        "district_code": 730203,
        "regency_code": 7302,
        "province_code": 73,
        "name": "Sapo Lohe",
        "postal_code": "92571",
        "latitude": -5.509773509919086,
        "longitude": 120.34361188933846
    },
    {
        "code": 7302031003,
        "district_code": 730203,
        "regency_code": 7302,
        "province_code": 73,
        "name": "Benjala",
        "postal_code": "92571",
        "latitude": -5.492711584333719,
        "longitude": 120.35630453099337
    },
    {
        "code": 7302031004,
        "district_code": 730203,
        "regency_code": 7302,
        "province_code": 73,
        "name": "Tanah Beru",
        "postal_code": "92571",
        "latitude": -5.517158779082443,
        "longitude": 120.38185479551248
    },
    {
        "code": 7302032005,
        "district_code": 730203,
        "regency_code": 7302,
        "province_code": 73,
        "name": "Bira",
        "postal_code": "92571",
        "latitude": -5.60295034820314,
        "longitude": 120.43421041237197
    },
    {
        "code": 7302032006,
        "district_code": 730203,
        "regency_code": 7302,
        "province_code": 73,
        "name": "Ara",
        "postal_code": "92571",
        "latitude": -5.534729774085898,
        "longitude": 120.42158058167668
    },
    {
        "code": 7302032007,
        "district_code": 730203,
        "regency_code": 7302,
        "province_code": 73,
        "name": "Darubiah",
        "postal_code": "92571",
        "latitude": -5.5671278438876,
        "longitude": 120.42708360507518
    },
    {
        "code": 7302032008,
        "district_code": 730203,
        "regency_code": 7302,
        "province_code": 73,
        "name": "Lembanna",
        "postal_code": "92571",
        "latitude": -5.51115335841783,
        "longitude": 120.4281126889571
    },
    {
        "code": 7302041001,
        "district_code": 730204,
        "regency_code": 7302,
        "province_code": 73,
        "name": "Eka Tiro",
        "postal_code": "92572",
        "latitude": -5.475901369608701,
        "longitude": 120.4331800984953
    },
    {
        "code": 7302042002,
        "district_code": 730204,
        "regency_code": 7302,
        "province_code": 73,
        "name": "Dwitiro",
        "postal_code": "92572",
        "latitude": -5.44957568607608,
        "longitude": 120.40963644656455
    },
    {
        "code": 7302042003,
        "district_code": 730204,
        "regency_code": 7302,
        "province_code": 73,
        "name": "Tritiro",
        "postal_code": "92572",
        "latitude": -5.496635211893386,
        "longitude": 120.42859762869898
    },
    {
        "code": 7302042004,
        "district_code": 730204,
        "regency_code": 7302,
        "province_code": 73,
        "name": "Batang",
        "postal_code": "92572",
        "latitude": -5.460267623146451,
        "longitude": 120.38509523758427
    },
    {
        "code": 7302042005,
        "district_code": 730204,
        "regency_code": 7302,
        "province_code": 73,
        "name": "Bontotangnga",
        "postal_code": "92572",
        "latitude": -5.451863043858162,
        "longitude": 120.36351308291084
    },
    {
        "code": 7302042006,
        "district_code": 730204,
        "regency_code": 7302,
        "province_code": 73,
        "name": "Caramming",
        "postal_code": "92572",
        "latitude": -5.495431105169795,
        "longitude": 120.39185989475563
    },
    {
        "code": 7302042007,
        "district_code": 730204,
        "regency_code": 7302,
        "province_code": 73,
        "name": "Tamalanrea",
        "postal_code": "92572",
        "latitude": -5.477267037253844,
        "longitude": 120.37683743215125
    },
    {
        "code": 7302042008,
        "district_code": 730204,
        "regency_code": 7302,
        "province_code": 73,
        "name": "Bontobarua",
        "postal_code": "92572",
        "latitude": -5.448161154055465,
        "longitude": 120.34568745700547
    },
    {
        "code": 7302042009,
        "district_code": 730204,
        "regency_code": 7302,
        "province_code": 73,
        "name": "Pakubalaho",
        "postal_code": "92572",
        "latitude": -5.485914099028471,
        "longitude": 120.41499546898059
    },
    {
        "code": 7302042010,
        "district_code": 730204,
        "regency_code": 7302,
        "province_code": 73,
        "name": "Bontomarannu",
        "postal_code": "92572",
        "latitude": -5.46488748948889,
        "longitude": 120.34500478355451
    },
    {
        "code": 7302042011,
        "district_code": 730204,
        "regency_code": 7302,
        "province_code": 73,
        "name": "Bontobulaeng",
        "postal_code": "92572",
        "latitude": -5.442019158672241,
        "longitude": 120.38384242199933
    },
    {
        "code": 7302042012,
        "district_code": 730204,
        "regency_code": 7302,
        "province_code": 73,
        "name": "Buhung Bundang",
        "postal_code": "92572",
        "latitude": -5.4708187414486265,
        "longitude": 120.40825613590411
    },
    {
        "code": 7302042013,
        "district_code": 730204,
        "regency_code": 7302,
        "province_code": 73,
        "name": "Lamanda",
        "postal_code": "92572",
        "latitude": -5.4834111263355005,
        "longitude": 120.39638767995481
    },
    {
        "code": 7302051001,
        "district_code": 730205,
        "regency_code": 7302,
        "province_code": 73,
        "name": "Tanuntung",
        "postal_code": "92573",
        "latitude": -5.408681404205234,
        "longitude": 120.40173237056605
    },
    {
        "code": 7302051002,
        "district_code": 730205,
        "regency_code": 7302,
        "province_code": 73,
        "name": "Bonto Kamase",
        "postal_code": "92573",
        "latitude": -5.433616326975028,
        "longitude": 120.41943106162024
    },
    {
        "code": 7302052003,
        "district_code": 730205,
        "regency_code": 7302,
        "province_code": 73,
        "name": "Karassing",
        "postal_code": "92573",
        "latitude": -5.425747814942978,
        "longitude": 120.33820847848136
    },
    {
        "code": 7302052004,
        "district_code": 730205,
        "regency_code": 7302,
        "province_code": 73,
        "name": "Singa",
        "postal_code": "92573",
        "latitude": -5.397761307450843,
        "longitude": 120.36932689180982
    },
    {
        "code": 7302052005,
        "district_code": 730205,
        "regency_code": 7302,
        "province_code": 73,
        "name": "Gunturu",
        "postal_code": "92573",
        "latitude": -5.376064480098619,
        "longitude": 120.39194606991718
    },
    {
        "code": 7302052006,
        "district_code": 730205,
        "regency_code": 7302,
        "province_code": 73,
        "name": "Borong",
        "postal_code": "92573",
        "latitude": -5.423190639814932,
        "longitude": 120.37572863458134
    },
    {
        "code": 7302052007,
        "district_code": 730205,
        "regency_code": 7302,
        "province_code": 73,
        "name": "Tugondeng",
        "postal_code": "92573",
        "latitude": -5.397317221396435,
        "longitude": 120.328070452659
    },
    {
        "code": 7302052008,
        "district_code": 730205,
        "regency_code": 7302,
        "province_code": 73,
        "name": "Pataro",
        "postal_code": "92573",
        "latitude": -5.3779561059892,
        "longitude": 120.36372278089033
    },
    {
        "code": 7302061001,
        "district_code": 730206,
        "regency_code": 7302,
        "province_code": 73,
        "name": "Tanah Jaya",
        "postal_code": "92574",
        "latitude": -5.340831357207064,
        "longitude": 120.3659753558513
    },
    {
        "code": 7302061002,
        "district_code": 730206,
        "regency_code": 7302,
        "province_code": 73,
        "name": "Laikang",
        "postal_code": "92574",
        "latitude": -5.349638163220691,
        "longitude": 120.3875657267219
    },
    {
        "code": 7302062003,
        "district_code": 730206,
        "regency_code": 7302,
        "province_code": 73,
        "name": "Tambangan",
        "postal_code": "92574",
        "latitude": -5.347102862645717,
        "longitude": 120.30897697075176
    },
    {
        "code": 7302062004,
        "district_code": 730206,
        "regency_code": 7302,
        "province_code": 73,
        "name": "Lembanna",
        "postal_code": "92574",
        "latitude": -5.348308203591717,
        "longitude": 120.3273982583955
    },
    {
        "code": 7302062005,
        "district_code": 730206,
        "regency_code": 7302,
        "province_code": 73,
        "name": "Possi Tanah",
        "postal_code": "92574",
        "latitude": -5.323398836259862,
        "longitude": 120.34265010358831
    },
    {
        "code": 7302062006,
        "district_code": 730206,
        "regency_code": 7302,
        "province_code": 73,
        "name": "Tanah Towa",
        "postal_code": "92574",
        "latitude": -5.321538156787371,
        "longitude": 120.29607816771723
    },
    {
        "code": 7302062007,
        "district_code": 730206,
        "regency_code": 7302,
        "province_code": 73,
        "name": "Bontobiraeng",
        "postal_code": "92574",
        "latitude": -5.377194549290175,
        "longitude": 120.29178057974156
    },
    {
        "code": 7302062008,
        "district_code": 730206,
        "regency_code": 7302,
        "province_code": 73,
        "name": "Lembang",
        "postal_code": "92574",
        "latitude": -5.359474498826676,
        "longitude": 120.34260358514648
    },
    {
        "code": 7302062009,
        "district_code": 730206,
        "regency_code": 7302,
        "province_code": 73,
        "name": "Batunilamung",
        "postal_code": "92574",
        "latitude": -5.301299566190468,
        "longitude": 120.29783679649108
    },
    {
        "code": 7302062010,
        "district_code": 730206,
        "regency_code": 7302,
        "province_code": 73,
        "name": "Mattoanging",
        "postal_code": "92574",
        "latitude": -5.31255838056198,
        "longitude": 120.32503293888843
    },
    {
        "code": 7302062011,
        "district_code": 730206,
        "regency_code": 7302,
        "province_code": 73,
        "name": "Malleleng",
        "postal_code": "92574",
        "latitude": -5.319981422707899,
        "longitude": 120.31437619033433
    },
    {
        "code": 7302062012,
        "district_code": 730206,
        "regency_code": 7302,
        "province_code": 73,
        "name": "Bonto Baji",
        "postal_code": "92574",
        "latitude": -5.33316030139273,
        "longitude": 120.28043568083969
    },
    {
        "code": 7302062013,
        "district_code": 730206,
        "regency_code": 7302,
        "province_code": 73,
        "name": "Bontorannu",
        "postal_code": "92574",
        "latitude": -5.372697125090201,
        "longitude": 120.32899537885903
    },
    {
        "code": 7302062014,
        "district_code": 730206,
        "regency_code": 7302,
        "province_code": 73,
        "name": "Pattiroang",
        "postal_code": "92574",
        "latitude": -5.314347688623056,
        "longitude": 120.26943715307605
    },
    {
        "code": 7302062015,
        "district_code": 730206,
        "regency_code": 7302,
        "province_code": 73,
        "name": "Sapanang",
        "postal_code": "92574",
        "latitude": -5.297583829051592,
        "longitude": 120.26887689815189
    },
    {
        "code": 7302062016,
        "district_code": 730206,
        "regency_code": 7302,
        "province_code": 73,
        "name": "Sangkala",
        "postal_code": "92574",
        "latitude": -5.350397271626117,
        "longitude": 120.27681292414971
    },
    {
        "code": 7302062017,
        "district_code": 730206,
        "regency_code": 7302,
        "province_code": 73,
        "name": "Lembang Lohe",
        "postal_code": "92574",
        "latitude": -5.357654056699173,
        "longitude": 120.35495593366336
    },
    {
        "code": 7302062018,
        "district_code": 730206,
        "regency_code": 7302,
        "province_code": 73,
        "name": "Lolisang",
        "postal_code": "92574",
        "latitude": -5.298581814028835,
        "longitude": 120.33470649721183
    },
    {
        "code": 7302062019,
        "district_code": 730206,
        "regency_code": 7302,
        "province_code": 73,
        "name": "Pantama",
        "postal_code": "92574",
        "latitude": -5.318836840861938,
        "longitude": 120.3519696183467
    },
    {
        "code": 7302071001,
        "district_code": 730207,
        "regency_code": 7302,
        "province_code": 73,
        "name": "Tanete",
        "postal_code": "92552",
        "latitude": -5.33831591634496,
        "longitude": 120.13040731658745
    },
    {
        "code": 7302071002,
        "district_code": 730207,
        "regency_code": 7302,
        "province_code": 73,
        "name": "Jawijawi",
        "postal_code": "92552",
        "latitude": -5.33185238800441,
        "longitude": 120.17033391811735
    },
    {
        "code": 7302071003,
        "district_code": 730207,
        "regency_code": 7302,
        "province_code": 73,
        "name": "Balla Saraja",
        "postal_code": "92552",
        "latitude": -5.352864407050868,
        "longitude": 120.16571071955713
    },
    {
        "code": 7302072004,
        "district_code": 730207,
        "regency_code": 7302,
        "province_code": 73,
        "name": "Bontobulaeng",
        "postal_code": "92552",
        "latitude": -5.362446973591881,
        "longitude": 120.11752498649547
    },
    {
        "code": 7302072005,
        "district_code": 730207,
        "regency_code": 7302,
        "province_code": 73,
        "name": "Bulo Bulo",
        "postal_code": "92552",
        "latitude": -5.363947682542107,
        "longitude": 120.15793725400623
    },
    {
        "code": 7302072006,
        "district_code": 730207,
        "regency_code": 7302,
        "province_code": 73,
        "name": "Bontominasa",
        "postal_code": "92552",
        "latitude": -5.334169417668959,
        "longitude": 120.2267730578356
    },
    {
        "code": 7302072007,
        "district_code": 730207,
        "regency_code": 7302,
        "province_code": 73,
        "name": "Balangtaroang",
        "postal_code": "92552",
        "latitude": -5.344589830401628,
        "longitude": 120.0984793203721
    },
    {
        "code": 7302072008,
        "district_code": 730207,
        "regency_code": 7302,
        "province_code": 73,
        "name": "Barugae",
        "postal_code": "92552",
        "latitude": -5.3206315260150765,
        "longitude": 120.11365988026661
    },
    {
        "code": 7302072009,
        "district_code": 730207,
        "regency_code": 7302,
        "province_code": 73,
        "name": "Salassae",
        "postal_code": "92552",
        "latitude": -5.376686081145502,
        "longitude": 120.2116792215942
    },
    {
        "code": 7302072010,
        "district_code": 730207,
        "regency_code": 7302,
        "province_code": 73,
        "name": "Kambuno",
        "postal_code": "92552",
        "latitude": -5.328363051258533,
        "longitude": 120.10325849939899
    },
    {
        "code": 7302072011,
        "district_code": 730207,
        "regency_code": 7302,
        "province_code": 73,
        "name": "Jojjolo",
        "postal_code": "92552",
        "latitude": -5.356090949630008,
        "longitude": 120.22081981523768
    },
    {
        "code": 7302072012,
        "district_code": 730207,
        "regency_code": 7302,
        "province_code": 73,
        "name": "Sapobonto",
        "postal_code": "92552",
        "latitude": -5.351353861972668,
        "longitude": 120.07629476642626
    },
    {
        "code": 7302072013,
        "district_code": 730207,
        "regency_code": 7302,
        "province_code": 73,
        "name": "Tibona",
        "postal_code": "92552",
        "latitude": -5.314699469532821,
        "longitude": 120.21007327518969
    },
    {
        "code": 7302072014,
        "district_code": 730207,
        "regency_code": 7302,
        "province_code": 73,
        "name": "Balangpesoang",
        "postal_code": "92552",
        "latitude": -5.307903289722135,
        "longitude": 120.14434894323941
    },
    {
        "code": 7302072015,
        "district_code": 730207,
        "regency_code": 7302,
        "province_code": 73,
        "name": "Batulohe",
        "postal_code": "92552",
        "latitude": -5.325539262470922,
        "longitude": 120.24967739445209
    },
    {
        "code": 7302072016,
        "district_code": 730207,
        "regency_code": 7302,
        "province_code": 73,
        "name": "Bontomangiring",
        "postal_code": "92552",
        "latitude": -5.387336350256293,
        "longitude": 120.255987881873
    },
    {
        "code": 7302072017,
        "district_code": 730207,
        "regency_code": 7302,
        "province_code": 73,
        "name": "Baruga Riattang",
        "postal_code": "92552",
        "latitude": -5.334115581743341,
        "longitude": 120.09628972428013
    },
    {
        "code": 7302081001,
        "district_code": 730208,
        "regency_code": 7302,
        "province_code": 73,
        "name": "Borong Rappoa",
        "postal_code": "92517",
        "latitude": -5.372525748653872,
        "longitude": 119.99924907427615
    },
    {
        "code": 7302082002,
        "district_code": 730208,
        "regency_code": 7302,
        "province_code": 73,
        "name": "Mattirowalie",
        "postal_code": "92517",
        "latitude": -5.44064033431096,
        "longitude": 120.11139085647058
    },
    {
        "code": 7302082003,
        "district_code": 730208,
        "regency_code": 7302,
        "province_code": 73,
        "name": "Kindang",
        "postal_code": "92517",
        "latitude": -5.358139457402483,
        "longitude": 120.04379016367938
    },
    {
        "code": 7302082004,
        "district_code": 730208,
        "regency_code": 7302,
        "province_code": 73,
        "name": "Arinhua",
        "postal_code": "92517",
        "latitude": -5.42008205690698,
        "longitude": 120.07900585076405
    },
    {
        "code": 7302082005,
        "district_code": 730208,
        "regency_code": 7302,
        "province_code": 73,
        "name": "Tamaona",
        "postal_code": "92517",
        "latitude": -5.380342879729564,
        "longitude": 120.08504327416358
    },
    {
        "code": 7302082006,
        "district_code": 730208,
        "regency_code": 7302,
        "province_code": 73,
        "name": "Benteng Palioi",
        "postal_code": "92517",
        "latitude": -5.4422239002845565,
        "longitude": 120.13145835880708
    },
    {
        "code": 7302082007,
        "district_code": 730208,
        "regency_code": 7302,
        "province_code": 73,
        "name": "Balibo",
        "postal_code": "92517",
        "latitude": -5.45814903322879,
        "longitude": 120.1138248707615
    },
    {
        "code": 7302082008,
        "district_code": 730208,
        "regency_code": 7302,
        "province_code": 73,
        "name": "Garuntungan",
        "postal_code": "92517",
        "latitude": -5.401649847494645,
        "longitude": 120.08529642767395
    },
    {
        "code": 7302082009,
        "district_code": 730208,
        "regency_code": 7302,
        "province_code": 73,
        "name": "Orogading",
        "postal_code": "92517",
        "latitude": -5.381044869773786,
        "longitude": 120.0615244522174
    },
    {
        "code": 7302082010,
        "district_code": 730208,
        "regency_code": 7302,
        "province_code": 73,
        "name": "Sipaenre",
        "postal_code": "92517",
        "latitude": -5.4220317952219625,
        "longitude": 120.05869989523252
    },
    {
        "code": 7302082011,
        "district_code": 730208,
        "regency_code": 7302,
        "province_code": 73,
        "name": "Kahayya",
        "postal_code": "92517",
        "latitude": -5.338716174154302,
        "longitude": 119.99356708825415
    },
    {
        "code": 7302082012,
        "district_code": 730208,
        "regency_code": 7302,
        "province_code": 73,
        "name": "Somba Palioli",
        "postal_code": "92517",
        "latitude": -5.4238318774197305,
        "longitude": 120.12333338302555
    },
    {
        "code": 7302082013,
        "district_code": 730208,
        "regency_code": 7302,
        "province_code": 73,
        "name": "Sopa",
        "postal_code": "92517",
        "latitude": -5.4682223380984025,
        "longitude": 120.13731639616485
    },
    {
        "code": 7302091001,
        "district_code": 730209,
        "regency_code": 7302,
        "province_code": 73,
        "name": "Dannuang",
        "postal_code": "92562",
        "latitude": -5.528888079570818,
        "longitude": 120.27253245818032
    },
    {
        "code": 7302092002,
        "district_code": 730209,
        "regency_code": 7302,
        "province_code": 73,
        "name": "Garanta",
        "postal_code": "92562",
        "latitude": -5.498500325424705,
        "longitude": 120.2868216923511
    },
    {
        "code": 7302092003,
        "district_code": 730209,
        "regency_code": 7302,
        "province_code": 73,
        "name": "Balleanging",
        "postal_code": "92562",
        "latitude": -5.460651753873089,
        "longitude": 120.28837815863439
    },
    {
        "code": 7302092004,
        "district_code": 730209,
        "regency_code": 7302,
        "province_code": 73,
        "name": "Balong",
        "postal_code": "92562",
        "latitude": -5.467634120164943,
        "longitude": 120.26910567399621
    },
    {
        "code": 7302092005,
        "district_code": 730209,
        "regency_code": 7302,
        "province_code": 73,
        "name": "Seppang",
        "postal_code": "92562",
        "latitude": -5.496610123190595,
        "longitude": 120.23349470016322
    },
    {
        "code": 7302092006,
        "district_code": 730209,
        "regency_code": 7302,
        "province_code": 73,
        "name": "Manyampa",
        "postal_code": "92562",
        "latitude": -5.478291873565701,
        "longitude": 120.31943783921517
    },
    {
        "code": 7302092007,
        "district_code": 730209,
        "regency_code": 7302,
        "province_code": 73,
        "name": "Tammatto",
        "postal_code": "92562",
        "latitude": -5.419730561139251,
        "longitude": 120.2832504088243
    },
    {
        "code": 7302092008,
        "district_code": 730209,
        "regency_code": 7302,
        "province_code": 73,
        "name": "Padangloang",
        "postal_code": "92562",
        "latitude": -5.496241776091567,
        "longitude": 120.25566193585067
    },
    {
        "code": 7302092009,
        "district_code": 730209,
        "regency_code": 7302,
        "province_code": 73,
        "name": "Manjalling",
        "postal_code": "92562",
        "latitude": -5.516095128579147,
        "longitude": 120.28191608853453
    },
    {
        "code": 7302092010,
        "district_code": 730209,
        "regency_code": 7302,
        "province_code": 73,
        "name": "Lonrong",
        "postal_code": "92562",
        "latitude": -5.46101758671863,
        "longitude": 120.24683098181092
    },
    {
        "code": 7302092011,
        "district_code": 730209,
        "regency_code": 7302,
        "province_code": 73,
        "name": "Salemba",
        "postal_code": "92562",
        "latitude": -5.526433108905351,
        "longitude": 120.25011237915562
    },
    {
        "code": 7302092012,
        "district_code": 730209,
        "regency_code": 7302,
        "province_code": 73,
        "name": "Bijawang",
        "postal_code": "92562",
        "latitude": -5.474914460866404,
        "longitude": 120.22225611227701
    },
    {
        "code": 7302092013,
        "district_code": 730209,
        "regency_code": 7302,
        "province_code": 73,
        "name": "Paccaramengang",
        "postal_code": "92562",
        "latitude": -5.430783010978214,
        "longitude": 120.30712342393998
    },
    {
        "code": 7302101002,
        "district_code": 730210,
        "regency_code": 7302,
        "province_code": 73,
        "name": "Palampang",
        "postal_code": "92553",
        "latitude": -5.380596177903224,
        "longitude": 120.16528425019244
    },
    {
        "code": 7302102001,
        "district_code": 730210,
        "regency_code": 7302,
        "province_code": 73,
        "name": "Bontomanai",
        "postal_code": "92553",
        "latitude": -5.443680775706436,
        "longitude": 120.19450383477171
    },
    {
        "code": 7302102003,
        "district_code": 730210,
        "regency_code": 7302,
        "province_code": 73,
        "name": "Bontobangun",
        "postal_code": "92553",
        "latitude": -5.397077665922381,
        "longitude": 120.16599943240394
    },
    {
        "code": 7302102004,
        "district_code": 730210,
        "regency_code": 7302,
        "province_code": 73,
        "name": "Karama",
        "postal_code": "92553",
        "latitude": -5.401293624145446,
        "longitude": 120.21591473898596
    },
    {
        "code": 7302102005,
        "district_code": 730210,
        "regency_code": 7302,
        "province_code": 73,
        "name": "Bontolohe",
        "postal_code": "92553",
        "latitude": -5.3753468660707995,
        "longitude": 120.11381990281949
    },
    {
        "code": 7302102006,
        "district_code": 730210,
        "regency_code": 7302,
        "province_code": 73,
        "name": "Bajiminasa",
        "postal_code": "92553",
        "latitude": -5.397441507330247,
        "longitude": 120.14388262158893
    },
    {
        "code": 7302102007,
        "district_code": 730210,
        "regency_code": 7302,
        "province_code": 73,
        "name": "Bonto Matene",
        "postal_code": "92553",
        "latitude": -5.391253440632798,
        "longitude": 120.12163237449745
    },
    {
        "code": 7302102008,
        "district_code": 730210,
        "regency_code": 7302,
        "province_code": 73,
        "name": "Tanah Harapan",
        "postal_code": "92553",
        "latitude": -5.4654430792792805,
        "longitude": 120.19828426163286
    },
    {
        "code": 7302102009,
        "district_code": 730210,
        "regency_code": 7302,
        "province_code": 73,
        "name": "Batukaroppa",
        "postal_code": "92553",
        "latitude": -5.419838308292123,
        "longitude": 120.2012521681387
    },
    {
        "code": 7302102010,
        "district_code": 730210,
        "regency_code": 7302,
        "province_code": 73,
        "name": "Bontoharu",
        "postal_code": "92553",
        "latitude": -5.3918573091768724,
        "longitude": 120.19725598031008
    },
    {
        "code": 7302102011,
        "district_code": 730210,
        "regency_code": 7302,
        "province_code": 73,
        "name": "Swatani",
        "postal_code": "92553",
        "latitude": -5.421162519216044,
        "longitude": 120.24197712645943
    },
    {
        "code": 7302102012,
        "district_code": 730210,
        "regency_code": 7302,
        "province_code": 73,
        "name": "Bulolohe",
        "postal_code": "92553",
        "latitude": -5.432041145513454,
        "longitude": 120.1956286017917
    },
    {
        "code": 7302102013,
        "district_code": 730210,
        "regency_code": 7302,
        "province_code": 73,
        "name": "Anrang",
        "postal_code": "92553",
        "latitude": -5.42121446535718,
        "longitude": 120.15009397737823
    },
    {
        "code": 7302102014,
        "district_code": 730210,
        "regency_code": 7302,
        "province_code": 73,
        "name": "Pangalloang",
        "postal_code": "92553",
        "latitude": -5.411758980562134,
        "longitude": 120.17454684840743
    },
    {
        "code": 7302102015,
        "district_code": 730210,
        "regency_code": 7302,
        "province_code": 73,
        "name": "Topanda",
        "postal_code": "92553",
        "latitude": -5.4527020869136935,
        "longitude": 120.21175866516344
    },
    {
        "code": 7303011001,
        "district_code": 730301,
        "regency_code": 7303,
        "province_code": 73,
        "name": "Bonto Manai",
        "postal_code": "92451",
        "latitude": -5.547145157426294,
        "longitude": 119.9068853133662
    },
    {
        "code": 7303011002,
        "district_code": 730301,
        "regency_code": 7303,
        "province_code": 73,
        "name": "Bonto Lebang",
        "postal_code": "92451",
        "latitude": -5.545263896292452,
        "longitude": 119.91957630732517
    },
    {
        "code": 7303011003,
        "district_code": 730301,
        "regency_code": 7303,
        "province_code": 73,
        "name": "Bonto Sunggu",
        "postal_code": "92451",
        "latitude": -5.532176085610401,
        "longitude": 119.92583590295754
    },
    {
        "code": 7303011004,
        "district_code": 730301,
        "regency_code": 7303,
        "province_code": 73,
        "name": "Bonto Atu",
        "postal_code": "92451",
        "latitude": -5.5284880909639655,
        "longitude": 119.93606648323399
    },
    {
        "code": 7303011005,
        "district_code": 730301,
        "regency_code": 7303,
        "province_code": 73,
        "name": "Bonto Rita",
        "postal_code": "92451",
        "latitude": -5.528407889550072,
        "longitude": 119.94817236554088
    },
    {
        "code": 7303011006,
        "district_code": 730301,
        "regency_code": 7303,
        "province_code": 73,
        "name": "Bonto Langkasa",
        "postal_code": "92451",
        "latitude": -5.540288337319285,
        "longitude": 119.89769812447172
    },
    {
        "code": 7303011007,
        "district_code": 730301,
        "regency_code": 7303,
        "province_code": 73,
        "name": "Bonto Jaya",
        "postal_code": "92451",
        "latitude": -5.5343531324892306,
        "longitude": 119.86649665550334
    },
    {
        "code": 7303012008,
        "district_code": 730301,
        "regency_code": 7303,
        "province_code": 73,
        "name": "Bonto Jai",
        "postal_code": "92451",
        "latitude": -5.562355998349134,
        "longitude": 119.90923808505723
    },
    {
        "code": 7303012009,
        "district_code": 730301,
        "regency_code": 7303,
        "province_code": 73,
        "name": "Bonto Cinde",
        "postal_code": "92451",
        "latitude": -5.542581889747048,
        "longitude": 119.88639561244483
    },
    {
        "code": 7303012010,
        "district_code": 730301,
        "regency_code": 7303,
        "province_code": 73,
        "name": "Bonto Loe",
        "postal_code": "92451",
        "latitude": -5.550580510267979,
        "longitude": 119.87275538494731
    },
    {
        "code": 7303012012,
        "district_code": 730301,
        "regency_code": 7303,
        "province_code": 73,
        "name": "Bonto Salluang",
        "postal_code": "92451",
        "latitude": -5.53353070039446,
        "longitude": 119.91123766698948
    },
    {
        "code": 7303021001,
        "district_code": 730302,
        "regency_code": 7303,
        "province_code": 73,
        "name": "Tappanjeng",
        "postal_code": "92411",
        "latitude": -5.544489337126915,
        "longitude": 119.94487901443526
    },
    {
        "code": 7303021002,
        "district_code": 730302,
        "regency_code": 7303,
        "province_code": 73,
        "name": "Pallantikang",
        "postal_code": "92411",
        "latitude": -5.54131021292719,
        "longitude": 119.95196849719244
    },
    {
        "code": 7303021003,
        "district_code": 730302,
        "regency_code": 7303,
        "province_code": 73,
        "name": "Letta",
        "postal_code": "92415",
        "latitude": -5.551416504787003,
        "longitude": 119.95423242731665
    },
    {
        "code": 7303021004,
        "district_code": 730302,
        "regency_code": 7303,
        "province_code": 73,
        "name": "Mallilingi",
        "postal_code": "92411",
        "latitude": -5.539997688207286,
        "longitude": 119.95878837452342
    },
    {
        "code": 7303021005,
        "district_code": 730302,
        "regency_code": 7303,
        "province_code": 73,
        "name": "Lembang",
        "postal_code": "92411",
        "latitude": -5.546295044349054,
        "longitude": 119.96914219833515
    },
    {
        "code": 7303021006,
        "district_code": 730302,
        "regency_code": 7303,
        "province_code": 73,
        "name": "Lamalaka",
        "postal_code": "92412",
        "latitude": -5.549713913923609,
        "longitude": 119.98235757335968
    },
    {
        "code": 7303021007,
        "district_code": 730302,
        "regency_code": 7303,
        "province_code": 73,
        "name": "Karatuang",
        "postal_code": "92411",
        "latitude": -5.507493537529751,
        "longitude": 119.96370520045295
    },
    {
        "code": 7303021008,
        "district_code": 730302,
        "regency_code": 7303,
        "province_code": 73,
        "name": "Onto",
        "postal_code": "92413",
        "latitude": -5.485017198208786,
        "longitude": 119.97088966762095
    },
    {
        "code": 7303022009,
        "district_code": 730302,
        "regency_code": 7303,
        "province_code": 73,
        "name": "Kayu Loe",
        "postal_code": "92411",
        "latitude": -5.462312520690781,
        "longitude": 119.97401890226959
    },
    {
        "code": 7303032001,
        "district_code": 730303,
        "regency_code": 7303,
        "province_code": 73,
        "name": "Ulu Galung",
        "postal_code": "92414",
        "latitude": -5.526412032310293,
        "longitude": 119.97994379741823
    },
    {
        "code": 7303032002,
        "district_code": 730303,
        "regency_code": 7303,
        "province_code": 73,
        "name": "Lonrong",
        "postal_code": "92415",
        "latitude": -5.507459764684847,
        "longitude": 119.99510560806641
    },
    {
        "code": 7303032003,
        "district_code": 730303,
        "regency_code": 7303,
        "province_code": 73,
        "name": "Barua",
        "postal_code": "92415",
        "latitude": -5.488406217612282,
        "longitude": 120.01243944525108
    },
    {
        "code": 7303032004,
        "district_code": 730303,
        "regency_code": 7303,
        "province_code": 73,
        "name": "Kampala",
        "postal_code": "92415",
        "latitude": -5.440740002850015,
        "longitude": 119.98668307731812
    },
    {
        "code": 7303032005,
        "district_code": 730303,
        "regency_code": 7303,
        "province_code": 73,
        "name": "Pa'bentengan",
        "postal_code": "92415",
        "latitude": -5.483826692954785,
        "longitude": 119.99177787244244
    },
    {
        "code": 7303032006,
        "district_code": 730303,
        "regency_code": 7303,
        "province_code": 73,
        "name": "Mappilawing",
        "postal_code": "92415",
        "latitude": -5.502404694157115,
        "longitude": 119.9873173571877
    },
    {
        "code": 7303032007,
        "district_code": 730303,
        "regency_code": 7303,
        "province_code": 73,
        "name": "Pa'bumbungang",
        "postal_code": "92415",
        "latitude": -5.451603478749924,
        "longitude": 119.98363535092422
    },
    {
        "code": 7303032008,
        "district_code": 730303,
        "regency_code": 7303,
        "province_code": 73,
        "name": "Mamampang",
        "postal_code": "92415",
        "latitude": -5.5177749483505485,
        "longitude": 119.9699481214022
    },
    {
        "code": 7303032009,
        "district_code": 730303,
        "regency_code": 7303,
        "province_code": 73,
        "name": "Parang Loe",
        "postal_code": "92415",
        "latitude": -5.461003311717168,
        "longitude": 120.0077444907375
    },
    {
        "code": 7303041001,
        "district_code": 730304,
        "regency_code": 7303,
        "province_code": 73,
        "name": "Lembang Gantarang Keke",
        "postal_code": "92462",
        "latitude": -5.479862446598856,
        "longitude": 120.03761255256815
    },
    {
        "code": 7303041003,
        "district_code": 730304,
        "regency_code": 7303,
        "province_code": 73,
        "name": "Banyorang",
        "postal_code": "92462",
        "latitude": -5.458216148591538,
        "longitude": 120.03475571956132
    },
    {
        "code": 7303041004,
        "district_code": 730304,
        "regency_code": 7303,
        "province_code": 73,
        "name": "Campaga",
        "postal_code": "92462",
        "latitude": -5.457048460909251,
        "longitude": 120.01988976272223
    },
    {
        "code": 7303041005,
        "district_code": 730304,
        "regency_code": 7303,
        "province_code": 73,
        "name": "Eren Ereng",
        "postal_code": "92462",
        "latitude": -5.4322739964356215,
        "longitude": 120.03885779625212
    },
    {
        "code": 7303042006,
        "district_code": 730304,
        "regency_code": 7303,
        "province_code": 73,
        "name": "Labbo",
        "postal_code": "92462",
        "latitude": -5.412898481887402,
        "longitude": 119.99699620293217
    },
    {
        "code": 7303042007,
        "district_code": 730304,
        "regency_code": 7303,
        "province_code": 73,
        "name": "Pattaneteang",
        "postal_code": "92462",
        "latitude": -5.397495527884158,
        "longitude": 120.00489853227612
    },
    {
        "code": 7303042008,
        "district_code": 730304,
        "regency_code": 7303,
        "province_code": 73,
        "name": "Pattallassang",
        "postal_code": "92462",
        "latitude": -5.476863102206354,
        "longitude": 120.06332976597683
    },
    {
        "code": 7303042009,
        "district_code": 730304,
        "regency_code": 7303,
        "province_code": 73,
        "name": "Bonto-bontoa",
        "postal_code": "92462",
        "latitude": -5.453610460625632,
        "longitude": 120.05001731274368
    },
    {
        "code": 7303042010,
        "district_code": 730304,
        "regency_code": 7303,
        "province_code": 73,
        "name": "Bonto Tappalang",
        "postal_code": "92462",
        "latitude": -5.435743890458069,
        "longitude": 120.00273087361008
    },
    {
        "code": 7303042011,
        "district_code": 730304,
        "regency_code": 7303,
        "province_code": 73,
        "name": "Balumbung",
        "postal_code": "92462",
        "latitude": -5.437240717017885,
        "longitude": 120.02039060900218
    },
    {
        "code": 7303052002,
        "district_code": 730305,
        "regency_code": 7303,
        "province_code": 73,
        "name": "Biangkeke",
        "postal_code": "92460",
        "latitude": -5.541896539048806,
        "longitude": 120.016428002855
    },
    {
        "code": 7303052003,
        "district_code": 730305,
        "regency_code": 7303,
        "province_code": 73,
        "name": "Pa'jukukang",
        "postal_code": "92460",
        "latitude": -5.558144678446154,
        "longitude": 120.03480345960817
    },
    {
        "code": 7303052004,
        "district_code": 730305,
        "regency_code": 7303,
        "province_code": 73,
        "name": "Biangloe",
        "postal_code": "92460",
        "latitude": -5.517198731481807,
        "longitude": 120.0009977454072
    },
    {
        "code": 7303052005,
        "district_code": 730305,
        "regency_code": 7303,
        "province_code": 73,
        "name": "Borong Loe",
        "postal_code": "92460",
        "latitude": -5.5563279068396065,
        "longitude": 120.05089625146735
    },
    {
        "code": 7303052006,
        "district_code": 730305,
        "regency_code": 7303,
        "province_code": 73,
        "name": "Baruga",
        "postal_code": "92460",
        "latitude": -5.572856729015929,
        "longitude": 120.09142075117123
    },
    {
        "code": 7303052010,
        "district_code": 730305,
        "regency_code": 7303,
        "province_code": 73,
        "name": "Nipa-nipa",
        "postal_code": "92460",
        "latitude": -5.556028576642859,
        "longitude": 120.0220644322051
    },
    {
        "code": 7303052012,
        "district_code": 730305,
        "regency_code": 7303,
        "province_code": 73,
        "name": "Papan Loe",
        "postal_code": "92460",
        "latitude": -5.56224919102997,
        "longitude": 120.06989493138715
    },
    {
        "code": 7303052013,
        "district_code": 730305,
        "regency_code": 7303,
        "province_code": 73,
        "name": "Rappoa",
        "postal_code": "92460",
        "latitude": -5.5451910272398495,
        "longitude": 119.99109857837632
    },
    {
        "code": 7303052014,
        "district_code": 730305,
        "regency_code": 7303,
        "province_code": 73,
        "name": "Lumpangan",
        "postal_code": "92460",
        "latitude": -5.541749722486935,
        "longitude": 120.00238410025891
    },
    {
        "code": 7303052015,
        "district_code": 730305,
        "regency_code": 7303,
        "province_code": 73,
        "name": "Batu Karaeng",
        "postal_code": "92460",
        "latitude": -5.533599967748882,
        "longitude": 119.9997844632526
    },
    {
        "code": 7303062001,
        "district_code": 730306,
        "regency_code": 7303,
        "province_code": 73,
        "name": "Bonto Marannu",
        "postal_code": "92452",
        "latitude": -5.449285907377391,
        "longitude": 119.91628503072945
    },
    {
        "code": 7303062002,
        "district_code": 730306,
        "regency_code": 7303,
        "province_code": 73,
        "name": "Bonto Tangnga",
        "postal_code": "92452",
        "latitude": -5.462398717956612,
        "longitude": 119.92060705619136
    },
    {
        "code": 7303062006,
        "district_code": 730306,
        "regency_code": 7303,
        "province_code": 73,
        "name": "Bonto Tallasa",
        "postal_code": "92452",
        "latitude": -5.4944213504502555,
        "longitude": 119.89060262064345
    },
    {
        "code": 7303062007,
        "district_code": 730306,
        "regency_code": 7303,
        "province_code": 73,
        "name": "Bonto Rannu",
        "postal_code": "92452",
        "latitude": -5.514841943876985,
        "longitude": 119.88142453278977
    },
    {
        "code": 7303062010,
        "district_code": 730306,
        "regency_code": 7303,
        "province_code": 73,
        "name": "Bonto Daeng",
        "postal_code": "92452",
        "latitude": -5.471279839726056,
        "longitude": 119.90434873156374
    },
    {
        "code": 7303062011,
        "district_code": 730306,
        "regency_code": 7303,
        "province_code": 73,
        "name": "Bonto Lojong",
        "postal_code": "92452",
        "latitude": -5.411112904004197,
        "longitude": 119.94673854480378
    },
    {
        "code": 7303071001,
        "district_code": 730307,
        "regency_code": 7303,
        "province_code": 73,
        "name": "Gantarang Keke",
        "postal_code": "92461",
        "latitude": -5.505586986662421,
        "longitude": 120.03639686624557
    },
    {
        "code": 7303071002,
        "district_code": 730307,
        "regency_code": 7303,
        "province_code": 73,
        "name": "Tanah Loe",
        "postal_code": "92461",
        "latitude": -5.510793566884626,
        "longitude": 120.0166949475449
    },
    {
        "code": 7303072003,
        "district_code": 730307,
        "regency_code": 7303,
        "province_code": 73,
        "name": "Layoa",
        "postal_code": "92461",
        "latitude": -5.544353912052171,
        "longitude": 120.08934564451401
    },
    {
        "code": 7303072004,
        "district_code": 730307,
        "regency_code": 7303,
        "province_code": 73,
        "name": "Bajiminasa",
        "postal_code": "92461",
        "latitude": -5.506663774736738,
        "longitude": 120.08085656045165
    },
    {
        "code": 7303072005,
        "district_code": 730307,
        "regency_code": 7303,
        "province_code": 73,
        "name": "Tombolo",
        "postal_code": "92461",
        "latitude": -5.529390144398436,
        "longitude": 120.03999381209665
    },
    {
        "code": 7303072006,
        "district_code": 730307,
        "regency_code": 7303,
        "province_code": 73,
        "name": "Kaloling",
        "postal_code": "92461",
        "latitude": -5.516299466028078,
        "longitude": 120.05936395082493
    },
    {
        "code": 7303082001,
        "district_code": 730308,
        "regency_code": 7303,
        "province_code": 73,
        "name": "Bonto Tiro",
        "postal_code": "92450",
        "latitude": -5.508197652713955,
        "longitude": 119.94414070467647
    },
    {
        "code": 7303082002,
        "district_code": 730308,
        "regency_code": 7303,
        "province_code": 73,
        "name": "Bonto Karaeng",
        "postal_code": "92450",
        "latitude": -5.477939531005476,
        "longitude": 119.9250882402814
    },
    {
        "code": 7303082003,
        "district_code": 730308,
        "regency_code": 7303,
        "province_code": 73,
        "name": "Bonto Maccini",
        "postal_code": "92450",
        "latitude": -5.505449177905855,
        "longitude": 119.92619721415134
    },
    {
        "code": 7303082004,
        "district_code": 730308,
        "regency_code": 7303,
        "province_code": 73,
        "name": "Bonto Mate'ne",
        "postal_code": "92450",
        "latitude": -5.51546415629007,
        "longitude": 119.89771476114753
    },
    {
        "code": 7303082005,
        "district_code": 730308,
        "regency_code": 7303,
        "province_code": 73,
        "name": "Bonto Majannang",
        "postal_code": "92450",
        "latitude": -5.500906405571368,
        "longitude": 119.91125621721233
    },
    {
        "code": 7303082006,
        "district_code": 730308,
        "regency_code": 7303,
        "province_code": 73,
        "name": "Bonto Bulaeng",
        "postal_code": "92450",
        "latitude": -5.477647360994562,
        "longitude": 119.9474455978968
    },
    {
        "code": 7304011001,
        "district_code": 730401,
        "regency_code": 7304,
        "province_code": 73,
        "name": "Benteng",
        "postal_code": "92352",
        "latitude": -5.578757980409118,
        "longitude": 119.5599157332381
    },
    {
        "code": 7304011002,
        "district_code": 730401,
        "regency_code": 7304,
        "province_code": 73,
        "name": "Pallengu",
        "postal_code": "92352",
        "latitude": -5.595161551488391,
        "longitude": 119.5719981902669
    },
    {
        "code": 7304011003,
        "district_code": 730401,
        "regency_code": 7304,
        "province_code": 73,
        "name": "Pantai Bahari",
        "postal_code": "92352",
        "latitude": -5.58696730557912,
        "longitude": 119.55128566373315
    },
    {
        "code": 7304011004,
        "district_code": 730401,
        "regency_code": 7304,
        "province_code": 73,
        "name": "Bontorannu ",
        "postal_code": "92352",
        "latitude": -5.60951448384718,
        "longitude": 119.59357166586844
    },
    {
        "code": 7304012005,
        "district_code": 730401,
        "regency_code": 7304,
        "province_code": 73,
        "name": "Pallantikang",
        "postal_code": "92352",
        "latitude": -5.548180079576576,
        "longitude": 119.57652623375647
    },
    {
        "code": 7304012006,
        "district_code": 730401,
        "regency_code": 7304,
        "province_code": 73,
        "name": "Kalimporo",
        "postal_code": "92352",
        "latitude": -5.5776520294187755,
        "longitude": 119.58711199114379
    },
    {
        "code": 7304012007,
        "district_code": 730401,
        "regency_code": 7304,
        "province_code": 73,
        "name": "Punagaya",
        "postal_code": "92352",
        "latitude": -5.621120728774818,
        "longitude": 119.56414251957901
    },
    {
        "code": 7304012008,
        "district_code": 730401,
        "regency_code": 7304,
        "province_code": 73,
        "name": "Mallasoro",
        "postal_code": "92352",
        "latitude": -5.643088376515378,
        "longitude": 119.5706360387674
    },
    {
        "code": 7304012009,
        "district_code": 730401,
        "regency_code": 7304,
        "province_code": 73,
        "name": "Kapita",
        "postal_code": "92352",
        "latitude": -5.536305577261185,
        "longitude": 119.63065205404169
    },
    {
        "code": 7304012010,
        "district_code": 730401,
        "regency_code": 7304,
        "province_code": 73,
        "name": "Marayoka",
        "postal_code": "92352",
        "latitude": -5.497600391125721,
        "longitude": 119.64529084880208
    },
    {
        "code": 7304012011,
        "district_code": 730401,
        "regency_code": 7304,
        "province_code": 73,
        "name": "Jenetallasa",
        "postal_code": "92352",
        "latitude": -5.580407788380065,
        "longitude": 119.61506782998916
    },
    {
        "code": 7304012012,
        "district_code": 730401,
        "regency_code": 7304,
        "province_code": 73,
        "name": "Tombo Tombolo",
        "postal_code": "92352",
        "latitude": -5.5951501272243185,
        "longitude": 119.60635977657779
    },
    {
        "code": 7304012013,
        "district_code": 730401,
        "regency_code": 7304,
        "province_code": 73,
        "name": "Gunung Silanu",
        "postal_code": "92352",
        "latitude": -5.535403478497544,
        "longitude": 119.60274914480487
    },
    {
        "code": 7304012014,
        "district_code": 730401,
        "regency_code": 7304,
        "province_code": 73,
        "name": "Bontomanai",
        "postal_code": "92352",
        "latitude": -5.562572081711396,
        "longitude": 119.61293318646662
    },
    {
        "code": 7304021001,
        "district_code": 730402,
        "regency_code": 7304,
        "province_code": 73,
        "name": "Bonto Tangnga",
        "postal_code": "92350",
        "latitude": -5.635454371603455,
        "longitude": 119.67971035194819
    },
    {
        "code": 7304021002,
        "district_code": 730402,
        "regency_code": 7304,
        "province_code": 73,
        "name": "Tonro Kassi",
        "postal_code": "92350",
        "latitude": -5.607596102581175,
        "longitude": 119.64322274217267
    },
    {
        "code": 7304021003,
        "district_code": 730402,
        "regency_code": 7304,
        "province_code": 73,
        "name": "Tonro Kassi Barat",
        "postal_code": "92350",
        "latitude": -5.609617659844046,
        "longitude": 119.62390450769526
    },
    {
        "code": 7304021004,
        "district_code": 730402,
        "regency_code": 7304,
        "province_code": 73,
        "name": "Tonro Kassi Timur",
        "postal_code": "92350",
        "latitude": -5.614656232560841,
        "longitude": 119.65973543509891
    },
    {
        "code": 7304021005,
        "district_code": 730402,
        "regency_code": 7304,
        "province_code": 73,
        "name": "Taman Roya",
        "postal_code": "92350",
        "latitude": -5.629226316126586,
        "longitude": 119.66472419444618
    },
    {
        "code": 7304021006,
        "district_code": 730402,
        "regency_code": 7304,
        "province_code": 73,
        "name": "Manjangloe",
        "postal_code": "92350",
        "latitude": -5.638931129213852,
        "longitude": 119.70314877912834
    },
    {
        "code": 7304022007,
        "district_code": 730402,
        "regency_code": 7304,
        "province_code": 73,
        "name": "Borongtala",
        "postal_code": "92350",
        "latitude": -5.674067683663976,
        "longitude": 119.67485123483773
    },
    {
        "code": 7304022008,
        "district_code": 730402,
        "regency_code": 7304,
        "province_code": 73,
        "name": "Bontosunggu",
        "postal_code": "92350",
        "latitude": -5.672114590120227,
        "longitude": 119.65166287080105
    },
    {
        "code": 7304022009,
        "district_code": 730402,
        "regency_code": 7304,
        "province_code": 73,
        "name": "Turatea",
        "postal_code": "92350",
        "latitude": -5.652777353919921,
        "longitude": 119.6776911030773
    },
    {
        "code": 7304022010,
        "district_code": 730402,
        "regency_code": 7304,
        "province_code": 73,
        "name": "Karelayu",
        "postal_code": "92350",
        "latitude": -5.620830288097985,
        "longitude": 119.70179223533641
    },
    {
        "code": 7304022011,
        "district_code": 730402,
        "regency_code": 7304,
        "province_code": 73,
        "name": "Bontojai",
        "postal_code": "92350",
        "latitude": -5.662307137488402,
        "longitude": 119.6613689638305
    },
    {
        "code": 7304022012,
        "district_code": 730402,
        "regency_code": 7304,
        "province_code": 73,
        "name": "Turatea Timur",
        "postal_code": "92350",
        "latitude": -5.662929346961017,
        "longitude": 119.69438108260707
    },
    {
        "code": 7304031001,
        "district_code": 730403,
        "regency_code": 7304,
        "province_code": 73,
        "name": "Pabiringa",
        "postal_code": "92316",
        "latitude": -5.691668316969035,
        "longitude": 119.7103888544596
    },
    {
        "code": 7304031002,
        "district_code": 730403,
        "regency_code": 7304,
        "province_code": 73,
        "name": "Balang",
        "postal_code": "92315",
        "latitude": -5.664497385266881,
        "longitude": 119.72840679147212
    },
    {
        "code": 7304031003,
        "district_code": 730403,
        "regency_code": 7304,
        "province_code": 73,
        "name": "Empoang",
        "postal_code": "92311",
        "latitude": -5.667254217634798,
        "longitude": 119.76234726159244
    },
    {
        "code": 7304031004,
        "district_code": 730403,
        "regency_code": 7304,
        "province_code": 73,
        "name": "Balang Toa",
        "postal_code": "92311",
        "latitude": -5.6765472219907185,
        "longitude": 119.7342489764472
    },
    {
        "code": 7304031005,
        "district_code": 730403,
        "regency_code": 7304,
        "province_code": 73,
        "name": "Balang Beru",
        "postal_code": "92316",
        "latitude": -5.659210804757695,
        "longitude": 119.71214002599285
    },
    {
        "code": 7304031006,
        "district_code": 730403,
        "regency_code": 7304,
        "province_code": 73,
        "name": "Empoang Selatan",
        "postal_code": "92311",
        "latitude": -5.687763364190557,
        "longitude": 119.76576535488695
    },
    {
        "code": 7304031007,
        "district_code": 730403,
        "regency_code": 7304,
        "province_code": 73,
        "name": "Sidenre",
        "postal_code": "92311",
        "latitude": -5.688324500109,
        "longitude": 119.74443703428815
    },
    {
        "code": 7304031008,
        "district_code": 730403,
        "regency_code": 7304,
        "province_code": 73,
        "name": "Empoang Utara",
        "postal_code": "92316",
        "latitude": -5.652952315367066,
        "longitude": 119.75252855703417
    },
    {
        "code": 7304031009,
        "district_code": 730403,
        "regency_code": 7304,
        "province_code": 73,
        "name": "Monro Monro",
        "postal_code": "92316",
        "latitude": -5.6934467239823565,
        "longitude": 119.73497916326475
    },
    {
        "code": 7304031010,
        "district_code": 730403,
        "regency_code": 7304,
        "province_code": 73,
        "name": "Biring Kassi",
        "postal_code": "92311",
        "latitude": -5.687188236880396,
        "longitude": 119.68780966889621
    },
    {
        "code": 7304031011,
        "district_code": 730403,
        "regency_code": 7304,
        "province_code": 73,
        "name": "Panaikang",
        "postal_code": "92311",
        "latitude": -5.679025706743395,
        "longitude": 119.71609807203937
    },
    {
        "code": 7304031012,
        "district_code": 730403,
        "regency_code": 7304,
        "province_code": 73,
        "name": "Bontoa ",
        "postal_code": "92316",
        "latitude": -5.6446199606067555,
        "longitude": 119.72053253466815
    },
    {
        "code": 7304032013,
        "district_code": 730403,
        "regency_code": 7304,
        "province_code": 73,
        "name": "Sapanang",
        "postal_code": "92314",
        "latitude": -5.644909671242671,
        "longitude": 119.72771375972084
    },
    {
        "code": 7304041001,
        "district_code": 730404,
        "regency_code": 7304,
        "province_code": 73,
        "name": "Togo Togo",
        "postal_code": "92360",
        "latitude": -5.617756540584867,
        "longitude": 119.81556217600117
    },
    {
        "code": 7304041002,
        "district_code": 730404,
        "regency_code": 7304,
        "province_code": 73,
        "name": "Bonto Raya",
        "postal_code": "92360",
        "latitude": -5.607876320907913,
        "longitude": 119.82426636602786
    },
    {
        "code": 7304042003,
        "district_code": 730404,
        "regency_code": 7304,
        "province_code": 73,
        "name": "Maccinibaji",
        "postal_code": "92360",
        "latitude": -5.6439876788690375,
        "longitude": 119.78734791779836
    },
    {
        "code": 7304042008,
        "district_code": 730404,
        "regency_code": 7304,
        "province_code": 73,
        "name": "Camba Camba",
        "postal_code": "92360",
        "latitude": -5.642788386061758,
        "longitude": 119.81015841502
    },
    {
        "code": 7304042009,
        "district_code": 730404,
        "regency_code": 7304,
        "province_code": 73,
        "name": "Kaluku",
        "postal_code": "92360",
        "latitude": -5.62020555032851,
        "longitude": 119.80285524816614
    },
    {
        "code": 7304042014,
        "district_code": 730404,
        "regency_code": 7304,
        "province_code": 73,
        "name": "Bungeng",
        "postal_code": "92360",
        "latitude": -5.626049671995438,
        "longitude": 119.8444459631783
    },
    {
        "code": 7304051001,
        "district_code": 730405,
        "regency_code": 7304,
        "province_code": 73,
        "name": "Tolo",
        "postal_code": "92371",
        "latitude": -5.564023358424033,
        "longitude": 119.80181348577571
    },
    {
        "code": 7304051002,
        "district_code": 730405,
        "regency_code": 7304,
        "province_code": 73,
        "name": "Tolo Utara",
        "postal_code": "92371",
        "latitude": -5.5288261697194265,
        "longitude": 119.82199401531503
    },
    {
        "code": 7304051003,
        "district_code": 730405,
        "regency_code": 7304,
        "province_code": 73,
        "name": "Tolo Selatan",
        "postal_code": "92371",
        "latitude": -5.5828571790003965,
        "longitude": 119.81202823310122
    },
    {
        "code": 7304051004,
        "district_code": 730405,
        "regency_code": 7304,
        "province_code": 73,
        "name": "Tolo Timur",
        "postal_code": "92371",
        "latitude": -5.536381638835273,
        "longitude": 119.83002603173917
    },
    {
        "code": 7304051005,
        "district_code": 730405,
        "regency_code": 7304,
        "province_code": 73,
        "name": "Tolo Barat",
        "postal_code": "92371",
        "latitude": -5.585801906851578,
        "longitude": 119.79911976293236
    },
    {
        "code": 7304052006,
        "district_code": 730405,
        "regency_code": 7304,
        "province_code": 73,
        "name": "Gantarang",
        "postal_code": "92371",
        "latitude": -5.549907515295785,
        "longitude": 119.84970533605099
    },
    {
        "code": 7304052009,
        "district_code": 730405,
        "regency_code": 7304,
        "province_code": 73,
        "name": "Bontolebang",
        "postal_code": "92371",
        "latitude": -5.578325888535363,
        "longitude": 119.82603772750674
    },
    {
        "code": 7304052010,
        "district_code": 730405,
        "regency_code": 7304,
        "province_code": 73,
        "name": "Bontonompo",
        "postal_code": "92371",
        "latitude": -5.53334106741499,
        "longitude": 119.85516668792823
    },
    {
        "code": 7304052014,
        "district_code": 730405,
        "regency_code": 7304,
        "province_code": 73,
        "name": "Samataring",
        "postal_code": "92371",
        "latitude": -5.558828736751519,
        "longitude": 119.83626841925864
    },
    {
        "code": 7304052021,
        "district_code": 730405,
        "regency_code": 7304,
        "province_code": 73,
        "name": "Tombolo",
        "postal_code": "92371",
        "latitude": -5.5313566669387235,
        "longitude": 119.84253459386133
    },
    {
        "code": 7304061002,
        "district_code": 730406,
        "regency_code": 7304,
        "province_code": 73,
        "name": "Bulu Jaya",
        "postal_code": "92353",
        "latitude": -5.504425610212342,
        "longitude": 119.53249294126762
    },
    {
        "code": 7304062001,
        "district_code": 730406,
        "regency_code": 7304,
        "province_code": 73,
        "name": "Banrimanurung",
        "postal_code": "92353",
        "latitude": -5.551089238573492,
        "longitude": 119.53872659478034
    },
    {
        "code": 7304062003,
        "district_code": 730406,
        "regency_code": 7304,
        "province_code": 73,
        "name": "Barana",
        "postal_code": "92353",
        "latitude": -5.458194823871176,
        "longitude": 119.54429963688708
    },
    {
        "code": 7304062004,
        "district_code": 730406,
        "regency_code": 7304,
        "province_code": 73,
        "name": "Beroanging",
        "postal_code": "92353",
        "latitude": -5.482142121879303,
        "longitude": 119.59246706101588
    },
    {
        "code": 7304062005,
        "district_code": 730406,
        "regency_code": 7304,
        "province_code": 73,
        "name": "Tuju",
        "postal_code": "92353",
        "latitude": -5.529830843379379,
        "longitude": 119.51907265356034
    },
    {
        "code": 7304062006,
        "district_code": 730406,
        "regency_code": 7304,
        "province_code": 73,
        "name": "Garassikang",
        "postal_code": "92353",
        "latitude": -5.57144293847261,
        "longitude": 119.53156755863087
    },
    {
        "code": 7304062007,
        "district_code": 730406,
        "regency_code": 7304,
        "province_code": 73,
        "name": "Pattiro",
        "postal_code": "92353",
        "latitude": -5.548283877387581,
        "longitude": 119.55386908755486
    },
    {
        "code": 7304062008,
        "district_code": 730406,
        "regency_code": 7304,
        "province_code": 73,
        "name": "Pappalluang",
        "postal_code": "92353",
        "latitude": -5.447999319072124,
        "longitude": 119.63360117041063
    },
    {
        "code": 7304071002,
        "district_code": 730407,
        "regency_code": 7304,
        "province_code": 73,
        "name": "Bontoramba",
        "postal_code": "92351",
        "latitude": -5.59226719926113,
        "longitude": 119.68435054527738
    },
    {
        "code": 7304072001,
        "district_code": 730407,
        "regency_code": 7304,
        "province_code": 73,
        "name": "Bulusibatang",
        "postal_code": "92351",
        "latitude": -5.551751733216757,
        "longitude": 119.67451121992349
    },
    {
        "code": 7304072003,
        "district_code": 730407,
        "regency_code": 7304,
        "province_code": 73,
        "name": "Balumbungan",
        "postal_code": "92351",
        "latitude": -5.606181973713012,
        "longitude": 119.69828311557019
    },
    {
        "code": 7304072004,
        "district_code": 730407,
        "regency_code": 7304,
        "province_code": 73,
        "name": "Bangkalaloe",
        "postal_code": "92351",
        "latitude": -5.602889865903096,
        "longitude": 119.71695006487286
    },
    {
        "code": 7304072005,
        "district_code": 730407,
        "regency_code": 7304,
        "province_code": 73,
        "name": "Datara",
        "postal_code": "92351",
        "latitude": -5.579686905628214,
        "longitude": 119.72381575829391
    },
    {
        "code": 7304072006,
        "district_code": 730407,
        "regency_code": 7304,
        "province_code": 73,
        "name": "Maero",
        "postal_code": "92351",
        "latitude": -5.59256469564684,
        "longitude": 119.66038512215613
    },
    {
        "code": 7304072007,
        "district_code": 730407,
        "regency_code": 7304,
        "province_code": 73,
        "name": "Kareloe",
        "postal_code": "92351",
        "latitude": -5.5270151212022816,
        "longitude": 119.68903837786715
    },
    {
        "code": 7304072008,
        "district_code": 730407,
        "regency_code": 7304,
        "province_code": 73,
        "name": "Batujala",
        "postal_code": "92351",
        "latitude": -5.559693830980487,
        "longitude": 119.66031386776696
    },
    {
        "code": 7304072009,
        "district_code": 730407,
        "regency_code": 7304,
        "province_code": 73,
        "name": "Bulusuka",
        "postal_code": "92351",
        "latitude": -5.5717970590560535,
        "longitude": 119.6408187352807
    },
    {
        "code": 7304072010,
        "district_code": 730407,
        "regency_code": 7304,
        "province_code": 73,
        "name": "Tanammawang",
        "postal_code": "92351",
        "latitude": -5.552752874440196,
        "longitude": 119.70725837444624
    },