code,province_code,name,latitude,longitude
3601,36,"Kab. Pandeglang",-6.3168554305136,106.11479446982
3602,36,"Kab. Lebak",-6.3607670885178,106.24618699653
3603,36,"Kab. Tangerang",,
3604,36,"Kab. Serang",-6.1153025010456,106.15201508304
3671,36,"Kota Tangerang",-6.1643615549521,106.6410711382
3672,36,"Kota Cilegon",-6.009809018827,106.04212868304
3673,36,"Kota Serang",-6.1196975739996,106.17346069838
3674,36,"Kota Tangerang Selatan",-6.3215679650407,106.70774205744
