code,district_code,regency_code,province_code,name,postal_code,latitude,longitude
6401012009,640101,6401,64,Samurangau,76252,-1.8999978922438,115.86026984297
6401012010,640101,6401,64,Busui,76252,-1.8047395965929,115.81422790476
6401012011,640101,6401,64,"Batu Kajang",76252,-1.8353446855409,115.91943740315
6401012012,640101,6401,64,Legai,76252,-1.8744957137006,115.95565945888
6401012013,640101,6401,64,"Sungai Terik",76252,-1.8119069761354,115.97927823034
6401012014,640101,6401,64,Kasungai,76252,-1.7957609259174,115.92729161593
6401012015,640101,6401,64,"Rantau Buta",76252,-1.7125096219136,115.96140530599
6401012016,640101,6401,64,"Rantau Layung",76252,-1.578367501357,115.98941727112
6401012017,640101,6401,64,Songka,76252,-1.8356457400055,115.88170279116
6401022004,640102,6401,64,Keladen,76260,-2.3013633822791,116.45417739963
6401022006,640102,6401,64,"Tanjung Aru",76260,-2.2218527414143,116.52453775579
6401022007,640102,6401,64,Labuangkallo,76260,-2.143481704111,116.44566239001
6401022012,640102,6401,64,Lori,76260,-2.0661724759384,116.39462643483
6401022013,640102,6401,64,Selengot,76260,-2.1717194310478,116.45135261811
6401022014,640102,6401,64,Random,76260,-2.3279525591299,116.53060864759
6401022015,640102,6401,64,Senipah,76260,-2.3851228603488,116.54399488587
6401032001,640103,6401,64,Lempesu,76271,-1.9604010976024,116.04352840458
6401032002,640103,6401,64,Bekoso,76271,-1.9520391352326,116.09296603871
6401032003,640103,6401,64,Damit,76271,-1.9544363587074,116.14319642036
6401032004,640103,6401,64,Suatang,76271,-2.0177314640523,116.16625240497
6401032005,640103,6401,64,Suliliran,76271,-1.9404212640942,116.26468922251
6401032006,640103,6401,64,"Pasir Belengkong",76271,-2.0088575263848,116.22340982221
6401032007,640103,6401,64,Sangkuriman,76271,-1.9354365233711,116.18514872553
6401032008,640103,6401,64,Laburan,76271,-1.9953802524965,116.34353965434
6401032009,640103,6401,64,"Suliliran Baru",76271,-1.9802900936812,116.25884277148
6401032010,640103,6401,64,"Keresik Bura",76271,-2.0064258829975,116.20262115362
6401032011,640103,6401,64,"Laburan Baru",76271,-1.9676662892898,116.30840503252
6401032012,640103,6401,64,"Seniung Jaya",76271,-2.0237790444093,116.22484002678
6401032013,640103,6401,64,"Sunge Batu",76271,-1.9262190928796,116.39892578045
6401032014,640103,6401,64,"Olong Pinang",76271,-1.967444463925,116.1147294626
6401032015,640103,6401,64,"Suatang Keteban",76271,-1.9698227114153,116.17008612739
6401041001,640104,6401,64,"Tanah Grogot",76251,-1.9064913521094,116.19305063372
6401042002,640104,6401,64,Janju,76251,-1.8304100540278,116.16452494499
6401042003,640104,6401,64,"Tepian Batang",76251,-1.8953647996069,116.17251060705
6401042004,640104,6401,64,"Tanah Periuk",76251,-1.9329510824932,116.20300089171
6401042005,640104,6401,64,Pepara,76251,-1.9285857398055,116.23515553381
6401042006,640104,6401,64,"Sungai Tuak",76251,-1.9167433228083,116.21354310564
6401042007,640104,6401,64,Sempulang,76251,-1.8682715761427,116.14779482619
6401042008,640104,6401,64,Jone,76251,-1.8690654233215,116.21660542968
6401042009,640104,6401,64,"Rantau Panjang",76251,-1.8677220277669,116.27863050244
6401042010,640104,6401,64,"Muara Pasir",76251,-1.8573045026898,116.39599783662
6401042011,640104,6401,64,"Padang Pengrapat",76251,-1.8505614399429,116.24970939585
6401042012,640104,6401,64,Perepat,76251,-1.9800805646783,116.43380352333
6401042013,640104,6401,64,"Pulau Rantau",76251,-1.8946257084983,116.29955218108
6401042014,640104,6401,64,"Sungai Langir",76251,-2.0112901697918,116.43717825429
6401042015,640104,6401,64,Tapis,76251,-1.8798904168071,116.19789126813
6401042016,640104,6401,64,Senaken,76251,-1.9005568018687,116.21461834002
6401051001,640105,6401,64,Kuaro,76281,-1.8297426925332,116.04917604158
6401052002,640105,6401,64,Lolo,76281,-1.8871549150608,116.04270526864
6401052003,640105,6401,64,Sandeley,76281,-1.6907018741876,116.13196974848
6401052004,640105,6401,64,"Harapan Baru",76281,-1.7951223356838,116.40345990394
6401052005,640105,6401,64,Rangan,76281,-1.783998234096,116.109359632
6401052006,640105,6401,64,Modang,76281,-1.7305287132825,116.10886198979
6401052007,640105,6401,64,"Pasir Mayang",76281,-1.7464465815408,116.22254566106
6401052008,640105,6401,64,"Kerta Bumi",76281,-1.7363762580865,116.07600758808
6401052009,640105,6401,64,"Pondong Baru",76281,-1.810527429465,116.28148004127
6401052010,640105,6401,64,"Padang Jaya",76281,-1.801773249043,116.06249629351
6401052011,640105,6401,64,Kendarom,76281,-1.7706902521125,116.08647773747
6401052012,640105,6401,64,"Klempang Sari",76281,-1.8326860121117,116.10751339543
6401052013,640105,6401,64,"Keluang Paser Jaya",76281,-1.8723847902328,116.11437138662
6401061001,640106,6401,64,"Long Ikis",76282,-1.6015358348073,116.20386753419
6401062002,640106,6401,64,"Muara Adang",76282,-1.6707142596655,116.35139248546
6401062003,640106,6401,64,"Teluk Waru",76282,-1.6425301668458,116.29524061819
6401062004,640106,6401,64,Tajur,76282,-1.6775792364368,116.24334005942
6401062005,640106,6401,64,Semuntai,76282,-1.6460953851859,116.11235181946
6401062006,640106,6401,64,Lombok,76282,-1.5816779215946,116.09587444588
6401062007,640106,6401,64,Pait,76282,-1.5877214672639,116.166891811
6401062008,640106,6401,64,Olung,76282,-1.554587809207,116.19774050781
6401062009,640106,6401,64,Kayungo,76282,-1.5038655498604,116.22872172881
6401062010,640106,6401,64,Jemparing,76282,-1.5874620815707,116.2879020739
6401062011,640106,6401,64,Tiwei,76282,-1.4833746556561,116.11989156077
6401062012,640106,6401,64,Belimbing,76282,-1.4344179226093,116.17730881921
6401062013,640106,6401,64,"Long Gelang",76282,-1.5179879768275,116.1006664794
6401062014,640106,6401,64,"Krayan Jaya",76282,-1.5834979182094,116.25228908236
6401062015,640106,6401,64,"Bukit Saloka",76282,-1.6266288627263,116.27002801367
6401062016,640106,6401,64,"Krayan Sentosa",76282,-1.6011174949936,116.27266330194
6401062017,640106,6401,64,"Krayan Makmur",76282,-1.6238326065176,116.24341356624
6401062018,640106,6401,64,"Kayungo Sari",76282,-1.5265713075774,116.20157061226
6401062019,640106,6401,64,"Krayan Bahagia",76282,-1.5877149894614,116.22194253482
6401062020,640106,6401,64,"Sawit Jaya",76282,-1.5836146328216,116.14056160939
6401062021,640106,6401,64,"Sekurou Jaya",76282,-1.5490393967677,116.13743625852
6401062022,640106,6401,64,"Kerta Bhakti",76282,-1.5327011410263,116.16609052669
6401062023,640106,6401,64,"Adang Jaya",76282,-1.6352564075654,116.33944420572
6401062024,640106,6401,64,"Tajer Mulya",76282,-1.5486316925238,116.25063705307
6401062025,640106,6401,64,Brewe,76282,-1.5549616905864,116.12049010486
6401062026,640106,6401,64,"Atang Pait",76282,-1.5905956176973,116.18211183533
6401071001,640107,6401,64,"Muara Komam ",76253,-1.716084610574,115.77029892691
6401072002,640107,6401,64,"Batu Botuk",76253,-1.7079785795004,115.84105800397
6401072003,640107,6401,64,Uko,76253,-1.6617021277488,115.8569345992
6401072004,640107,6401,64,"Muara Langon",76253,-1.6669446732243,115.70176964788
6401072005,640107,6401,64,Binangon,76253,-1.5749423968777,115.70179062999
6401072006,640107,6401,64,"Muara Kuaro",76253,-1.6115238300191,115.83968171968
6401072007,640107,6401,64,Prayon,76253,-1.5821990484543,115.85270616995
6401072008,640107,6401,64,"Long Sayo",76253,-1.4786784789892,115.92429646319
6401072009,640107,6401,64,"Muara Payang",76253,-1.5006724164755,115.82141204723
6401072010,640107,6401,64,Lusan,76253,-1.4397704371532,115.737411744
6401072011,640107,6401,64,"Swan Slutung",76253,-1.3247940478461,115.84488568527
6401072012,640107,6401,64,"Sekuan Makmur",76253,-1.6357882899005,115.72230255637
6401072013,640107,6401,64,Selerong,76253,-1.7218193970421,115.72244603448
6401081001,640108,6401,64,"Long Kali",76283,-1.5077857399776,116.32282198325
6401082002,640108,6401,64,"Muara Telake",76283,-1.6087556192896,116.51807839627
6401082003,640108,6401,64,Sebakung,76283,-1.6011009791293,116.37236040554
6401082004,640108,6401,64,"Bente Tualan",76283,-1.4449702276311,116.34826192659
6401082005,640108,6401,64,Mendik,76283,-1.4361445387155,116.31329191543
6401082006,640108,6401,64,Munggu,76283,-1.3929611902946,116.28900840532
6401082007,640108,6401,64,"Muara Pias",76283,-1.3751942444683,116.25195272027
6401082008,640108,6401,64,"Muara Toyu",76283,-1.1654882867676,116.30229245133
6401082009,640108,6401,64,Perkuwen,76283,-1.3168741727615,116.16177734107
6401082010,640108,6401,64,"Pinang Jatus",76283,-1.4139024675161,116.06940046591
6401082011,640108,6401,64,"Muara Lambakan",76283,-1.2172360285374,116.07694067105
6401082012,640108,6401,64,"Kepala Telake",76283,-1.2326312735156,115.93154242403
6401082013,640108,6401,64,"Mendik Makmur",76283,-1.4536717507479,116.27551999527
6401082014,640108,6401,64,"Mendik Karya",76283,-1.4338996674818,116.25725625183
6401082015,640108,6401,64,"Mendik Bhakti",76283,-1.442570502327,116.23208477287
6401082016,640108,6401,64,"Sebakung Taka",76283,-1.592551875732,116.42938563966
6401082017,640108,6401,64,Maruat,76283,-1.5788046006063,116.52570532979
6401082018,640108,6401,64,"Sebakung Makmur",76283,-1.5628315183506,116.39287778496
6401082019,640108,6401,64,Petiku,76283,-1.6159927354198,116.47057841311
6401082020,640108,6401,64,"Muara Adang II",76283,-1.636760465243,116.3622627232
6401082021,640108,6401,64,"Makmur Jaya",76283,-1.4746676930471,116.26009603747
6401082022,640108,6401,64,"Gunung Putar",76283,-1.506831638388,116.36703696042
6401082023,640108,6401,64,Putang,76283,-1.5310100150431,116.28660763337
6401092001,640109,6401,64,Kerang,76261,-2.2112404309234,116.07909212519
6401092002,640109,6401,64,Lomu,76261,-2.2831004685324,116.24671672254
6401092003,640109,6401,64,Segendang,76261,-2.2974499409417,116.38686514893
6401092004,640109,6401,64,Mengkudu,76261,-2.2924283862292,116.1456730294
6401092005,640109,6401,64,Riwang,76261,-2.2061054794208,116.31714011387
6401092006,640109,6401,64,Langgai,76261,-2.1566635922038,116.22005217238
6401092007,640109,6401,64,Petangis,76261,-2.1117411389634,116.07461232871
6401092008,640109,6401,64,Tempakan,76261,-2.261392625172,116.11450007849
6401092009,640109,6401,64,"Kerang Dayo",76261,-2.2782307044846,115.99433320061
6401092010,640109,6401,64,"Saing Prupuk",76261,-2.0496002202384,116.09712921147
6401092011,640109,6401,64,"Bai Jaya",76261,-2.0935833432151,116.25953715777
6401092012,640109,6401,64,"Pengguren Jaya",76261,-2.3068267138022,116.33220402677
6401092013,640109,6401,64,"Tebru Paser Damai",76261,-2.1620686028426,116.05126077677
6401102001,640110,6401,64,"Tanjung Pinang",76250,-2.2145407835435,115.87753071062
6401102002,640110,6401,64,"Rantau Atas",76250,-2.1569555689645,115.87482114552
6401102003,640110,6401,64,"Libur Dinding",76250,-2.0737297338385,115.85633908215
6401102004,640110,6401,64,Luan,76250,-1.9533531350555,115.99167892093
6401102005,640110,6401,64,Suweto,76250,-2.0136360937586,115.97847393614
6401102006,640110,6401,64,Muser,76250,-2.0308609231515,115.88745425672
6401102007,640110,6401,64,Biu,76250,-1.9877506800651,115.83646736223
6401102008,640110,6401,64,"Rantau Bintungan",76250,-1.9475929748965,115.83879105177
6401102009,640110,6401,64,"Muara Andeh",76250,-2.3039633515961,115.86560185122
6402012001,640201,6402,64,Perian,75562,-0.6163309149272,116.45751422262
6402012002,640201,6402,64,"Muara Leka",75562,-0.4895286424498,116.43461313317
6402012003,640201,6402,64,"Muara Aloh",75562,-0.45289573545532,116.34365055585
6402012004,640201,6402,64,Jantur,75562,-0.41068919977695,116.31139780469
6402012005,640201,6402,64,Batuq,75562,-0.3709500380759,116.3243095764
6402012006,640201,6402,64,"Rebaq Rinding",75562,-0.33729151862041,116.36976504818
6402012007,640201,6402,64,"Muara Muntai Ulu",75562,-0.33607510896724,116.39614458129
6402012008,640201,6402,64,"Muara Muntai Ilir",75562,-0.39599658004113,116.38598625299
6402012009,640201,6402,64,"Kayu Batu",75562,-0.39111169933073,116.42944610436
6402012010,640201,6402,64,"Jantur Selatan",75562,-0.45655201957051,116.27780323255
6402012011,640201,6402,64,"Tanjung Batuq Harapan",75562,-0.3249467148911,116.32060537368
6402012012,640201,6402,64,"Pulau Harapan",75562,-0.38023398797431,116.35818941743
6402012013,640201,6402,64,"Jantur Baru",75562,-0.41004672811047,116.26067054102
6402022001,640202,6402,64,"Jonggon Desa",75571,-0.69911621039278,116.65390346528
6402022002,640202,6402,64,"Sungai Payang",75571,-0.68919377682135,116.85538693064
6402022003,640202,6402,64,Jembayan,75571,-0.58786949195239,116.98944605467
6402022004,640202,6402,64,"Loa Kulu Kota",75571,-0.52343922489583,117.0402776998
6402022005,640202,6402,64,"Loh Sumber",75571,-0.52552553981137,116.98406540022
6402022006,640202,6402,64,Ponoragan,75571,-0.500855311556,117.01092900235
6402022007,640202,6402,64,Rempanga,75571,-0.47765889657145,117.00618588908
6402022008,640202,6402,64,Margahayu,75571,-0.50109419399327,116.81921037479
6402022009,640202,6402,64,"Jonggon Jaya",75571,-0.5517105167358,116.76875152098
6402022010,640202,6402,64,"Lung Anai",75571,-0.61701107017032,116.88738319853
6402022011,640202,6402,64,"Jembayan Tengah",75571,-0.54078018215034,116.95768852793
6402022012,640202,6402,64,"Jembayan Dalam",75571,-0.5622931732112,116.93191581507
6402022013,640202,6402,64,Sepakat,75571,-0.4977645851206,117.01958413973
6402022014,640202,6402,64,"Sumber Sari",75571,-0.50762602039202,116.98877523782
6402022015,640202,6402,64,Jongkang,75571,-0.47008164314972,117.04157793179
6402032001,640203,6402,64,Bakungan,75391,-0.74083904619634,116.94628734969
6402032002,640203,6402,64,"Loa Duri Ulu",75391,-0.72041139058277,116.99199452113
6402032003,640203,6402,64,"Loa Janan Ulu",75391,-0.59712866035835,117.09446670672
6402032004,640203,6402,64,Purwajaya,75391,-0.6337138325743,117.08373712721
6402032005,640203,6402,64,"Tani Bhakti",75391,-0.63859916447331,117.11740962863
6402032006,640203,6402,64,Batuah,75391,-0.76858509174774,117.04483593972
6402032007,640203,6402,64,"Loa Duri Ilir",75391,-0.73917761450233,117.00465159161
6402032008,640203,6402,64,"Tani Harapan",75391,-0.74825329498494,117.12083460267
6402042001,640204,6402,64,Sepatin,75381,-0.76526538246198,117.45615829647
6402042002,640204,6402,64,"Muara Pantuan",75381,-0.61932176009352,117.48356249211
6402042003,640204,6402,64,"Tani Baru",75381,-0.49591077710051,117.53264836892
6402042004,640204,6402,64,"Kutai Lama",75381,-0.57085052356162,117.3277359895
6402042005,640204,6402,64,Anggana,75381,-0.56457855030287,117.28552408022
6402042006,640204,6402,64,"Sungai Meriam",75381,-0.56717303217132,117.2569188371
6402042007,640204,6402,64,Sidomulyo,76131,-0.52188387808688,117.27869132222
6402042008,640204,6402,64,"Handil Terusan",75381,-0.53765160551765,117.37789272578
6402052001,640205,6402,64,Saliki,75382,-0.45027369383352,117.42363354429
6402052002,640205,6402,64,"Salok Palai",75382,-0.39300039785808,117.37652226144
6402052003,640205,6402,64,"Muara Badak Ulu",75382,-0.36119115855064,117.43882770014
6402052004,640205,6402,64,"Muara Badak Ilir",75382,-0.34127055955148,117.42762930821
6402052005,640205,6402,64,"Tanjung Limau",75382,-0.24117958578334,117.40836355483
6402052006,640205,6402,64,"Tanah Datar",75382,-0.34387346499726,117.29342049747
6402052007,640205,6402,64,"Badak Baru",75382,-0.31434932235064,117.40272878831
6402052008,640205,6402,64,"Suka Damai",75382,-0.25067312844472,117.26296916891
6402052009,640205,6402,64,"Badak Mekar",75382,-0.29583268379529,117.26212242685
6402052010,640205,6402,64,"Gas Alam Badak I",75382,-0.33122109038656,117.43267788442
6402052011,640205,6402,64,Batu-Batu,75382,-0.30530741536344,117.34451025931
6402052012,640205,6402,64,"Sallo Cela",75382,-0.23106033209017,117.33757261365
6402052013,640205,6402,64,"Sungai Bawang",75382,-0.33595868144606,117.25038053209
6402061001,640206,6402,64,Jahab,75511,-0.48968984092352,116.93833864551
6402061002,640206,6402,64,"Loa Ipuh",75513,-0.43048437055726,116.95119573783
6402061003,640206,6402,64,"Bukit Biru",75511,-0.47509305114997,116.98404481998
6402061004,640206,6402,64,Timbau,75511,-0.44452087056529,116.99104380427
6402061005,640206,6402,64,Melayu,75512,-0.42562484971409,116.98446464497
6402061006,640206,6402,64,Panji,75514,-0.40653766776077,116.97150680816
6402061007,640206,6402,64,Sukarame,75515,-0.40477919074372,116.9829472369
6402061008,640206,6402,64,"Kampung Baru",75511,-0.39738290484227,116.98402482502
6402061009,640206,6402,64,"Loa Tebu",75511,-0.3394046373013,117.02462633084
6402061010,640206,6402,64,Mangkurawang,75517,-0.37844169585766,116.96574472341
6402061011,640206,6402,64,Maluhu,75511,-0.41516602549814,116.95598859795
6402061013,640206,6402,64,"Loa Ipuh Darat",75511,-0.44599236335769,116.87433611238
6402062012,640206,6402,64,"Rapak Lambur",75511,-0.34053644659039,116.95397916716
6402062014,640206,6402,64,"Bendang Raya",75511,-0.3714490087253,116.91875693381
6402072001,640207,6402,64,Selerong,75552,-0.34639526952507,116.78835665341
6402072002,640207,6402,64,"Tanjung Harapan",75552,-0.35065114040098,116.86055643415
6402072003,640207,6402,64,Beloro,75552,-0.30095619001208,116.91704988123
6402072004,640207,6402,64,"Sebulu Ulu",75552,-0.26303341338556,116.99178285217
6402072005,640207,6402,64,"Sebulu Ilir",75552,-0.24964101705323,117.02008034644
6402072006,640207,6402,64,Segihan,75552,-0.27700577627786,117.03791796253
6402072007,640207,6402,64,"Sumber Sari",75552,-0.18325351287382,116.99228412767
6402072008,640207,6402,64,"Manunggal Daya",75552,-0.16363455011937,116.94927828549
6402072009,640207,6402,64,"Giri Agung",75552,-0.15281860012479,117.07772732789
6402072010,640207,6402,64,Senoni,75552,-0.36806817188777,116.80512024268
6402072011,640207,6402,64,"Sebulu Moderen",75552,-0.25414133674036,116.95968928917
6402072012,640207,6402,64,Sanggulan,75552,-0.40031270869398,116.80924490703
6402072013,640207,6402,64,"Lekaq Kidau",75552,-0.30614560425728,116.82938093793
6402072014,640207,6402,64,"Mekar Jaya",75552,-0.14847800100184,116.97725583742
6402082004,640208,6402,64,Loleng,75561,-0.27204200449221,116.68275178244
6402082005,640208,6402,64,"Kota Bangun Ulu",75561,-0.26249429057933,116.60447835707
6402082006,640208,6402,64,"Kota Bangun Ilir",75561,-0.2546562628524,116.57699375732
6402082007,640208,6402,64,Liang,75561,-0.22292521785161,116.61173880603
6402082008,640208,6402,64,Muhuran,75561,-0.19191269703454,116.55523761569
6402082009,640208,6402,64,Pela,75561,-0.2394720888753,116.50804958275
6402082017,640208,6402,64,"Kedang Murung",75561,-0.32643804072324,116.59391954449
6402082018,640208,6402,64,"Kota Bangun Seberang",75561,-0.27312514538104,116.54734042301
6402082019,640208,6402,64,"Liang Ulu",75561,-0.23533632308867,116.5724434206
6402082020,640208,6402,64,Sebelimbingan,75561,-0.16007843911443,116.52293548667
6402082021,640208,6402,64,Sangkuliman,75561,-0.2578122408987,116.51346502438
6402092001,640209,6402,64,"Lamin Telihan",75564,0.07373560419998,116.11808667313
6402092002,640209,6402,64,"Lamin Pulut",75564,0.029881268099022,116.27211660885
6402092003,640209,6402,64,"Teluk Bingkai",75564,0.07249240673554,116.31501324239
6402092004,640209,6402,64,Kahala,75564,0.049381633048985,116.3307541986
6402092005,640209,6402,64,Tubuhan,75564,-0.12841406906313,116.37180142327
6402092006,640209,6402,64,Semayang,75564,-0.19542816162968,116.43794335993
6402092007,640209,6402,64,"Teluk Muda",75564,-0.11991333920297,116.47284406985
6402092008,640209,6402,64,"Tuana Tuha",75564,-0.035788553324173,116.44803253543
6402092009,640209,6402,64,"Kahala Ilir",75564,-0.062041394886654,116.35147841206
6402102001,640210,6402,64,"Genting Tanah",75557,0.061037628936524,116.45417159195
6402102002,640210,6402,64,"Loa Sakoh",75557,0.11653872377672,116.45248977412
6402102003,640210,6402,64,Hambau,75557,0.21211456310486,116.42957056058
6402102004,640210,6402,64,"Kembang Janggut",75557,0.21966668315799,116.36385050425
6402102005,640210,6402,64,Kelekat,75557,0.31258915908632,116.30683021394
6402102006,640210,6402,64,"Pulau Pinang",75557,0.19304153797679,116.08075441674
6402102007,640210,6402,64,"Long Beleh Haloq",75557,0.26261430386282,115.93751017395
6402102008,640210,6402,64,"Long Beleh Modang",75557,0.43660343486774,116.21069764992
6402102009,640210,6402,64,Muai,75557,0.33595116105204,116.24539757324
6402102010,640210,6402,64,Perdana,75557,0.24085451164991,116.18949395561
6402102011,640210,6402,64,"Bukit Layang",75557,0.21064066285708,116.21558707196
6402112001,640211,6402,64,"Muara Kaman Ilir",75553,-0.18299485275783,116.75566383904
6402112002,640211,6402,64,"Rantau Hempang",75553,-0.21573343936381,116.79918848682
6402112003,640211,6402,64,Teratak,75553,-0.26250002710526,116.86118341635
6402112004,640211,6402,64,"Benua Puhun",75553,-0.28386899341062,116.77405263007
6402112005,640211,6402,64,"Muara Kaman Ulu",75553,-0.10332645037009,116.72238611846
6402112006,640211,6402,64,Sabintulung,75553,-0.066681229870496,116.93134818924
6402112007,640211,6402,64,"Muara Siran",75553,-0.046651851171362,116.60404295871
6402112008,640211,6402,64,Tunjungan,75553,-0.0067301127908973,116.77056216467
6402112009,640211,6402,64,Sedulang,75553,0.1212062725918,116.92586989656
6402112010,640211,6402,64,"Menamang Kiri",75553,0.34793003253425,116.93302458791
6402112011,640211,6402,64,"Menamang Kanan",75553,0.27821327735058,117.07162644048
6402112012,640211,6402,64,Sidomukti,75553,-0.13876927094239,116.91531213223
6402112013,640211,6402,64,"Panca Jaya",75553,-0.17224067407357,116.90712752677
6402112014,640211,6402,64,"Bunga Jadi",75553,-0.19340273456618,116.88812808303
6402112015,640211,6402,64,"Kupang Baru",75553,0.11172822005409,116.61126619682
6402112016,640211,6402,64,"Lebaho Ulaq",75553,-0.34949757547066,116.7331691863
6402112017,640211,6402,64,"Bukit Jering",75553,-0.18126705524726,116.66160589202
6402112018,640211,6402,64,"Liang Buaya",75553,0.054574931223117,116.76993180443
6402112019,640211,6402,64,"Puan Cepak",75553,-0.0029262287510206,116.9816717638
6402112020,640211,6402,64,"Cipari Makmur",75553,-0.15087669050072,116.93193967107
6402122001,640212,6402,64,"Gunung Sari",75558,0.43042803029104,116.16115437603
6402122002,640212,6402,64,"Long Lalang",75558,0.34380220812192,116.07721974946
6402122003,640212,6402,64,"Muara Ritan",75558,0.38466399035944,115.89334979012
6402122004,640212,6402,64,"Buluk Sen",75558,0.46404570908304,116.03097164504
6402122005,640212,6402,64,"Umaq Dian",75558,0.54567560632411,116.09634418977
6402122006,640212,6402,64,"Muara Pedohon",75558,0.60032733774975,116.02400698653
6402122007,640212,6402,64,"Bila Talang",75558,0.63399356661138,116.03201568209
6402122008,640212,6402,64,"Kampung Baru",75558,0.67182085168287,116.1513985951
6402122009,640212,6402,64,"Umaq Tukung",75558,0.60850036627137,116.16263659736
6402122010,640212,6402,64,Sidomulyo,75558,0.71050406624874,116.02902173328
6402122011,640212,6402,64,"Umaq Bekuay",75558,0.533228736697,115.82722057189
6402122012,640212,6402,64,"Tabang Lama",75558,0.70355429035029,115.93915574009
6402122013,640212,6402,64,"Muara Tiq",75558,1.1618716578577,115.82470056699
6402122014,640212,6402,64,"Muara Salung",75558,0.68728267100569,115.82273427582
6402122015,640212,6402,64,"Muara Kebaq",75558,0.71105367059184,115.66302314291
6402122016,640212,6402,64,"Muara Belinau",75558,1.1212487390853,115.98434140188
6402122017,640212,6402,64,"Muara Tubo",75558,0.9813272748116,115.49416352741
6402122018,640212,6402,64,"Ritan Baru",75558,0.43561532591201,116.10416396624
6402122019,640212,6402,64,"Tukung Ritan",75558,0.39332545262662,116.09243544866
6402131007,640213,6402,64,"Sungai Seluang",75271,-1.0040371424649,117.04373043976
6402131008,640213,6402,64,Wonotirto,75276,-1.0394934882952,117.06315132564
6402131009,640213,6402,64,"Tanjung Harapan",75276,-1.0514947308044,117.08510682159
6402131010,640213,6402,64,"Samboja Kuala",75277,-0.99845860784441,117.10245287902
6402131011,640213,6402,64,Sanipah,75271,-0.93038075386241,117.12858570971
6402131012,640213,6402,64,"Handil Baru",75279,-0.906870099602,117.16624168582
6402131013,640213,6402,64,"Muara Sembilang",75279,-0.88945007961862,117.20986430092
6402131021,640213,6402,64,"Teluk Pemedas",75271,-0.97836364314463,117.12396623093
6402131022,640213,6402,64,"Kampung Lama",75276,-1.0037811143434,117.08416140052
6402131023,640213,6402,64,"Handil Baru Darat",75276,-0.88267957945591,117.16606278126
6402132014,640213,6402,64,"Karya Jaya",75271,-1.0415380483022,117.05074603746
6402132016,640213,6402,64,"Bukit Raya",75271,-0.97264581550159,117.0592332082
6402132019,640213,6402,64,"Beringin Agung",75271,-0.95203083068791,117.08352138426
6402141001,640214,6402,64,"Muara Jawa Ilir",75263,-0.87569857870199,117.2220429514
6402141002,640214,6402,64,"Muara Jawa Tengah",75264,-0.85714675610168,117.2279609816
6402141003,640214,6402,64,"Muara Jawa Ulu",75261,-0.81924645726867,117.23422025394
6402141004,640214,6402,64,"Teluk Dalam",75262,-0.82078044185451,117.12486907431
6402141005,640214,6402,64,Dondang,75265,-0.76492474299308,117.22898791284
6402141006,640214,6402,64,"Tama Pole",75266,-0.78308696638574,117.25941668074
6402141007,640214,6402,64,"Muara Kembang",75267,-0.79036812277351,117.30846046781
6402141008,640214,6402,64,"Muara Jawa",75263,-0.83782482785914,117.25084732165
6402151001,640215,6402,64,Jawa,75251,-0.70526361999233,117.20616548389
6402151002,640215,6402,64,Pendingin,75256,-0.66162421076301,117.28126489983
6402151003,640215,6402,64,"Sanga-Sanga Dalam",75254,-0.65770047595998,117.2451400839
6402151004,640215,6402,64,"Sari Jaya",75251,-0.63353227057968,117.25452337002
6402151005,640215,6402,64,"Sanga-Sanga Muara",75251,-0.61835152983715,117.27908030717
6402162001,640216,6402,64,"Manunggal Jaya",75572,-0.38591332392636,117.10992260299
6402162002,640216,6402,64,"Bukit Raya",75572,-0.41425303019557,117.06890957401
6402162003,640216,6402,64,Embalut,75572,-0.34167313280787,117.08762903793
6402162004,640216,6402,64,"Bangun Rejo",75572,-0.35330207832936,117.11369784315
6402162005,640216,6402,64,"Kerta Buana",75572,-0.30877266757794,117.13876721328
6402162006,640216,6402,64,Separi,75572,-0.2911194180328,117.06675414513
6402162007,640216,6402,64,"Bukit Pariaman",75572,-0.23182080741942,117.20226689598
6402162008,640216,6402,64,"Bhuana Jaya",75572,-0.23689639905564,117.1334139151
6402162009,640216,6402,64,Mulawarman,75572,-0.16515045284973,117.1760263713
6402162010,640216,6402,64,"Loa Ulung",75572,-0.3696742624169,117.01973057334
6402162011,640216,6402,64,"Loa Raya",75572,-0.39457227352299,117.01418201838
6402162012,640216,6402,64,Perjiwa,75572,-0.41549477766641,117.02265899698
6402162013,640216,6402,64,"Teluk Dalam",75572,-0.43460742482559,117.01964224761
6402162014,640216,6402,64,"Loa Lepu",75572,-0.44159123777687,117.03799382256
6402162015,640216,6402,64,"Suka Maju",75572,-0.19261675498823,117.10304668467
6402162016,640216,6402,64,"Loa Pari",75572,-0.37799654677433,117.0061630397
6402162017,640216,6402,64,"Karang Tunggal",75572,-0.40495574684983,117.09658044955
6402162018,640216,6402,64,"Tanjung Batu",75572,-0.38484148035797,117.0597701831
6402172001,640217,6402,64,Sebuntal,75385,-0.090273445413527,117.37426719043
6402172002,640217,6402,64,"Santan Ulu",75385,-0.0087666891318573,117.23836642916
6402172003,640217,6402,64,"Santan Tengah",75385,-0.0075052786681342,117.4575526875
6402172004,640217,6402,64,"Santan Ilir",75385,-0.011657946671118,117.49659982785
6402172005,640217,6402,64,Kersik,75385,-0.054669881642119,117.48934150869
6402172006,640217,6402,64,"Bunga Putih",75385,-0.13671221320193,117.39772199162
6402172007,640217,6402,64,Makarti,75385,-0.11141830545529,117.30921946102
6402172008,640217,6402,64,"Prangat Selatan",75385,-0.15598145470787,117.31646225554
6402172009,640217,6402,64,"Prangat Baru",75385,-0.1973546115598,117.29002108583
6402172010,640217,6402,64,Semangko,75385,-0.059995817081175,117.41315700407
6402172011,640217,6402,64,"Sambera Baru",75385,-0.176740643413,117.37950417847
6402182001,640218,6402,64,"Muara Wis",75559,-0.33305025758292,116.50403236352
6402182002,640218,6402,64,Sebemban,75559,-0.32477342671895,116.45236614724
6402182003,640218,6402,64,Melintang,75559,-0.25989699457248,116.3795695684
6402182004,640218,6402,64,Enggelam,75559,-0.099980597205862,116.15049709368
6402182005,640218,6402,64,"Lebak Mantan",75559,-0.42656643670165,116.48855330488
6402182006,640218,6402,64,"Lebak Cilong",75559,-0.4947133837638,116.54476517759
6402182007,640218,6402,64,"Muara Enggelam",75559,-0.24154853543843,116.29682806324
6402192001,640219,6402,64,"Kedang Ipil",75561,-0.46371861395269,116.63823064228
6402192002,640219,6402,64,Sedulang,75561,-0.37499886227337,116.6607445191
6402192003,640219,6402,64,"Benua Baru",75561,-0.47644750278592,116.71395876378
6402192004,640219,6402,64,"Kota Bangun I",75561,-0.35693812177227,116.58703257655
6402192005,640219,6402,64,"Kota Bangun II",75561,-0.38006293138214,116.55361644024
6402192006,640219,6402,64,"Kota Bangun III",75561,-0.41454241944024,116.54422045565
6402192007,640219,6402,64,"Sumber Sari",75561,-0.31883275915797,116.66079330051
6402192008,640219,6402,64,"Sari Nadi",75561,-0.39172248736883,116.72845288893
6402192009,640219,6402,64,"Suka Bumi",75561,-0.36560033448775,116.69470228412
6402192010,640219,6402,64,Wonosari,75561,-0.40360946317548,116.5829118469
6402201001,640220,6402,64,"Bukit Merdeka",75271,-0.92412814775596,117.02203691402
6402201002,640220,6402,64,"Sungai Merdeka",75271,-0.98304823744382,116.95733524283
6402201003,640220,6402,64,"Karya Merdeka",75271,-1.0420721508584,116.91521536787
6402201005,640220,6402,64,"Amborawang Darat",75274,-1.0844086599463,116.99251291052
6402201006,640220,6402,64,"Argo Sari",75271,-1.0796933795325,117.02471161548
6402201007,640220,6402,64,"Salok Api Darat",75271,-1.1116163916259,116.96470135205
6402201008,640220,6402,64,"Salok Api Laut",75271,-1.1228792455372,117.01296706969
6402201009,640220,6402,64,"Amborawang Laut",75274,-1.0968398626232,117.04362767972
6402201010,640220,6402,64,Margomulyo,75273,-1.0456623597207,117.00409658758
6402202004,640220,6402,64,"Tani Bhakti",75271,-1.0836981096763,116.95729046012
6403012001,640301,6403,64,Merabu,77362,1.5132432170325,117.30113503505
6403012002,640301,6403,64,Panaan,77362,1.6945617466488,117.36584690289
6403012003,640301,6403,64,Merapun,77362,1.4910746181744,117.13659830288
6403012004,640301,6403,64,"Muara Lesan",77362,1.7061727478464,117.18883577744
6403012005,640301,6403,64,Merasa,77362,1.7996067813895,117.2326123284
6403012006,640301,6403,64,"Lesan Dayak",77362,1.6451776952924,117.11305874346
6403012007,640301,6403,64,"Long Beliu",77362,1.740367761229,116.91033269819
6403012008,640301,6403,64,"Long Duhung",77362,1.8525785736601,116.98228512581
6403012009,640301,6403,64,"Long Lamcin",77362,1.8290066130236,116.60072435488
6403012010,640301,6403,64,"Long Keluh",77362,1.8817608774866,116.86351770561
6403012011,640301,6403,64,"Long Pelay",77362,1.9258496715956,116.72058522828
6403012012,640301,6403,64,Mapulu,77362,1.5928449213138,116.97749609478
6403012013,640301,6403,64,"Long Sului",77362,2.0239707006885,116.3887439922
6403012014,640301,6403,64,"Sido Bangen",77362,1.6557627946969,117.07765903682
6403022002,640302,6403,64,Dumaring,77375,1.4635262397147,118.16103093497
6403022003,640302,6403,64,Talisayan,77375,1.5987012157529,118.14020263035
6403022014,640302,6403,64,"Campur Sari",77375,1.4722502954491,118.29016518424
6403022015,640302,6403,64,"Bumi Jaya",77375,1.4907988197385,118.25387563187
6403022016,640302,6403,64,"Tunggal Bumi",77375,1.4525162728877,118.23391525286
6403022017,640302,6403,64,"Sumber Mulya",77375,1.5641889703982,118.09151493136
6403022018,640302,6403,64,"Suka Murya",77375,1.5637973748599,118.15743900812
6403022019,640302,6403,64,"Purna Sari Jaya",77375,1.537564572298,118.13525092386
6403022021,640302,6403,64,"Eka Sapta",77375,1.5575040558395,118.11392707578
6403022023,640302,6403,64,Capuak,77375,1.5122743557066,118.2666277912
6403031013,640303,6403,64,Sambaliung,77371,2.1422975523963,117.53103900723
6403032001,640303,6403,64,"Long Lanuk",77371,1.840751459421,117.38179465127
6403032002,640303,6403,64,"Tumbit Dayak",77371,1.9166915502696,117.32944504409
6403032004,640303,6403,64,Inaran,77371,1.8833304389279,117.52582491511
6403032005,640303,6403,64,"Pegat Bukur",77371,2.0332213877143,117.46362202815
6403032006,640303,6403,64,"Rantau Panjang",77371,2.0593780657567,117.50760649401
6403032007,640303,6403,64,Suaran,77371,1.9426111032652,117.63145930663
6403032008,640303,6403,64,Pilanjau,77371,1.946496075905,117.79422114062
6403032009,640303,6403,64,Pesayan,77371,1.9610760670406,117.70074729197
6403032010,640303,6403,64,"Sei Bebanir Bangun",77371,2.1551066797508,117.57926337472
6403032011,640303,6403,64,Gurimbang,77371,2.1034161883839,117.59469783734
6403032012,640303,6403,64,"Sukan Tengah",77371,2.1148960414517,117.67433473226
6403032014,640303,6403,64,"Tanjung Perangat",77371,2.1816601021279,117.63377806799
6403032015,640303,6403,64,"Bena Baru",77371,1.9791663117511,117.34105328907
6403042001,640304,6403,64,"Long La'ai",77361,2.2143897293562,116.7540977613
6403042002,640304,6403,64,"Punan Segah",77361,2.3541218188387,116.60160370247
6403042003,640304,6403,64,"Long Ayap",77361,2.2903989285203,116.8689342068
6403042004,640304,6403,64,"Long Ayan",77361,2.1866092088673,116.95315604268
6403042005,640304,6403,64,"Punan Malinau",77361,2.3742115915368,117.02131791032
6403042006,640304,6403,64,"Punan Mahkam",77361,2.143214830735,116.59402660549
6403042007,640304,6403,64,"Gunung Sari",77361,2.2761788208929,117.16776900679
6403042008,640304,6403,64,"Pandan Sari",77361,2.0790514276572,117.22824625359
6403042009,640304,6403,64,"Bukit Makmur",77361,2.0794611039682,117.19310289647
6403042010,640304,6403,64,"Harapan Jaya",77361,2.1475047483035,117.11794570612
6403042011,640304,6403,64,"Tepian Buah",77361,2.1460409764964,117.04781078533
6403042012,640304,6403,64,"Batu Rajang",77361,2.0276983667557,117.05593433435
6403042013,640304,6403,64,"Siduung Indah",77361,1.9909796383686,117.1207461513
6403051003,640305,6403,64,"Sungai Bedungun",77315,2.1457059950916,117.46307775929
6403051004,640305,6403,64,"Tanjung Redeb",77315,2.1478187976656,117.49078069214
6403051005,640305,6403,64,Bugis,77312,2.159081737157,117.49933475791
6403051006,640305,6403,64,Gayam,77315,2.1503424198835,117.5061554451
6403051007,640305,6403,64,"Karang Ambun",77315,2.1382088432564,117.50316767483
6403051008,640305,6403,64,"Gunung Panjang",77311,2.1311877568615,117.48413768312
6403061003,640306,6403,64,"Gunung Tabur",77352,2.3340667898434,117.52783165833
6403062001,640306,6403,64,Tasuk,77352,2.3042429305802,117.36231228896
6403062002,640306,6403,64,Birang,77352,2.3855569833202,117.47710540016
6403062004,640306,6403,64,Maluang,77352,2.3580516250473,117.57724271149
6403062005,640306,6403,64,Samburakat,77352,2.2616263129134,117.58776525855
6403062006,640306,6403,64,Sambakungan,77352,2.3407685541621,117.64112056765
6403062007,640306,6403,64,"Merancang Ulu",77352,2.2225648668079,117.65110363514
6403062008,640306,6403,64,"Merancang Ilir",77352,2.2578303807782,117.70063697207
6403062009,640306,6403,64,"Pulau Besing",77352,2.1757353988956,117.74462804912
6403062010,640306,6403,64,"Melati Jaya",77352,2.31140506629,117.6831202372
6403062011,640306,6403,64,Batu-Batu,77352,2.2620587387002,117.78567445653
6403072001,640307,6403,64,"Pegat Batumbuk",77380,2.1097779039274,117.82377088003
6403072002,640307,6403,64,"Teluk Semanting",77380,2.2973812838187,117.93705846434
6403072003,640307,6403,64,"Tanjung Batu",77380,2.3188296115372,118.01755401319
6403072004,640307,6403,64,"Pulau Derawan",77380,2.3256315505934,118.22703326741
6403072009,640307,6403,64,Kasai,77380,2.2635496863138,117.88343677469
6403082001,640308,6403,64,Biduk-Biduk,77373,1.1912058777023,118.65436631648
6403082002,640308,6403,64,"Pantai Harapan",77373,1.2840711033776,118.58650247769
6403082003,640308,6403,64,"Tanjung Prepat",77373,1.229641207412,118.54513536019
6403082004,640308,6403,64,"Teluk Sumbang",77373,1.0431265456173,118.83957204404
6403082008,640308,6403,64,"Teluk Sulaiman",77373,1.130074258706,118.75280476152
6403082009,640308,6403,64,Giring-Giring,77373,1.1593337449852,118.7019847457
6403091002,640309,6403,64,"Teluk Bayur",77315,2.1374458022899,117.40531288205
6403091003,640309,6403,64,Rinding,77313,2.1581242969271,117.44808449866
6403092001,640309,6403,64,"Tumbit Melayu",77315,1.9664177311252,117.22257169778
6403092004,640309,6403,64,"Labanan Jaya",77352,2.0802481080661,117.33967727251
6403092005,640309,6403,64,"Labanan Makmur",77352,2.0442259508788,117.2471111002
6403092006,640309,6403,64,"Labanan Makarti",77352,2.0387188743822,117.35574337439
6403102002,640310,6403,64,"Tabalar Muara",77374,1.7203840518489,117.91261800508
6403102003,640310,6403,64,Tubaan,77374,1.739815453496,117.82624266234
6403102004,640310,6403,64,"Tabalar Ulu",77374,1.6272343881761,117.85637355406
6403102005,640310,6403,64,Semurut,77374,1.697534925041,117.6163882859
6403102006,640310,6403,64,Buyung-Buyung,77374,1.8521082053663,117.77077825018
6403102007,640310,6403,64,"Harapan Maju",77374,1.540665844443,117.90872337544
6403112001,640311,6403,64,"Bohe Silian",77381,2.1857343263468,118.62562415155
6403112002,640311,6403,64,Payung-Payung,77381,2.1636132890258,118.55512796442
6403112003,640311,6403,64,"Teluk Alulu",77381,2.2689329268834,118.60813326494
6403112004,640311,6403,64,"Teluk Harapan",77381,2.2692427654831,118.56998411314
6403122001,640312,6403,64,Tembudan,77372,1.3093805243272,118.18412414731
6403122002,640312,6403,64,"Kayu Indah",77372,1.4343436308348,118.31518016568
6403122003,640312,6403,64,"Batu Putih",77373,1.3163278147991,118.38210421894
6403122004,640312,6403,64,"Lobang Kelatak",77373,1.3092779407988,118.40946227515
6403122005,640312,6403,64,"Ampen Medang",77373,1.3274348415774,118.48263356387
6403122006,640312,6403,64,Balikukup,77373,1.5385809030947,118.84635982066
6403122007,640312,6403,64,"Sumber Agung",77372,1.4716326905787,118.32311239462
6403132001,640313,6403,64,"Biatan Ulu",77372,1.4373717512336,117.9701870454
6403132002,640313,6403,64,"Biatan Ilir",77372,1.6112547868059,118.06483214162
6403132003,640313,6403,64,Karangan,77372,1.6664312023939,118.07564713564
6403132004,640313,6403,64,"Biatan Lempake",77372,1.6534959533065,117.99751435779
6403132005,640313,6403,64,"Manunggal Jaya",77372,1.6866240408726,118.01284429933
6403132006,640313,6403,64,"Biatan Bapinang",77372,1.6851585611476,117.94950798623
6403132007,640313,6403,64,"Biatan Baru",77372,1.6966119018475,117.99464828388
6403132008,640313,6403,64,"Bukit Makmur Jaya",77372,1.6379227715965,117.9318000749
6407052008,640705,6407,64,"Linggang Muara Leban",75766,-0.023901369866764,115.57282724726
6407052009,640705,6407,64,"Long Iram Seberang",75766,-0.023748886898093,115.61274231679
6407052010,640705,6407,64,"Long Iram Ilir",75766,-0.033326896640708,115.62429416575
6407052011,640705,6407,64,Anah,75766,-0.047180077455879,115.62131589807
6407052015,640705,6407,64,"Long Daliq",75766,0.026004875373855,115.62798111464
6407052016,640705,6407,64,"Long Iram Kota",75766,-0.013100509831372,115.63343430676
6407052017,640705,6407,64,"Long Iram Bayan",75766,-0.011534638871181,115.61143174794
6407052018,640705,6407,64,Keliwai,75766,0.014176656788435,115.60573148931
6407052019,640705,6407,64,"Ujoh Halang",75766,0.075720074965653,115.5708293054
6407052021,640705,6407,64,"Kelian Luar",75766,0.0067426396866818,115.51593892241
6407052022,640705,6407,64,Sukomulyo,75766,-0.0047126229905719,115.64434001283
6407061006,640706,6407,64,"Melak Ilir",75765,-0.25579486304374,115.83387887667
6407061011,640706,6407,64,"Melak Ulu",75765,-0.23548751746754,115.80721347887
6407062001,640706,6407,64,Empas,75765,-0.31554758375769,115.78813137774
6407062002,640706,6407,64,Empakuq,75765,-0.31467786684723,115.82509488423
6407062003,640706,6407,64,"Muara Bunyut",75765,-0.33444768481291,115.84961340267
6407062012,640706,6407,64,"Muara Benangaq",75765,-0.12903229027513,115.75968839043
6407071001,640707,6407,64,"Barong Tongkok",75776,-0.23174261948461,115.6752561101
6407071021,640707,6407,64,"Simpang Raya",75776,-0.25938358187828,115.69553890462
6407072002,640707,6407,64,Mencimai,75776,-0.28201587192011,115.66537442225
6407072003,640707,6407,64,"Engkuni Pasek",75776,-0.30372143938584,115.64954375163
6407072004,640707,6407,64,"Pepas Eheng",75776,-0.28833601374643,115.61831647698
6407072006,640707,6407,64,"Juhan Asa",75776,-0.2047453266948,115.59366309663
6407072007,640707,6407,64,Asa,75776,-0.19747103933483,115.66631612531
6407072008,640707,6407,64,"Pepes Asa",75776,-0.15441644996031,115.68394923191
6407072009,640707,6407,64,"Muara Asa",75776,-0.12946177570295,115.70703145439
6407072010,640707,6407,64,"Ongko Asa",75776,-0.16700501453126,115.70522398796
6407072011,640707,6407,64,"Juaq Asa",75776,-0.18092911894925,115.67958667345
6407072012,640707,6407,64,"Ombau Asa",75776,-0.19346872003489,115.71777677161
6407072013,640707,6407,64,"Ngenyan Asa",75776,-0.21554565808147,115.7489106599
6407072014,640707,6407,64,"Gemuhan Asa",75776,-0.18757076804681,115.77646743787
6407072015,640707,6407,64,"Geleo Baru",75776,-0.16836957649273,115.76358699483
6407072016,640707,6407,64,"Geleo Asa",75776,-0.15269913703028,115.74098985364
6407072017,640707,6407,64,"Rejo Basuki",75776,-0.27354612222314,115.67322639484
6407072018,640707,6407,64,"Sumber Sari",75776,-0.23648401241865,115.71779832733
6407072019,640707,6407,64,Sendawar,75776,-0.20412425688424,115.78935345559
6407072020,640707,6407,64,"Balok Asa",75776,-0.21668111992746,115.63177299994
6407072022,640707,6407,64,"Belempung Ulaq",75776,-0.23381904705316,115.74488092093
6407082001,640708,6407,64,Besiq,75777,-0.74586998680489,115.43585469988
6407082002,640708,6407,64,Bermai,75777,-0.74688817115501,115.58827830159
6407082003,640708,6407,64,"Muara Niliq",75777,-0.59587117694835,115.45466421492
6407082004,640708,6407,64,Mantar,75777,-0.51504395735824,115.42092109925
6407082005,640708,6407,64,"Muara Bomboy",75777,-0.49738225433717,115.68359866802
6407082006,640708,6407,64,"Damai Seberang",75777,-0.46769385860188,115.69797200057
6407082007,640708,6407,64,Mendika,75777,-0.45955773383045,115.71714727463
6407082008,640708,6407,64,"Damai Kota",75777,-0.45044249347479,115.7032299261
6407082009,640708,6407,64,"Lumpat Dahuq",75777,-0.46785660988576,115.61459038878
6407082010,640708,6407,64,"Muara Tokong",75777,-0.41131043371121,115.62617816785
6407082011,640708,6407,64,"Jengan Danum",75777,-0.38495720916346,115.70810807112
6407082012,640708,6407,64,Keay,75777,-0.34398512344757,115.72052936697
6407082013,640708,6407,64,Tapulang,75777,-0.38443989420757,115.65868879926
6407082014,640708,6407,64,Benung,75777,-0.34318408982808,115.65430461722
6407082020,640708,6407,64,"Muara Nyahing",75777,-0.49408336971253,115.64188516271
6407082021,640708,6407,64,Sempatn,75777,-0.4164602882015,115.69526840364
6407082022,640708,6407,64,Kelian,75777,-0.47436013671768,115.50739805416
6407092001,640709,6407,64,"Muara Begai",75775,-0.59374709563013,115.70931325169
6407092002,640709,6407,64,Lotaq,75775,-0.54450813511128,115.76868868419
6407092003,640709,6407,64,Payang,75775,-0.51425226377816,115.73223302286
6407092004,640709,6407,64,Dingin,75775,-0.49169071019977,115.81753380089
6407092005,640709,6407,64,"Muara Lawa",75775,-0.47605586118985,115.76132002166
6407092006,640709,6407,64,Lambing,75775,-0.42563791379835,115.78942383059
6407092007,640709,6407,64,Benggeris,75775,-0.41663650970816,115.73901098907
6407092008,640709,6407,64,Cempedes,75775,-0.48668947803251,115.73165940751
6407102015,640710,6407,64,"Jerang Dayak",75774,-0.45539192112868,115.85084062251
6407102016,640710,6407,64,Mendung,75774,-0.42584103475371,115.85381694419
6407102017,640710,6407,64,"Jerang Melayu",75774,-0.41264696747532,115.85435021376
6407102018,640710,6407,64,Dasaq,75774,-0.41020887803085,115.89934664105
6407102020,640710,6407,64,"Tepian Ulaq",75774,-0.27143085003609,116.12032026048
6407102021,640710,6407,64,Sebelang,75774,-0.28397440997733,116.03833572706
6407102022,640710,6407,64,"Muara Baroh",75774,-0.37918934745028,116.08015009331
6407102023,640710,6407,64,"Teluk Tempudau",75774,-0.39477289444772,116.05922743638
6407102024,640710,6407,64,"Tanjung Laong",75774,-0.37202550367092,116.01181129685
6407102025,640710,6407,64,"Tanjung Pagar",75774,-0.30863167082365,115.96578814703
6407102029,640710,6407,64,"Gunung Bayan",75774,-0.41564547999292,115.97514603362
6407102030,640710,6407,64,"Muara Beloan",75774,-0.34072413330975,115.91732057928
6407112001,640711,6407,64,Pentat,75773,-0.64895288283769,116.10133981185
6407112002,640711,6407,64,Lembonah,75773,-0.65246863764455,116.06704842874
6407112003,640711,6407,64,"Muara Nayan",75773,-0.56154542347782,116.09033336245
6407112004,640711,6407,64,Mancong,75773,-0.53438815106161,116.04481479268
6407112005,640711,6407,64,Perigiq,75773,-0.48156502004595,116.03534011868
6407112006,640711,6407,64,"Muara Ohong",75773,-0.43828542778613,116.10334053777
6407112007,640711,6407,64,"Tanjung Jone",75773,-0.47078463766189,116.11841739218
6407112008,640711,6407,64,"Tanjung Isuy",75773,-0.52169272075673,116.12528054379
6407112009,640711,6407,64,"Tanjung Jan",75773,-0.53735976807752,116.16197331584
6407112010,640711,6407,64,"Pulau Lanting",75773,-0.52060219278139,116.21262052977
6407112011,640711,6407,64,"Muara Tae",75773,-0.61623171737795,116.03097714538
6407112012,640711,6407,64,"Bekokong Makmur",75773,-0.66534860967904,116.12486636682
6407122001,640712,6407,64,Gerungung,75772,-1.0413532057706,116.0480665093
6407122002,640712,6407,64,"Pereng Taliq",75772,-0.90288386729153,116.33715588904
6407122003,640712,6407,64,"Tanjung Soke",75772,-1.029850748509,116.14730293165
6407122004,640712,6407,64,Deraya,75772,-0.98028854372346,116.18324302407
6407122005,640712,6407,64,Lemper,75772,-0.89951585816188,116.15187094698
6407122006,640712,6407,64,"Muara Siram",75772,-0.80353195024273,116.14844253937
6407122007,640712,6407,64,Resak,75772,-0.6761983844528,116.16913770253
6407122008,640712,6407,64,Jambuk,75772,-0.76205871192469,116.38508011633
6407122009,640712,6407,64,"Muara Gusik",75772,-0.70351309988643,116.34987420788
6407122010,640712,6407,64,Penawai,75772,-0.65106689344743,116.22813349102
6407122011,640712,6407,64,"Muara Kedang",75772,-0.59198401624602,116.29948787376
6407122012,640712,6407,64,"Jambuk Makmur",75772,-0.73811090119863,116.27069351408
6407122014,640712,6407,64,"Siram Makmur",75772,-0.74360970034544,116.21310993142
6407122015,640712,6407,64,"Siram Jaya",75772,-0.72116906303378,116.16031047853
6407122016,640712,6407,64,"Bukit Harapan",75772,-0.76458473519034,116.24902906081
6407122019,640712,6407,64,"Tanjung Sari",75772,-0.70683106020253,116.23804929056
6407132001,640713,6407,64,"Loa Deras",75763,-0.34680798648522,116.29180498336
6407132002,640713,6407,64,Minta,75763,-0.33810797997429,116.25883027298
6407132003,640713,6407,64,"Tanjung Haur",75763,-0.39841339737633,116.20568198815
6407132004,640713,6407,64,"Penyinggahan Ilir",75763,-0.41957046485273,116.21100305174
6407132005,640713,6407,64,"Penyinggahan Ulu",75763,-0.34935789546189,116.20542657581
6407132006,640713,6407,64,Bakung,75763,-0.3923215229439,116.2671490128
6407142001,640714,6407,64,"Randa Empas",75778,-1.0811269545613,115.75342959497
6407142002,640714,6407,64,Tukuq,75778,-1.0317668408978,115.69218337544
6407142003,640714,6407,64,Tende,75778,-1.0517945709773,115.7853127369
6407142004,640714,6407,64,Sambung,75778,-0.98400207663421,115.7100670529
6407142005,640714,6407,64,"Anan Jaya",75778,-0.89917641690103,115.6572738374
6407142006,640714,6407,64,"Jelmu Sibak",75778,-0.91360582382913,115.76088835988
6407142007,640714,6407,64,Suakong,75778,-0.79702476052534,115.75580006159
6407142008,640714,6407,64,Penarung,75778,-0.652319844255,115.71761138564
6407142009,640714,6407,64,"Dilang Puti",75778,-0.71170839057544,115.73220341902
6407152001,640715,6407,64,"Linggang Melapeh Baru",75576,-0.13821696508737,115.54337303376
6407152002,640715,6407,64,"Linggang Bigung Baru",75576,-0.12880912638051,115.59244502446
6407152003,640715,6407,64,"Linggang Tutung",75576,-0.036824529867857,115.41573524167
6407152004,640715,6407,64,"Linggang Melapeh",75576,-0.1749498944299,115.55793351971
6407152005,640715,6407,64,"Linggang Mapan",75576,-0.17306733556234,115.61801966985
6407152006,640715,6407,64,"Linggang Bigung",75576,-0.14383246477459,115.62305181163
6407152007,640715,6407,64,"Linggang Amer",75576,-0.14506356971639,115.66117648743
6407152008,640715,6407,64,"Linggang Bangunsari",75576,-0.14139245656939,115.643266442
6407152009,640715,6407,64,"Linggang Purwodadi",75576,-0.14690692427125,115.60596040652
6407152010,640715,6407,64,"Linggang Mencelew",75576,-0.1133404353588,115.66024503174
6407152011,640715,6407,64,"Linggang Kebut",75576,-0.11721186119755,115.63423848036
6407162001,640716,6407,64,Dempar,75777,-0.41291812722389,115.45315541775
6407162002,640716,6407,64,Temula,75777,-0.27291561155793,115.53151334468
6407162003,640716,6407,64,Jontai,75777,-0.3434384143684,115.49514377906
6407162004,640716,6407,64,Sembuan,75777,-0.34465578039548,115.39872056706
6407162005,640716,6407,64,"Intu Lingau",75777,-0.24101785396723,115.33147357734
6407162006,640716,6407,64,Mu'ut,75776,-0.298833714569,115.59733645964
6407162007,640716,6407,64,Terajuk,75776,-0.32731047182266,115.58253165708
6407162008,640716,6407,64,"Lakan Bilem",75776,-0.14754352089419,115.42724475431
6407162009,640716,6407,64,Sentalar,75776,-0.40883346180424,115.55893970501
6407162010,640716,6407,64,Awai,75776,-0.25063266927736,115.58078489433
6407172001,640717,6407,64,Tebisaq,75771,-0.45735298151693,115.97784705285
6407172002,640717,6407,64,Kaliq,75771,-0.47408126018397,115.92039533452
6407172003,640717,6407,64,"Tanah Mea",75771,-0.48276999901527,115.96274591922
6407172004,640717,6407,64,Sang-Sang,75771,-0.51147935724963,115.93447939891
6407172005,640717,6407,64,Muhur,75771,-0.54547983004713,115.94000842481
6407172006,640717,6407,64,"Muara Kelawit",75771,-0.56941754714513,115.90915885774
6407172007,640717,6407,64,Bentas,75771,-0.57151518878665,115.86227206972
6407172008,640717,6407,64,Betung,75771,-0.65245565079167,115.8545512383
6407172009,640717,6407,64,Kiaq,75771,-0.71368287002916,115.85541254587
6407172010,640717,6407,64,Tendiq,75771,-0.76716226329307,115.85758134789
6407172011,640717,6407,64,Penawang,75771,-0.80447027634949,115.88872457777
6407172012,640717,6407,64,"Lendian Liang Nayuq",75771,-0.98756701153052,115.89290303907
6407172013,640717,6407,64,Kenyanyan,75771,-0.64105093632535,115.92683294139
6407172014,640717,6407,64,Rikong,75771,-0.76647923509985,115.98800208158
6407172015,640717,6407,64,Kendisiq,75771,-0.92837167036494,115.99623873496
6407172016,640717,6407,64,"Muara Ponaq",75771,-0.65375735920082,115.98901824429
6407182001,640718,6407,64,"Sakaq Lotoq",75765,-0.095894016679737,115.93334366849
6407182002,640718,6407,64,"Sakaq Tada",75765,-0.25583604501364,115.88413149205
6407182003,640718,6407,64,Gemuruh,75765,-0.23147801062113,115.87105344765
6407182004,640718,6407,64,Karangan,75765,-0.20430258991126,115.84869187657
6407182005,640718,6407,64,Merayaq,75765,-0.11532286609184,115.82027388541
6407182006,640718,6407,64,"Linggang Marimun",75765,-0.03957904769094,115.81752499157
6407182007,640718,6407,64,Kelumpang,75765,-0.17278528582802,115.82282996786
6407182008,640718,6407,64,Gadur,75765,-0.24649181377252,115.91026580423
6407182009,640718,6407,64,"Linggang Muara Batuq",75765,0.095416709060633,115.85889127342
6407182010,640718,6407,64,"Muara Jawaq",75774,-0.21813899093883,115.94019425159
6407182011,640718,6407,64,Abit,75774,-0.17404530200292,115.99587042953
6407182012,640718,6407,64,Rembayan,75774,-0.28494512235326,115.92443834009
6407182014,640718,6407,64,"Gunung Rampah",75765,-0.13874112853507,115.90875514292
6407182015,640718,6407,64,Jengan,75765,-0.11195495970104,115.87480092515
6407182016,640718,6407,64,"Muara Kalaq",75765,-0.10572721745483,115.76765543409
6407182017,640718,6407,64,Tondoh,75774,-0.25197176310496,115.95779000321
6407192001,640719,6407,64,"Tering Baru",75760,-0.068993294648763,115.65557190113
6407192002,640719,6407,64,"Tering Lama",75760,-0.050961260674187,115.66520168185
6407192003,640719,6407,64,"Linggang Tering Seberang",75760,-0.083532576600668,115.6298794897
6407192004,640719,6407,64,Tukul,75760,0.12178038968135,115.71728125648
6407192005,640719,6407,64,"Linggang Kelubaq",75760,-0.092103469611634,115.5999220006
6407192006,640719,6407,64,"Linggang Purworejo",75760,-0.088806032558561,115.64514948075
6407192007,640719,6407,64,"Linggang Jelemuq",75760,-0.070865681071765,115.68447210275
6407192008,640719,6407,64,"Kelian Dalam",75760,-0.066443046553803,115.52030548566
6407192009,640719,6407,64,"Linggang Muara Mujan",75760,-0.079386293509341,115.56600894907
6407192010,640719,6407,64,"Muyub Ulu",75760,-0.026840254340398,115.69909097683
6407192011,640719,6407,64,"Muyub Aket",75760,-0.028490569038736,115.73758867508
6407192013,640719,6407,64,"Linggang Muyub Ilir",75760,-0.088065159389753,115.72281296421
6407192014,640719,6407,64,"Gabung Baru",75760,-0.039772055709467,115.71082512454
6407192015,640719,6407,64,"Linggang Banjarejo",75760,-0.099244840011823,115.67123048796
6407192016,640719,6407,64,"Tering Lama Ulu",75760,-0.045973723678914,115.6451174581
6407202001,640720,6407,64,"Sekolaq Joleq",75764,-0.26057974086094,115.73074310079
6407202002,640720,6407,64,"Sekolaq Muliaq",75764,-0.25278625414685,115.77391800877
6407202003,640720,6407,64,"Sekolaq Oday",75764,-0.23904692004043,115.77198042191
6407202004,640720,6407,64,Srimulyo,75764,-0.27561997612536,115.7610979097
6407202005,640720,6407,64,"Sember Bangun",75764,-0.2449617997573,115.72890952715
6407202006,640720,6407,64,"Sumber Rejo",75764,-0.28667462776845,115.77573139561
6407202007,640720,6407,64,"Sekolaq Darat",75764,-0.30382729961691,115.73786748164
6407202008,640720,6407,64,Leleng,75764,-0.26160183360034,115.79350500839
6408012001,640801,6408,64,Senyiur,75656,0.30346957499824,116.53741556305
6408012002,640801,6408,64,"Kelinjau Ilir",75656,0.44594525734241,116.48849303973
6408012003,640801,6408,64,"Kelinjau Ulu",75556,0.53631241536481,116.47918326476
6408012004,640801,6408,64,"Long Nah",75656,0.55342721163619,116.61525054849
6408012006,640801,6408,64,"Long Tesak",75656,0.62748052000993,116.5468675006
6408012009,640801,6408,64,"Gemar Baru",75656,0.58760619264589,116.6137092088
6408012012,640801,6408,64,"Long Poq Baru",75656,0.67962284109743,116.48861390113
6408012013,640801,6408,64,"Muara Dun",75656,0.64627053588916,116.66985260273
6408012014,640801,6408,64,"Teluk Baru",75656,0.55489827490269,116.56442827902
6408022001,640802,6408,64,"Jak Luay",75655,1.0002777482561,116.98932601113
6408022002,640802,6408,64,"Nehes Liah Bing",75655,1.4690666362963,116.72076721507
6408022003,640802,6408,64,"Muara Wahau",75655,1.0543702018085,116.83871859952
6408022004,640802,6408,64,Dabeq,75655,1.0145729900472,116.76210935171
6408022005,640802,6408,64,"Diaq Lay",75655,1.0619369739578,116.7760164816
6408022006,640802,6408,64,Benhes,75655,1.4621108746859,116.42103403595
6408022007,640802,6408,64,Wanasari,75655,1.0992086255941,116.89978143394
6408022008,640802,6408,64,"Wahau Baru",75655,1.0736555383833,116.89035415836
6408022009,640802,6408,64,"Karya Bhakti",75655,1.0416651063198,116.91046273256
6408022010,640802,6408,64,"Long Wehea",75655,1.011848459049,116.83896965082
6408032001,640803,6408,64,Senambah,75656,0.33593557414986,116.77769223238
6408032002,640803,6408,64,Ngayau,75656,0.39803658088389,116.80014870878
6408032003,640803,6408,64,"Muara Bengkal Ilir",75656,0.42639161547846,116.80937101934
6408032004,640803,6408,64,"Muara Bengkal Ulu",75656,0.4406858614147,116.82149028273
6408032005,640803,6408,64,"Benua Baru",75656,0.47565357558175,116.83621657113
6408032013,640803,6408,64,Mulupan,75656,0.24850413442208,116.76378926569
6408032014,640803,6408,64,"Batu Balai",75656,0.51979914576315,116.81657199582
6408041010,640804,6408,64,"Teluk Lingga ",75681,0.52299030445575,117.58670924377
6408042001,640804,6408,64,"Sangatta Utara",75681,0.4860698529155,117.5736829431
6408042011,640804,6408,64,"Singa Gembara",75681,0.55786073422856,117.60447608476
6408042012,640804,6408,64,"Swarga Bara",75681,0.58543359957752,117.48067620088
6408052001,640805,6408,64,Kerayaan,75686,1.0895353505287,118.20740141282
6408052002,640805,6408,64,"Tanjung Manis",75686,0.96485539408544,118.09023478631
6408052003,640805,6408,64,Peridan,75686,0.99929136844053,118.03294189952
6408052004,640805,6408,64,Saka,75686,1.1092393191192,118.11375234955
6408052005,640805,6408,64,"Mandu Dalam",75686,1.1325053130957,118.00707495081
6408052006,640805,6408,64,"Benua Baru Ilir",75686,0.95669476850655,117.92857664882
6408052011,640805,6408,64,Sempayau,75686,1.1366510604509,117.86060727055
6408052012,640805,6408,64,Pelawan,75686,1.2077678135844,117.89296636952
6408052013,640805,6408,64,"Tepian Terap",75686,1.2349154907811,117.94178417519
6408052015,640805,6408,64,Maloy,75686,0.85190117872774,117.98488894591
6408052016,640805,6408,64,"Benua Baru Ulu",75686,1.0218901039121,117.96122628715
6408052017,640805,6408,64,Kolek,75686,1.0106108774797,117.9159980041
6408052018,640805,6408,64,"Pulau Miang",75686,0.72887418793491,118.01054248513
6408052019,640805,6408,64,Perupuk,75686,0.92479920513363,118.14129987098
6408052020,640805,6408,64,"Mandu Pantai Sejahtera",75686,1.0811108603515,118.02833700015
6408062001,640806,6408,64,"Long Bentuq",75556,0.74317712837081,116.61864905677
6408062002,640806,6408,64,"Long Pejeng",75556,0.79628427526934,116.58514229657
6408062003,640806,6408,64,"Long Lees",75556,0.78485499994878,116.50298304009
6408062004,640806,6408,64,"Mekar Baru",75556,1.0474667547568,116.23955269961
6408062005,640806,6408,64,"Rantau Sentosa",75556,0.77321048994828,116.62042118834
6408062006,640806,6408,64,"Long Nyelong",75556,0.76559073877678,116.42731098069
6408072001,640807,6408,64,"Marah Haloq",75554,1.0723412192004,116.62094605875
6408072002,640807,6408,64,"Lung Melah",75554,0.98535751294143,116.59457558687
6408072003,640807,6408,64,"Juk Ayaq",75554,0.92357483798285,117.09898334264
6408072004,640807,6408,64,"Long Segar",75554,0.84542205414093,117.00416799441
6408072005,640807,6408,64,"Long Noran",75554,0.78366269577408,116.89115546324
6408072006,640807,6408,64,"Muara Pantun",75554,0.91864137637126,116.91869063741
6408072007,640807,6408,64,"Rantau Panjang",75554,0.93528700594895,116.85638850808
6408072008,640807,6408,64,Kernyanyan,75554,0.80169564132384,116.84639774572
6408082001,640808,6408,64,"Makmur Jaya",75555,1.1226779632424,116.99980306229
6408082002,640808,6408,64,"Marga Mulya",75555,1.0889568395809,116.92239669129
6408082003,640808,6408,64,Sukamaju,75555,1.0914507488749,117.03693977003
6408082004,640808,6408,64,Sidomulyo,75555,1.056578655166,116.94092769035
6408082005,640808,6408,64,"Sri Pantun",75555,1.0546791685823,116.9672707493
6408082006,640808,6408,64,"Kombeng Indah",75555,1.0569716730392,117.00577674831
6408082007,640808,6408,64,"Miau Baru",75555,1.3099258078748,117.03680388746
6408092001,640809,6408,64,Sepaso,75618,0.7678936227722,117.56533506174
6408092002,640809,6408,64,Sekerat,75618,0.83071626434667,117.70831746966
6408092003,640809,6408,64,Keraitan,75618,0.91077838465891,117.57165536306
6408092004,640809,6408,64,"Tepian Langsat",75618,0.98063451430065,117.30333992537
6408092005,640809,6408,64,"Tebangan Lembak",75618,0.89452207993695,117.46490309522
6408092006,640809,6408,64,"Sepaso Timur",75618,0.78333974656316,117.62370198395
6408092007,640809,6408,64,"Sepaso Selatan",75618,0.66677672039015,117.54696926843
6408092008,640809,6408,64,"Muara Bengalon",75618,0.65051252344641,117.66556494105
6408092009,640809,6408,64,"Tepian Baru",75618,0.73118291773035,117.25374399297
6408092010,640809,6408,64,"Tepian Indah",75618,0.67863050985236,117.30873725228
6408092011,640809,6408,64,"Sepaso Barat",75618,0.76452907264733,117.53686415435
6408102001,640810,6408,64,Kaliorang,75617,0.83894044029564,117.9184608132
6408102006,640810,6408,64,"Bukit Makmur",75617,0.90895225805877,117.83834618767
6408102007,640810,6408,64,"Bukit Harapan",75617,0.86257395230733,117.84191530787
6408102008,640810,6408,64,"Citra Manunggal Jaya",75617,0.90108881262717,117.88061638715
6408102009,640810,6408,64,"Bangun Jaya",75617,0.87087801678553,117.87269805993
6408102010,640810,6408,64,"Bumi Sejahtera",75617,0.90423373373498,117.92176621239
6408102013,640810,6408,64,Selangkau,75617,0.8433682978281,117.81534345848
6408112001,640811,6408,64,Sandaran,75685,0.9445768120962,118.78261684898
6408112002,640811,6408,64,Manubar,75685,0.89376748576322,118.59448761457
6408112003,640811,6408,64,Tadoan,75685,1.071920680263,118.55966563829
6408112004,640811,6408,64,Marukangan,75685,1.060532785275,118.37798815062
6408112005,640811,6408,64,"Susuk Luar",75685,0.88275598804912,118.21719316646
6408112006,640811,6408,64,"Susuk Dalam",75685,1.0111827888255,118.23792136049
6408112007,640811,6408,64,"Tanjung Mangkaliat",75685,0.98438090810641,118.93217434016
6408112008,640811,6408,64,"Manubar Dalam",75685,0.93901873958642,118.49120190302
6408112009,640811,6408,64,"Susuk Tengah",75685,0.92628100474377,118.2105273242
6408121002,640812,6408,64,"Singa Geweh ",75680,0.43765569304354,117.56561675934
6408122001,640812,6408,64,"Sangatta Selatan",75680,0.49314582509428,117.28284596119
6408122003,640812,6408,64,Sangkima,75680,0.39814823514967,117.33205101805
6408122004,640812,6408,64,"Teluk Singkama",75680,0.33686226211095,117.38111080827
6408132001,640813,6408,64,"Teluk Pandan",75682,0.23842958635459,117.34771274136
6408132002,640813,6408,64,"Suka Rahmat",75682,0.14774466565865,117.34252413859
6408132003,640813,6408,64,"Suka Damai",75682,0.11100035128945,117.29614228015
6408132004,640813,6408,64,Kandolo,75682,0.29226503290497,117.35679297867
6408132005,640813,6408,64,"Danau Redan",75682,0.056022801894233,117.32318719071
6408132006,640813,6408,64,Martadinata,75682,0.18466220629152,117.32853004972
6408142001,640814,6408,64,"Mukti Jaya",75683,0.60630755207268,117.34358671635
6408142002,640814,6408,64,"Pulung Sari",75683,0.64704509898956,117.31689764192
6408142003,640814,6408,64,"Margo Mulyo",75683,0.62983949975258,117.33404668159
6408142004,640814,6408,64,"Rantau Makmur",75683,0.54091143226819,117.28068235602
6408142005,640814,6408,64,"Manunggal Jaya",75683,0.64939660405643,117.17019132628
6408142006,640814,6408,64,"Tanjung Labu",75683,0.60368852007535,117.1397711975
6408142007,640814,6408,64,"Kebon Agung",75683,0.55445652683304,117.19209117689
6408142008,640814,6408,64,"Tepian Makmur",75683,0.73362136857709,117.14444981021
6408142009,640814,6408,64,"Masalap Raya",75683,0.58634448437256,117.3360769697
6408152001,640815,6408,64,"Bumi Etam",75619,1.0898193343363,117.85176472677
6408152002,640815,6408,64,"Bumi Rapak",75619,1.0444258062479,117.8366141304
6408152003,640815,6408,64,"Bumi Jaya",75619,1.0040864411499,117.80135027732
6408152004,640815,6408,64,"Cipta Graha",75619,0.96748637091362,117.76986894283
6408152005,640815,6408,64,"Kadungan Jaya",75619,1.1703055763974,117.83203632548
6408152006,640815,6408,64,"Pengadan Baru",75619,1.20532899018,117.79609616582
6408152007,640815,6408,64,"Mata Air",75619,1.0821332380078,117.79226743988
6408152008,640815,6408,64,"Bukit Permata",75619,1.0646136140113,117.7325358796
6408162001,640816,6408,64,"Karangan Dalam",75684,1.4174917842637,117.45001660072
6408162002,640816,6408,64,"Batu Lepoq",75684,1.4822750521034,117.77339496132
6408162003,640816,6408,64,Pengadan,75684,1.164648846303,117.68402843989
6408162004,640816,6408,64,Baay,75684,1.135162006812,117.48150411256
6408162005,640816,6408,64,"Mukti Lestari",75684,1.3239756104413,117.77896808153
6408162006,640816,6408,64,"Karangan Seberang",75684,1.3260976525408,117.64058701306
6408162007,640816,6408,64,"Karangan Hilir",75684,1.5198045533346,117.65100966248
6408172001,640817,6408,64,"Batu Timbau",75654,0.63835161356787,116.83874462476
6408172002,640817,6408,64,"Beno Harapan",75654,0.65935378105951,116.9218132111
6408172003,640817,6408,64,"Mugi Rahayu",75654,0.75033349072887,116.88624501452
6408172004,640817,6408,64,"Mawai Indah",75654,0.56359216648077,116.90846179542
6408172005,640817,6408,64,"Himba Lestari",75654,0.67582932883364,116.96046581607
6408172006,640817,6408,64,Telaga,75654,0.62061748882394,116.79123894108
6408172007,640817,6408,64,"Batu Timbau Ulu",75654,0.68793811643236,116.79912773673
6408182001,640818,6408,64,"Sika Makmur",75656,0.67142976474018,116.70831719882
6408182002,640818,6408,64,"Segoy Makmur",75656,0.63773023598016,116.71777586142
6408182003,640818,6408,64,"Mukti Utama",75656,0.6000041181069,116.68782122583
6408182004,640818,6408,64,"Sumber Sari",75656,0.58224382849078,116.70610915888
6408182005,640818,6408,64,Melan,75656,0.70565435702713,116.68619271186
6408182006,640818,6408,64,"Tanah Abang",75654,0.53131489677016,116.71775640219
6408182007,640818,6408,64,"Sumber Agung",75654,0.55550965618398,116.75541495957
6409011001,640901,6409,64,"Tanjung Tengah",76143,-1.3895572154805,116.66481083292
6409011002,640901,6409,64,"Salo Loang",76143,-1.3659170062192,116.70935008112
6409011003,640901,6409,64,Petung,76144,-1.3392332423767,116.63817713161
6409011004,640901,6409,64,Lawe-lawe,76142,-1.3037330917081,116.70063593965
6409011005,640901,6409,64,Pejala,76143,-1.3612196784262,116.73167211313
6409011006,640901,6409,64,"Kampung Baru",76143,-1.3562816319537,116.75437648712
6409011007,640901,6409,64,Sesumpu,76142,-1.3424805658667,116.74366945617
6409011008,640901,6409,64,"Sungai Parit",76142,-1.3197857255949,116.74481131445
6409011009,640901,6409,64,Nipah-Nipah,76142,-1.2984268768697,116.7325987441
6409011010,640901,6409,64,Nenang,76141,-1.2721569760244,116.73273500005
6409011011,640901,6409,64,Penajam,76141,-1.256253528271,116.76837709654
6409011012,640901,6409,64,"Gunung Seteleng",76141,-1.2475132995112,116.74736605845
6409011013,640901,6409,64,Buluminung,76144,-1.2408379785773,116.65447890761
6409011014,640901,6409,64,Sotek,76144,-1.2173676735365,116.55207151643
6409011015,640901,6409,64,Sepan,76145,-1.1679472056459,116.63192449517
6409011016,640901,6409,64,Riko,76145,-1.1178021465614,116.52317604623
6409011017,640901,6409,64,Gersik,76145,-1.1891696151775,116.71579861736
6409011018,640901,6409,64,Jenebora,76146,-1.1786403786089,116.74780121248
6409011019,640901,6409,64,"Pantai Lango",76146,-1.1541603162357,116.71088872673
6409012020,640901,6409,64,"Giri Mukti",76141,-1.3192772967871,116.67825926212
6409012021,640901,6409,64,"Bukit Subur",76141,-1.139668325079,116.54388595713
6409012022,640901,6409,64,Sidorejo,76143,-1.3699818551753,116.67574012887
6409012023,640901,6409,64,"Giri Purwa",76143,-1.3149967438896,116.65385788078
6409021003,640902,6409,64,Waru,76284,-1.2559023551771,116.49606478959
6409022001,640902,6409,64,Api-api,76284,-1.3511245363538,116.44207499352
6409022002,640902,6409,64,Sesulu,76284,-1.3115268611424,116.47573642768
6409022004,640902,6409,64,"Bangun Mulya",76284,-1.3623246236131,116.58517912091
6409032001,640903,6409,64,"Babulu Darat",76285,-1.454659260255,116.42329434196
6409032002,640903,6409,64,Labangka,76285,-1.4132871974407,116.4604584712
6409032003,640903,6409,64,"Babulu Laut",76285,-1.5375141859443,116.51344055381
6409032004,640903,6409,64,"Gunung Intan",76285,-1.5325377215068,116.43522309827
6409032005,640903,6409,64,"Gunung Makmur",76285,-1.5427965281697,116.37835210007
6409032006,640903,6409,64,"Sebakung Jaya",76285,-1.5504304606614,116.46483584252
6409032007,640903,6409,64,"Rawa Mulia",76285,-1.5842323780933,116.47100960498
6409032008,640903,6409,64,"Sri Raharja",76285,-1.5789834329109,116.45065854798
6409032009,640903,6409,64,"Sumber Sari",76285,-1.5666748057778,116.42024625297
6409032010,640903,6409,64,Rintik,76285,-1.4581597935921,116.38391096332
6409032011,640903,6409,64,"Gunung Mulia",76285,-1.5317396191179,116.40384026777
6409032012,640903,6409,64,"Labangka Barat",76285,-1.4645105998606,116.47176746123
6409041005,640904,6409,64,Sepaku,76148,-0.84925797519084,116.71897430551
6409041006,640904,6409,64,Pemaluan,76147,-1.0201520755902,116.60723889387
6409041007,640904,6409,64,Maridan,76146,-1.1101754085206,116.68758444509
6409041008,640904,6409,64,Mentawir,76149,-1.0186071487269,116.79513201091
6409042001,640904,6409,64,"Tengin Baru",76147,-0.88143542599219,116.83273603812
6409042002,640904,6409,64,"Bukit Raya",76147,-0.90016446617094,116.70593025129
6409042003,640904,6409,64,"Suka Raja",76147,-0.93341740213919,116.77951383185
6409042004,640904,6409,64,"Bumi Harapan",76147,-0.92392693672871,116.58309134372
6409042009,640904,6409,64,"Argo Mulyo",76147,-0.92931420074483,116.84459935285
6409042010,640904,6409,64,"Semoi Dua",76147,-0.95309099100484,116.89527810035
6409042011,640904,6409,64,"Suko Mulyo",76147,-0.8976411313272,116.89404323272
6409042012,640904,6409,64,"Wono Sari",76147,-0.97207045811691,116.82830419401
6409042013,640904,6409,64,"Karang Jinawi",76148,-0.84375557121512,116.8033832236
6409042014,640904,6409,64,Binuang,76147,-1.0731883753372,116.66793675403
6409042015,640904,6409,64,Telemow,76147,-1.0704501636319,116.69245374747
6411012001,641101,6411,64,"Long Hurai",75767,0.39608928822452,115.45286258382
6411012002,641101,6411,64,"Long Melaham",75767,0.39375556290165,115.22891520548
6411012003,641101,6411,64,"Memahak Besar",75767,0.62811570251792,115.4502509358
6411012004,641101,6411,64,"Memahak Ulu",75767,0.52328677888097,115.36919740987
6411012005,641101,6411,64,"Batu Majang",75767,0.72487853616564,115.27618743036
6411012006,641101,6411,64,"Ujoh Bilang",75767,0.54960329903506,115.25747411055
6411012007,641101,6411,64,"Long Bagun Ilir",75767,0.50974153838551,115.09740761415
6411012008,641101,6411,64,"Long Bagun Ulu",75767,0.6419325511049,115.12595755122
6411012009,641101,6411,64,"Batoq Kelo",75767,0.97605669957873,115.12734990459
6411012010,641101,6411,64,"Long Merah",75767,0.53036058260663,115.61572875664
6411012011,641101,6411,64,"Rukun Damai",75767,0.40546602068702,115.42759872235
6411022001,641102,6411,64,"Long Hubung",75770,0.23250866290147,115.42522970035
6411022002,641102,6411,64,"Memahak Teboq",75770,0.1865260918099,115.57848137784
6411022003,641102,6411,64,Lutan,75770,0.092388481153112,115.34458694625
6411022004,641102,6411,64,Matalibaq,75770,0.35109113861243,115.63178505448
6411022005,641102,6411,64,"Datah Bilang Ilir",75770,0.17317560806854,115.44662147897
6411022006,641102,6411,64,"Datah Bilang Ulu",75770,0.21965120153142,115.45688597332
6411022007,641102,6411,64,"Tri Pariq Makmur",75770,0.3839733465922,115.50839304861
6411022008,641102,6411,64,"Wana Pariq",75770,0.39118612774191,115.57636662363
6411022009,641102,6411,64,"Datah Bilang Baru",75770,0.20059237023894,115.46414951803
6411022010,641102,6411,64,Sirau,75770,0.19472142890004,115.53771143167
6411022011,641102,6411,64,"Long Hubung Ulu",75770,0.29933622277431,115.43752268208
6411032001,641103,6411,64,Laham,75779,0.29788772511272,115.10932039693
6411032002,641103,6411,64,"Long Gelawang",75779,-0.040013142273675,115.14340348634
6411032003,641103,6411,64,"Muara Ratah",75779,0.16815480584966,114.94970136999
6411032004,641103,6411,64,"Danum Paroy",75779,0.17369663601,115.23959457733
6411032005,641103,6411,64,Nyaribungan,75779,-0.0011471359576473,114.99025006758
6411042001,641104,6411,64,"Long Penaneh I",75769,0.71585222043855,113.95170046707
6411042002,641104,6411,64,"Long Kerioq",75769,0.75089430072638,114.11754824838
6411042003,641104,6411,64,"Long Penaneh II",75769,0.77981146322476,114.0257389885
6411042004,641104,6411,64,"Tiong Ohang",75769,0.73698491691026,114.26686773473
6411042005,641104,6411,64,"Long Penaneh III",75769,0.74791565039173,114.07475460635
6411042006,641104,6411,64,"Tiong Bu'u",75769,0.90080088517707,114.25101294082
6411042007,641104,6411,64,"Naha Buan",75769,0.83455060557926,114.00356148937
6411042008,641104,6411,64,"Naha Tifab",75769,0.98208737584827,113.96713113092
6411042009,641104,6411,64,"Naha Silat",75769,0.82564520033216,114.12410986478
6411042010,641104,6411,64,"Long Apari",75769,1.1845968282744,114.26025722695
6411052001,641105,6411,64,"Delang Kerohong",75768,0.71077275145951,114.48221487435
6411052002,641105,6411,64,"Long Pakaq",75768,0.6700066439028,114.40124773599
6411052003,641105,6411,64,"Long Lunuk",75768,0.7195319325656,114.57969802299
6411052004,641105,6411,64,"Long Isun",75768,1.0367327788888,114.51948258737
6411052005,641105,6411,64,"Naha Aru",75768,0.9425441001052,114.64426986814
6411052006,641105,6411,64,"Datah Naha",75768,0.82546842763777,114.64113127519
6411052007,641105,6411,64,"Lirung Ubing",75768,0.81449086828531,114.60073113702
6411052008,641105,6411,64,"Long Pahangai I",75768,0.78787000220211,114.72124493226
6411052009,641105,6411,64,"Long Pahangai II",75768,0.90909610713134,114.68844463987
6411052010,641105,6411,64,"Long Tuyoq",75768,1.1315759433484,114.81907595663
6411052011,641105,6411,64,"Liu Mulang",75768,0.88535413965463,114.78098689389
6411052012,641105,6411,64,"Long Pakaq Baru",75768,0.79137929478061,114.46204375437
6411052013,641105,6411,64,"Long Lunuk Baru",75768,0.86756092452027,114.47715400769
6471011001,647101,6471,64,Manggar,76116,-1.2144233438876,116.93774218034
6471011002,647101,6471,64,Lamaru,76117,-1.1698885109659,116.95728604091
6471011003,647101,6471,64,Teritip,76118,-1.1462188573109,116.97973149627
6471011004,647101,6471,64,"Manggar Baru",76116,-1.2074919049999,116.96735838605
6471021001,647102,6471,64,"Baru Ilir",76131,-1.2351986957827,116.82574813767
6471021002,647102,6471,64,"Baru Tengah",76132,-1.2302644648122,116.81688043226
6471021003,647102,6471,64,"Baru Ulu",76133,-1.2239410967734,116.81434798879
6471021004,647102,6471,64,Kariangau,76134,-1.1108073992456,116.81146987266
6471021005,647102,6471,64,"Margo Mulyo",76131,-1.2241218479217,116.82586120977
6471021006,647102,6471,64,"Marga Sari",76131,-1.2372140226485,116.82190698412
6471031001,647103,6471,64,"Batu Ampar",76136,-1.2140946634591,116.84791474436
6471031002,647103,6471,64,Gunungsamarinda,76125,-1.2340103921763,116.84869743556
6471031003,647103,6471,64,"Karang Joang",76127,-1.1403820272431,116.88692093778
6471031004,647103,6471,64,Muararapak,76125,-1.2273053530428,116.83481084079
6471031005,647103,6471,64,"Gunungsamarinda Baru",76128,-1.2348126023619,116.86492717043
6471031006,647103,6471,64,"Graha Indah",76129,-1.2030434185318,116.87333511083
6471041001,647104,6471,64,"Gunungsari Ulu",76122,-1.2571610726966,116.84803028863
6471041002,647104,6471,64,"Gunungsari Ilir",76121,-1.2672100678001,116.83807289742
6471041003,647104,6471,64,"Karang Rejo",76124,-1.2446825444944,116.84025050657
6471041004,647104,6471,64,"Karang Jati",76123,-1.2479625401087,116.82577591968
6471041005,647104,6471,64,"Mekar Sari",76122,-1.2576010498353,116.83567504945
6471041006,647104,6471,64,"Sumber Rejo",76124,-1.2481470892052,116.85004053916
6471051002,647105,6471,64,Sepinggan,76115,-1.2414394340208,116.91461536732
6471051006,647105,6471,64,Gunungbahagia,76114,-1.2403420215539,116.88108295845
6471051008,647105,6471,64,"Sepinggan Baru",76115,-1.2294295822761,116.89589631315
6471051009,647105,6471,64,"Sepinggan Raya",76115,-1.2618407538536,116.8964472955
6471051010,647105,6471,64,Sungainangka,76114,-1.2593178428878,116.87810115234
6471051011,647105,6471,64,"Damai Baru",76114,-1.2484767689434,116.86589543524
6471051012,647105,6471,64,"Damai Bahagia",76114,-1.2685302390146,116.86745796222
6471061001,647106,6471,64,Prapatan,76111,-1.2673028544781,116.81722611131
6471061002,647106,6471,64,"Telaga Sari",76111,-1.2686594930371,116.82756057214
6471061003,647106,6471,64,"Klandasan Ulu",76112,-1.2756265418098,116.83012662874
6471061004,647106,6471,64,"Klandasan Ilir",76113,-1.2712939545749,116.84401197819
6471061005,647106,6471,64,Damai,76114,-1.2647791078264,116.85556607991
6472011001,647201,6472,64,"Rawa Makmur",75243,-0.57219373850491,117.1774950645
6472011002,647201,6472,64,"Handil Bakti",75242,-0.61840065300735,117.16682922282
6472011003,647201,6472,64,Bukuan,75241,-0.59172707232103,117.21992934638
6472011004,647201,6472,64,"Simpang Pasir",75243,-0.57764231081847,117.13824857231
6472011005,647201,6472,64,Bantuas,75253,-0.65217079381009,117.20365983905
6472021001,647202,6472,64,"Sungai Keledang",75131,-0.51637670618409,117.12814939187
6472021002,647202,6472,64,Baqa,75131,-0.50924634448224,117.13974979748
6472021003,647202,6472,64,Mesjid,75133,-0.51861788019055,117.15156372671
6472021009,647202,6472,64,Mangkupalas,75133,-0.53086039640994,117.14970657412
6472021010,647202,6472,64,"Tenun Samarinda",75133,-0.51328234203035,117.1484085486
6472021011,647202,6472,64,"Gunung Panjang",75131,-0.53490239169795,117.12165060541
6472031001,647203,6472,64,"Teluk Lerong Ilir",75128,-0.49597771086506,117.13253628984
6472031002,647203,6472,64,Jawa,75122,-0.49781916066874,117.13826174387
6472031004,647203,6472,64,"Air Putih",75124,-0.4800065626346,117.12069740915
6472031005,647203,6472,64,Sidodadi,75123,-0.48099359406976,117.14158395067
6472031006,647203,6472,64,"Air Hitam",75124,-0.4404450233432,117.12021981937
6472031007,647203,6472,64,"Dadi Mulya",75123,-0.48841505647243,117.14521547357
6472031008,647203,6472,64,"Gunung Kelua",75123,-0.46667605864746,117.14660898678
6472031009,647203,6472,64,"Bukit Pinang",75124,-0.45110493801189,117.09689654872
6472041001,647204,6472,64,Selili,75114,-0.51909980031945,117.15899191467
6472041002,647204,6472,64,"Sungai Dama",75115,-0.50752106144662,117.1617680935
6472041003,647204,6472,64,Sidomulyo,75116,-0.49483572170479,117.16449954342
6472041013,647204,6472,64,Sidodamai,75116,-0.49977284769826,117.16866494973
6472041014,647204,6472,64,Pelita,75117,-0.48815724555557,117.15825011406
6472051002,647205,6472,64,"Sempaja Selatan",75119,-0.45924036877649,117.1580151971
6472051003,647205,6472,64,Lempake,75118,-0.40538307860215,117.19631080619
6472051004,647205,6472,64,"Sungai Siring",75118,-0.38998157476932,117.2664601199
6472051010,647205,6472,64,"Sempaja Utara",75119,-0.37399830432699,117.16090238672
6472051011,647205,6472,64,"Tanah Merah",75119,-0.43956907152676,117.23422230791
6472051012,647205,6472,64,"Sempaja Barat",75119,-0.44572764559841,117.14783545269
6472051013,647205,6472,64,"Sempaja Timur",75119,-0.43835011734945,117.16379941433
6472051014,647205,6472,64,"Budaya Pampang",75118,-0.35387019454468,117.22120068212
6472061001,647206,6472,64,"Loa Bakung",75126,-0.52624018163913,117.08403450434
6472061002,647206,6472,64,"Loa Buah",75126,-0.55992292149093,117.0723282986
6472061003,647206,6472,64,"Karang Asam Ulu",75126,-0.52059215309524,117.1071183883
6472061004,647206,6472,64,"Lok Bahu",75125,-0.48478387591985,117.08000899716
6472061005,647206,6472,64,"Teluk Lerong Ulu",75127,-0.49953086353817,117.12452782067
6472061006,647206,6472,64,"Karang Asam Ilir",75126,-0.50854658947535,117.11139761957
6472061007,647206,6472,64,"Karang Anyar",75125,-0.50014301929904,117.1166898628
6472071001,647207,6472,64,"Sungai Kapih",75114,-0.53243579063777,117.17463571144
6472071002,647207,6472,64,Sambutan,75115,-0.50561841262296,117.20485125473
6472071003,647207,6472,64,Makroman,75115,-0.51719674091747,117.24327008021
6472071004,647207,6472,64,"Sindang Sari",75114,-0.55053812641407,117.25177374026
6472071005,647207,6472,64,"Pulau Atas",75114,-0.55102905736737,117.20796261031
6472081001,647208,6472,64,"Temindung Permai",75119,-0.47271368399638,117.16081123441
6472081002,647208,6472,64,"Sungai Pinang Dalam",75117,-0.47961520651379,117.1717590375
6472081003,647208,6472,64,"Gunung Lingai",75119,-0.44716208346054,117.1790606323
6472081004,647208,6472,64,Mugirejo,75119,-0.47770612498929,117.19944267271
6472081005,647208,6472,64,Bandara,75119,-0.48411406580169,117.15443260402
6472091001,647209,6472,64,"Karang Mumus",75113,-0.50523981099171,117.15572635878
6472091002,647209,6472,64,Pelabuhan,75112,-0.50227548438079,117.15169094273
6472091003,647209,6472,64,"Pasar Pagi",75111,-0.50173798145671,117.14642936131
6472091004,647209,6472,64,Bugis,75121,-0.49663098157165,117.14507905911
6472091005,647209,6472,64,"Sungai Pinang Luar",75117,-0.49383564315985,117.15409344934
6472101001,647210,6472,64,"Simpang Tiga",75131,-0.57234814948815,117.10308609881
6472101002,647210,6472,64,"Tani Aman",75131,-0.58651191419218,117.10602772739
6472101003,647210,6472,64,Sengkotek,75131,-0.5535961690256,117.09377841132
6472101004,647210,6472,64,"Harapan Baru",75131,-0.55444302669466,117.11380870521
6472101005,647210,6472,64,"Rapak Dalam",75131,-0.53591465978732,117.1355018058
6474011001,647401,6474,64,"Bontang Kuala",75312,0.13357681075797,117.50849187213
6474011002,647401,6474,64,"Bontang Baru",75311,0.1441407683154,117.49370904179
6474011003,647401,6474,64,"Lok Tuan",75314,0.16491718727862,117.47435564327
6474011004,647401,6474,64,Guntung,75314,0.18850727851796,117.48784354893
6474011005,647401,6474,64,"Gunung Elai ",75311,0.14284541006631,117.47878589644
6474011006,647401,6474,64,Api-api,75311,0.13086521938528,117.49004187168
6474021001,647402,6474,64,"Tanjung Laut",75321,0.12314193438341,117.4850216781
6474021002,647402,6474,64,"Berbas Tengah ",75325,0.11620471222673,117.47899016665
6474021003,647402,6474,64,"Berbas Pantai",75325,0.11040972712733,117.48427647773
6474021004,647402,6474,64,Satimpo,75324,0.10708595890506,117.46178280601
6474021005,647402,6474,64,"Bontang Lestari",75325,0.055894527812297,117.44437251646
6474021006,647402,6474,64,"Tanjung Laut Indah",75325,0.11730444593758,117.49619015097
6474031001,647403,6474,64,Belimbing,75313,0.15127486209442,117.45734613743
6474031002,647403,6474,64,"Gunung Telihan",75383,0.13660673838109,117.4526493094
6474031003,647403,6474,64,Kanaan,75383,0.12346815541385,117.44685232988
