code,province_code,name,latitude,longitude
9103,91,"Kab. Jayapura",-2.5498717752817,140.47710271224
9105,91,"Kab. Kepulauan Yapen",-1.8740668033535,136.23707760339
9106,91,"Kab. Biak Numfor",-1.1707086060827,136.09019287112
9110,91,"Kab. Sarmi",,
9111,91,"Kab. Keerom",-2.9087252628072,140.77334129533
9115,91,"Kab. Waropen",-2.2408409305864,136.37945018106
9119,91,"Kab. Supiori",-0.73068195134406,135.73264158493
9120,91,"Kab. Mamberamo Raya",,
9171,91,"Kota Jayapura",-2.5626261642156,140.6926330958
