[
    {
        "code": 1801,
        "province_code": 18,
        "name": "Kab. Lampung Selatan",
        "latitude": -5.529926934004818,
        "longitude": 105.501200140475
    },
    {
        "code": 1802,
        "province_code": 18,
        "name": "Kab. Lampung Tengah",
        "latitude": -4.856302771215638,
        "longitude": 105.27207781855606
    },
    {
        "code": 1803,
        "province_code": 18,
        "name": "Kab. Lampung Utara",
        "latitude": -4.796778717707592,
        "longitude": 104.80737472768482
    },
    {
        "code": 1804,
        "province_code": 18,
        "name": "Kab. Lampung Barat",
        "latitude": -5.050568820235404,
        "longitude": 104.25297641678011
    },
    {
        "code": 1805,
        "province_code": 18,
        "name": "Kab. Tulang Bawang",
        "latitude": -4.373165939862394,
        "longitude": 105.5275912460887
    },
    {
        "code": 1806,
        "province_code": 18,
        "name": "Kab. Tanggamus",
        "latitude": -5.428085811322719,
        "longitude": 104.6740608564361
    },
    {
        "code": 1807,
        "province_code": 18,
        "name": "Kab. Lampung Timur",
        "latitude": -5.13133389224478,
        "longitude": 105.64898947995604
    },
    {
        "code": 1808,
        "province_code": 18,
        "name": "Kab. Way Kanan",
        "latitude": -4.5142834776970036,
        "longitude": 104.60616276999274
    },
    {
        "code": 1809,
        "province_code": 18,
        "name": "Kab. Pesawaran",
        "latitude": -5.4734843036879495,
        "longitude": 105.1151924227345
    },
    {
        "code": 1810,
        "province_code": 18,
        "name": "Kab. Pringsewu",
        "latitude": -5.336360914336617,
        "longitude": 104.93340517060112
    },
    {
        "code": 1811,
        "province_code": 18,
        "name": "Kab. Mesuji",
        "latitude": -4.024841985201618,
        "longitude": 105.3783745759004
    },
    {
        "code": 1812,
        "province_code": 18,
        "name": "Kab. Tulang Bawang Barat",
        "latitude": -4.425704117530834,
        "longitude": 105.08743965872556
    },
    {
        "code": 1813,
        "province_code": 18,
        "name": "Kab. Pesisir Barat",
        "latitude": -5.335530555285279,
        "longitude": 104.16283965328627
    },
    {
        "code": 1871,
        "province_code": 18,
        "name": "Kota Bandar Lampung",
        "latitude": -5.414197179985902,
        "longitude": 105.26213192728358
    },
    {
        "code": 1872,
        "province_code": 18,
        "name": "Kota Metro",
        "latitude": -5.117295169703863,
        "longitude": 105.30795827899183
    }
]