code,district_code,regency_code,province_code,name,postal_code,latitude,longitude
1801042001,180104,1801,18,Hajimena,35362,-5.3522829865944,105.2251949247
1801042002,180104,1801,18,Sidosari,35362,-5.3273855568886,105.24354662945
1801042003,180104,1801,18,Pemanggilan,35362,-5.340008637891,105.21639260692
1801042004,180104,1801,18,Natar,35362,-5.3298217510378,105.20272935622
1801042005,180104,1801,18,"Muara Putih",35362,-5.2806710656285,105.2374488219
1801042006,180104,1801,18,"Negara Ratu",35362,-5.3194361404325,105.17435151648
1801042007,180104,1801,18,"Merak Batin",35362,-5.3109493404377,105.20813214981
1801042008,180104,1801,18,"Tanjung Sari",35362,-5.2900176811232,105.20751749836
1801042009,180104,1801,18,"Bumi Sari",35362,-5.2859343969964,105.19070770879
1801042010,180104,1801,18,"Candi Mas",35362,-5.266536766714,105.18815061059
1801042011,180104,1801,18,"Branti Raya",35362,-5.2422260996581,105.18367729093
1801042012,180104,1801,18,Haduyang,35362,-5.2211729931423,105.1707659366
1801042013,180104,1801,18,"Banjar Negeri",35362,-5.217694125633,105.18099921128
1801042014,180104,1801,18,Mandah,35362,-5.2152118623314,105.19940470883
1801042015,180104,1801,18,"Rulung Helok",35362,-5.1967068770561,105.21447719571
1801042016,180104,1801,18,Bandarejo,35362,-5.2270463771813,105.28090433382
1801042017,180104,1801,18,"Suka Damai",35362,-5.232060786588,105.31932917875
1801042018,180104,1801,18,Purwosari,35362,-5.2160184172175,105.2664293803
1801042019,180104,1801,18,Pancasila,35362,-5.2527915412161,105.26659233889
1801042020,180104,1801,18,Rejosari,35362,-5.2892871496875,105.14852214132
1801042021,180104,1801,18,"Rulung Raya",35362,-5.2275333049981,105.24240474884
1801042022,180104,1801,18,"Krawang Sari",35362,-5.2883816279753,105.25539480932
1801042023,180104,1801,18,"Wai Sari",35362,-5.2554807642705,105.20999916661
1801042024,180104,1801,18,"Kali Sari",35362,-5.2958413240178,105.22663837893
1801042025,180104,1801,18,"Rulung Sari",35362,-5.2345824786332,105.22154426177
1801042026,180104,1801,18,"Rulung Mulya",35362,-5.19140741582,105.26160101678
1801052001,180105,1801,18,Kaliasin,35361,-5.4276909858528,105.3523460629
1801052003,180105,1801,18,Lematang,35361,-5.3811169357138,105.36364199374
1801052004,180105,1801,18,Sukanegara,35361,-5.3953879611825,105.36263842044
1801052005,180105,1801,18,Serdang,35361,-5.4128311513453,105.39543427027
1801052006,180105,1801,18,"Sinar Ogan",35361,-5.4388170860498,105.42434980134
1801052007,180105,1801,18,"Jati Baru",35361,-5.428581066761,105.4310038827
1801052008,180105,1801,18,"Sabah Balau",35361,-5.3791188115891,105.33030025309
1801052009,180105,1801,18,"Budi Lestari",35361,-5.4176313485985,105.47567421143
1801052010,180105,1801,18,Trimulyo,35361,-5.3939278051592,105.46744674746
1801052011,180105,1801,18,"Jati Indah",35361,-5.4058520913271,105.41325463621
1801052012,180105,1801,18,"Way Galih",35361,-5.3594164073587,105.35635507446
1801052013,180105,1801,18,"Sindang Sari",35361,-5.362570201123,105.38936842487
1801052015,180105,1801,18,"Purwodadi Simpang",35361,-5.3435878283124,105.42599912419
1801052021,180105,1801,18,"Galih Lunik",35361,-5.42730968598,105.37967482408
1801052022,180105,1801,18,Rejomulyo,35361,-5.3838384535417,105.40070787602
1801052023,180105,1801,18,"Sri Katon",35361,-5.4068403640493,105.43955352044
1801061006,180106,1801,18,"Bumi Agung",35551,-5.7424420479466,105.59576405336
1801061007,180106,1801,18,Kalianda,35551,-5.7392886652394,105.59182783954
1801061008,180106,1801,18,"Way Urang",35551,-5.7051805782188,105.57557776768
1801061028,180106,1801,18,"Wai Lubuk",35551,-5.676861359086,105.57798523253
1801062001,180106,1801,18,Jondong,35551,-5.7730561834788,105.60655761543
1801062002,180106,1801,18,Tengkujuh,35551,-5.7692484831835,105.6008816778
1801062003,180106,1801,18,"Pauh Tanjung Iman",35551,-5.7649284481439,105.60525304394
1801062004,180106,1801,18,"Sumur Kumbang",35551,-5.7563696582271,105.61125322552
1801062005,180106,1801,18,Maja,35551,-5.7547701209755,105.59405920991
1801062009,180106,1801,18,"Buah Berak",35551,-5.7447795045767,105.60172574314
1801062010,180106,1801,18,Kesugihan,35551,-5.7385971435263,105.60766406271
1801062011,180106,1801,18,Pematang,35551,-5.7482829883718,105.61875021978
1801062012,180106,1801,18,Kecapi,35551,-5.7461168123258,105.6258496115
1801062013,180106,1801,18,Babulang,35551,-5.7474427403534,105.63392875634
1801062014,180106,1801,18,Sukaratu,35551,-5.7276292200201,105.62261957008
1801062015,180106,1801,18,Palembapang,35551,-5.7202444492363,105.64465511148
1801062016,180106,1801,18,Tajimalela,35551,-5.6878199663843,105.63275163297
1801062017,180106,1801,18,Canggu,35551,-5.6980984190916,105.61189854331
1801062018,180106,1801,18,Kedaton,35551,-5.7037542352361,105.59390439072
1801062019,180106,1801,18,"Merak Belatung",35551,-5.6668566503939,105.53164558968
1801062020,180106,1801,18,Bulok,35551,-5.6490863230862,105.50610597307
1801062021,180106,1801,18,"Munjuk Sampurna",35551,-5.6267723603811,105.53945632794
1801062022,180106,1801,18,"Gunung Terang",35551,-5.6522509059548,105.54618140355
1801062023,180106,1801,18,Margacatur,35551,-5.6512454090921,105.6370939368
1801062024,180106,1801,18,Sukatani,35551,-5.6589342446957,105.60615851187
1801062025,180106,1801,18,Agom,35551,-5.6482307634755,105.58136937207
1801062026,180106,1801,18,"Negeri Pandan",35551,-5.7068291004591,105.63786356725
1801062027,180106,1801,18,"Taman Agung",35551,-5.6319034785824,105.56828008203
1801062029,180106,1801,18,"Hara Banjar Manis",35551,-5.6966133190568,105.60107358456
1801072001,180107,1801,18,"Bandar Dalam",35352,-5.5682094841921,105.45197649317
1801072002,180107,1801,18,"Campang Tiga",35352,-5.5638683243256,105.48297850133
1801072003,180107,1801,18,"Talang Baru",35352,-5.5787698086762,105.48153087065
1801072004,180107,1801,18,"Suka Banjar",35352,-5.5949567343978,105.481761139
1801072005,180107,1801,18,"Kota Dalam",35352,-5.6097253485715,105.50002057675
1801072006,180107,1801,18,Budidaya,35352,-5.6275565831909,105.49480569434
1801072007,180107,1801,18,"Siring Jaha",35352,-5.6379707551576,105.48052221977
1801072008,180107,1801,18,Suak,35352,-5.6298079941099,105.45627189407
1801072009,180107,1801,18,Sukamaju,35352,-5.6160017461785,105.51770745067
1801072010,180107,1801,18,Sukamarga,35352,-5.6193317367111,105.52852874098
1801072011,180107,1801,18,Seloretno,35352,-5.6008595359213,105.51496150816
1801072012,180107,1801,18,Sidodadi,35352,-5.5926785326149,105.52300050177
1801072013,180107,1801,18,Sidorejo,35352,-5.5843071899324,105.52501216469
1801072014,180107,1801,18,Sidomulyo,35352,-5.5758114051162,105.53727207142
1801072015,180107,1801,18,Sidowaluyo,35352,-5.5990234306452,105.56211258599
1801072020,180107,1801,18,"Banjar Suri",35352,-5.6074845557565,105.45858088817
1801082001,180108,1801,18,Tarahan,35452,-5.5660420509024,105.38499110764
1801082002,180108,1801,18,Babatan,35452,-5.544179197385,105.40431759403
1801082003,180108,1801,18,Pardasuka,35452,-5.5199189249389,105.42438726924
1801082004,180108,1801,18,Sukajaya,35452,-5.5324874697513,105.4381467079
1801082005,180108,1801,18,"Tanjung Ratu",35452,-5.4900737909844,105.49745098969
1801082006,180108,1801,18,"Tanjung Agung",35452,-5.5163273524894,105.46589605452
1801082007,180108,1801,18,Tanjungan,35452,-5.5355573307649,105.46413375431
1801082008,180108,1801,18,"Trans Tanjungan",35452,-5.5402046681266,105.49989772582
1801082009,180108,1801,18,Neglasari,35452,-5.478524031677,105.46271429112
1801082018,180108,1801,18,"Karya Tunggal",35452,-5.6045977828022,105.42064593357
1801082019,180108,1801,18,"Rangai Tri Tunggal",35452,-5.5274395229291,105.37206163205
1801082020,180108,1801,18,Sidomekar,35452,-5.5706831935219,105.41371865456
1801092001,180109,1801,18,Kekiling,35593,-5.7190530598093,105.65427337493
1801092002,180109,1801,18,Belambangan,35593,-5.7258724600124,105.65847205595
1801092003,180109,1801,18,Rawi,35593,-5.725727720642,105.66358441363
1801092004,180109,1801,18,Padan,35593,-5.7614997502336,105.64352077879
1801092005,180109,1801,18,Kuripan,35593,-5.7199629350109,105.67683138126
1801092006,180109,1801,18,"Taman Baru",35593,-5.7397501478598,105.65830622844
1801092007,180109,1801,18,Kelau,35593,-5.7008224626254,105.70307221528
1801092008,180109,1801,18,"Ruang Tengah",35593,-5.7266650740585,105.68588804974
1801092009,180109,1801,18,Pasuruan,35593,-5.7434405984548,105.68194023838
1801092010,180109,1801,18,Klaten,35593,-5.7280407263777,105.70486548181
1801092011,180109,1801,18,"Kampung Baru",35593,-5.7576211852578,105.68098133167
1801092012,180109,1801,18,"Banjar Masin",35593,-5.7564847379279,105.69093664489
1801092013,180109,1801,18,"Way Kalam",35593,-5.7674344262574,105.65722018528
1801092014,180109,1801,18,"Gedung Harta",35593,-5.7701878271297,105.67858267336
1801092015,180109,1801,18,Gayam,35593,-5.760623271963,105.69980076591
1801092016,180109,1801,18,Penengahan,35593,-5.774006409841,105.71519106758
1801092017,180109,1801,18,Sukajaya,35593,-5.7726099934294,105.7039978147
1801092018,180109,1801,18,Tetaan,35593,-5.751605008519,105.71110235536
1801092019,180109,1801,18,"Suka Baru",35593,-5.7854142133973,105.69567718618
1801092020,180109,1801,18,Pisang,35593,-5.7851668139226,105.70564963667
1801092021,180109,1801,18,"Tanjung Heran",35593,-5.7966421324243,105.68743971846
1801092026,180109,1801,18,Gandri,35593,-5.6999982981267,105.71361415891
1801102001,180110,1801,18,Sukaraja,35594,-5.6764534266765,105.67612457318
1801102002,180110,1801,18,Sukabakti,35594,-5.6912161871262,105.68908846438
1801102003,180110,1801,18,Sukamulya,35594,-5.664430643327,105.67346675788
1801102004,180110,1801,18,"Tanjung Sari",35594,-5.6678341664488,105.65985311031
1801102005,180110,1801,18,Bangunan,35594,-5.6490069207394,105.66426648437
1801102006,180110,1801,18,"Rejo Mulyo",35594,-5.6347816632057,105.67095986919
1801102007,180110,1801,18,"Palas Aji",35594,-5.6433976721172,105.69181233826
1801102008,180110,1801,18,"Palas Pasemah",35594,-5.6261219809301,105.69727912376
1801102009,180110,1801,18,"Palas Jaya",35594,-5.5988576635325,105.69589536712
1801102010,180110,1801,18,"Bandan Hurip",35594,-5.6072607238585,105.71872762312
1801102011,180110,1801,18,"Pulau Tengah",35594,-5.5999128363153,105.69923054828
1801102012,180110,1801,18,"Bali Agung",35594,-5.5931929706571,105.66224679405
1801102013,180110,1801,18,"Bumi Daya",35594,-5.6155496532931,105.63340816826
1801102014,180110,1801,18,"Tanjung Jaya",35594,-5.5882978209233,105.62434447016
1801102015,180110,1801,18,"Bumi Restu",35594,-5.5804884631932,105.6458108813
1801102016,180110,1801,18,"Pematang Baru",35594,-5.6636880920263,105.70297742255
1801102017,180110,1801,18,"Mekar Mulya",35594,-5.6062007401722,105.67803134543
1801102018,180110,1801,18,"Bumi Asih",35594,-5.5868482842004,105.63525955713
1801102019,180110,1801,18,Kalirejo,35594,-5.6265947793399,105.65197950077
1801102020,180110,1801,18,"Bumi Asri",35594,-5.5685810205019,105.63553592664
1801102021,180110,1801,18,"Pulau Jaya",35594,-5.5632407963584,105.65566756102
1801132001,180113,1801,18,"Way Hui",35365,-5.3546159227392,105.30557711847
1801132002,180113,1801,18,"Sidodadi Asri",35365,-5.3138481372437,105.43642886476
1801132003,180113,1801,18,"Margo Mulyo",35365,-5.3222988500365,105.40478964049
1801132004,180113,1801,18,"Gedung Agung",35365,-5.3110632766615,105.3854504934
1801132005,180113,1801,18,Margodadi,35365,-5.3091670265074,105.3607167134
1801132006,180113,1801,18,"Gedung Harapan",35365,-5.33353624448,105.36442900802
1801132007,180113,1801,18,"Marga Agung",35365,-5.3182201606383,105.33084810912
1801132008,180113,1801,18,"Jati Mulyo",35365,-5.3356968817163,105.30719939287
1801132009,180113,1801,18,"Fajar Baru",35365,-5.330651684478,105.26678860006
1801132010,180113,1801,18,"Karang Anyar",35365,-5.2945465821005,105.28052962742
1801132011,180113,1801,18,"Marga Kaya",35365,-5.3046835480684,105.31343600991
1801132012,180113,1801,18,"Margo Lestari",35365,-5.293335794994,105.34088297024
1801132013,180113,1801,18,"Sumber Jaya",35365,-5.2879478061499,105.37285205295
1801132014,180113,1801,18,"Sinar Rejeki",35365,-5.2653598710409,105.39427095189
1801132015,180113,1801,18,Sidoharjo,35365,-5.2417748308368,105.40727541188
1801132016,180113,1801,18,Rejomulyo,35365,-5.2657855387097,105.30529910609
1801132017,180113,1801,18,Purwotani,35365,-5.2732434745191,105.43087851576
1801132018,180113,1801,18,"Banjar Agung",35365,-5.3431980154336,105.33781744442
1801132019,180113,1801,18,"Karang Sari",35365,-5.3266864081408,105.28338129386
1801132020,180113,1801,18,"Karang Rejo",35365,-5.2409635856747,105.36967494944
1801132021,180113,1801,18,Margorejo,35365,-5.3083500383065,105.39452370773
1801142001,180114,1801,18,Bangunrejo,35596,-5.7373629645099,105.7662065373
1801142002,180114,1801,18,Sripendowo,35596,-5.7281098089368,105.7551542228
1801142003,180114,1801,18,"Karang Sari",35596,-5.7450239011214,105.73046672885
1801142004,180114,1801,18,Ketapang,35596,-5.7451412648031,105.77820898108
1801142005,180114,1801,18,Legundi,35596,-5.7670181382417,105.76636111321
1801142006,180114,1801,18,"Tri Dharma Yoga",35596,-5.771697860665,105.78626074919
1801142007,180114,1801,18,Ruguk,35596,-5.7982664461672,105.76837456893
1801142008,180114,1801,18,Sumur,35596,-5.8377406720756,105.76772303083
1801142009,180114,1801,18,"Sumber Nadi",35596,-5.7079296580897,105.78709084092
1801142010,180114,1801,18,Sidoasih,35596,-5.6514484736037,105.77643549311
1801142011,180114,1801,18,"Pematang Pasir",35596,-5.6839467664597,105.79102315744
1801142012,180114,1801,18,Berundung,35596,-5.6565192223922,105.79858987933
1801142013,180114,1801,18,"Taman Sari",35596,-5.7035298119609,105.77074721224
1801142014,180114,1801,18,Kemukus,35596,-5.7132247167454,105.74692950299
1801142015,180114,1801,18,"Lebung Nala",35596,-5.6914032377042,105.76989765333
1801142016,180114,1801,18,Sidoluhur,35596,-5.8365233919601,105.74492183017
1801142017,180114,1801,18,"Wai Sidomukti",35596,-5.6553863103999,105.77800109437
1801152001,180115,1801,18,"Kuala Sekampung",35597,-5.6238782587702,105.75976637498
1801152002,180115,1801,18,Baktirasa,35597,-5.6463291224098,105.73431709426
1801152003,180115,1801,18,"Mandala Sari",35597,-5.6482299284893,105.72003759854
1801152004,180115,1801,18,Sukapura,35597,-5.6129565872388,105.74055231091
1801152005,180115,1801,18,"Sumber Agung",35597,-5.6713389892152,105.76396829207
1801152006,180115,1801,18,"Marga Jasa",35597,-5.6759382606569,105.7196348802
1801152007,180115,1801,18,"Sumber Sari",35597,-5.6918604882033,105.74251401012
1801152008,180115,1801,18,"Bandar Agung",35597,-5.6082114940514,105.80377479377
1801152009,180115,1801,18,Kedaung,35597,-5.6522727715958,105.75167525241
1801152010,180115,1801,18,Margasari,35597,-5.6387169411883,105.70582244198
1801162001,180116,1801,18,Banding,35552,-5.8027979329845,105.60479703994
1801162002,180116,1801,18,Betung,35552,-5.78241962666,105.59578164916
1801162003,180116,1801,18,"Batu Balak",35552,-5.8340877568462,105.66985829326
1801162004,180116,1801,18,Canti,35552,-5.7924828707358,105.60393411294
1801162005,180116,1801,18,Canggung,35552,-5.7876100226817,105.59396785904
1801162006,180116,1801,18,Cugung,35552,-5.8114619163543,105.66090593967
1801162007,180116,1801,18,"Hargo Pancuran",35552,-5.8274746538205,105.67826793933
1801162008,180116,1801,18,Kerinjing,35552,-5.8208547946485,105.67313809915
1801162009,180116,1801,18,Kunjir,35552,-5.8195738824138,105.65017838225
1801162010,180116,1801,18,"Kota Guring",35552,-5.7760880211083,105.60521582533
1801162011,180116,1801,18,Rajabasa,35552,-5.8075969953081,105.61425927934
1801162012,180116,1801,18,Sukaraja,35552,-5.8139787836565,105.62269668997
1801162013,180116,1801,18,"Tanjung Gading",35552,-5.7789223845041,105.59869405225
1801162014,180116,1801,18,"Tejang Pulau Sebesi",35552,-5.9964514580538,105.47126083312
1801162015,180116,1801,18,"Way Muli",35552,-5.8165446129777,105.63273105663
1801162016,180116,1801,18,"Wai Muli Timur",35552,-5.8178489256937,105.63961668384
1801172001,180117,1801,18,"Batuliman Indah",35356,-5.5203083873045,105.51293129339
1801172002,180117,1801,18,"Sinar Palembang",35356,-5.5351260407173,105.5439833975
1801172003,180117,1801,18,"Rantau Minyak",35356,-5.5514531838226,105.54000540567
1801172004,180117,1801,18,"Sido Asri",35356,-5.5542131152488,105.56016317124
1801172005,180117,1801,18,"Way Gelam",35356,-5.5639273106526,105.57261989234
1801172006,180117,1801,18,"Cinta Mulya",35356,-5.5273960954717,105.57049350764
1801172007,180117,1801,18,Banyumas,35356,-5.4977993899071,105.58059375203
1801172008,180117,1801,18,"Beringin Kencana",35356,-5.5074953490515,105.59588238769
1801172009,180117,1801,18,"Sinar Pasemah",35356,-5.4958431820407,105.62268598093
1801172010,180117,1801,18,"Rawa Selapan",35356,-5.5172655716208,105.63410088372
1801172011,180117,1801,18,"Bumi Jaya",35356,-5.5342704860815,105.6088850918
1801172012,180117,1801,18,Trimomukti,35356,-5.5492923815118,105.62769536621
1801172013,180117,1801,18,Titiwangi,35356,-5.5343080664715,105.59153575422
1801172014,180117,1801,18,"Karya Mulya Sari",35356,-5.5177381913838,105.54121986868
1801182001,180118,1801,18,"Merbau Mataram",35357,-5.4462988629406,105.37354757076
1801182002,180118,1801,18,Suban,35357,-5.4692448067791,105.40813013715
1801182003,180118,1801,18,"Tanjung Baru",35357,-5.4502994029708,105.34246174218
1801182004,180118,1801,18,"Baru Ranji",35357,-5.4840584947261,105.34838186771
1801182005,180118,1801,18,"Karang Raja ND",35357,-5.4865556795576,105.40768692284
1801182006,180118,1801,18,"Talang Jawa",35357,-5.4500370716205,105.48369940777
1801182007,180118,1801,18,"Lebung Sari",35357,-5.4472024164745,105.4998143968
1801182008,180118,1801,18,"Puji Rahayu",35357,-5.4488391866695,105.51521170725
1801182009,180118,1801,18,"Batu Agung",35357,-5.4262907556375,105.52187522037
1801182010,180118,1801,18,"Tanjung Harapan",35357,-5.4054171715652,105.51393979521
1801182011,180118,1801,18,"Sinar Karya",35357,-5.4289120960884,105.50005577033
1801182012,180118,1801,18,Triharjo,35357,-5.4547357893962,105.41437534724
1801182013,180118,1801,18,"Panca Tunggal",35357,-5.4504886838404,105.45175822755
1801182014,180118,1801,18,"Mekar Jaya",35357,-5.5055129320295,105.39092893622
1801182015,180118,1801,18,"Karang Jaya",35357,-5.4780966657714,105.3703420734
1801212001,180121,1801,18,Semanak,35592,-5.8140978952648,105.70659896262
1801212002,180121,1801,18,"Toto Harjo",35592,-5.8314719843382,105.6920807099
1801212003,180121,1801,18,Hatta,35592,-5.8091758644191,105.73480158673
1801212004,180121,1801,18,Bakauheni,35592,-5.8706344386418,105.74313627303
1801212005,180121,1801,18,Kelawi,35592,-5.8548374031761,105.7210952342
1801222001,180122,1801,18,"Bangun Sari",35360,-5.3677157237007,105.51936958916
1801222002,180122,1801,18,"Purwodadi Dalam",35360,-5.3747378233446,105.43959363996
1801222003,180122,1801,18,Sidomukti,35360,-5.3774467077325,105.48669515042
1801222004,180122,1801,18,Wawasan,35360,-5.3731614599908,105.50345712924
1801222005,180122,1801,18,Mulyosari,35360,-5.3311856244459,105.50645665301
1801222006,180122,1801,18,Wonodadi,35360,-5.354125767429,105.45995745751
1801222007,180122,1801,18,Kertosari,35360,-5.3384255568549,105.47156149761
1801222008,180122,1801,18,Malangsari,35360,-5.3083217653746,105.47913488876
1801232001,180123,1801,18,"Mekar Sari",35456,-5.4680418410222,105.51166396381
1801232002,180123,1801,18,"Sumber Agung",35456,-5.4809102363174,105.5069897582
1801232003,180123,1801,18,"Talang Way Sulan",35456,-5.4869521219712,105.52272890383
1801232004,180123,1801,18,Pamulihan,35456,-5.4976661701817,105.54034754935
1801232005,180123,1801,18,Purwodadi,35456,-5.494609197015,105.56499512365
1801232006,180123,1801,18,Sukamaju,35456,-5.4680531728712,105.58150280594
1801232007,180123,1801,18,Banjarsari,35456,-5.4696869597413,105.56164680943
1801232008,180123,1801,18,"Karang Pucung",35456,-5.4719327962419,105.54146423729
1801242001,180124,1801,18,Sidoharjo,35354,-5.6150938227648,105.59918089524
1801242002,180124,1801,18,Sidomakmur,35354,-5.638658183127,105.61859542395
1801242003,180124,1801,18,Sidoreno,35354,-5.5926617102196,105.59676904522
1801242004,180124,1801,18,"Bali Nuraga",35354,-5.5719699601065,105.59897060723
1802012001,180201,1802,18,"Sri Way Langsep",34174,-5.2488831365775,104.92426675957
1802012002,180201,1802,18,Wayakrui,34174,-5.2506340988915,104.94542677957
1802012003,180201,1802,18,Kalirejo,34174,-5.2314966279092,104.95685752813
1802012004,180201,1802,18,"Balai Rejo",34174,-5.2241772091971,104.99883216721
1802012005,180201,1802,18,"Watu Agung",34174,-5.1855248377896,105.02393473424
1802012006,180201,1802,18,"Sri Basuki",34174,-5.2153020213892,104.98841001966
1802012007,180201,1802,18,Kaliwungu,34174,-5.2147325565655,104.96067532799
1802012008,180201,1802,18,"Kali Dadi",34174,-5.2228673997728,104.92667602501
1802012009,180201,1802,18,"Sri Mulyo",34174,-5.1891933045618,104.93761055021
1802012010,180201,1802,18,"Sri Dadi",34174,-5.197650234006,104.96605540352
1802012011,180201,1802,18,"Suko Sari",34174,-5.1992744714933,104.99168919022
1802012012,180201,1802,18,"Sinar Sari",34174,-5.177670149826,104.99882466566
1802012013,180201,1802,18,"Ponco Warno",34174,-5.1748789327068,104.97752586343
1802012014,180201,1802,18,"Sri Purnomo",34174,-5.1948738039261,104.94990955503
1802012015,180201,1802,18,"Sinar Rejo",34174,-5.1762182204024,104.95611285689
1802012016,180201,1802,18,"Agung Timur",34174,-5.2022720778866,105.03755353449
1802012017,180201,1802,18,Kalisari,34174,-5.2117924650146,104.93803342505
1802022001,180202,1802,18,Purwodadi,34173,-5.1592533828665,104.95398602152
1802022002,180202,1802,18,Sidodadi,34173,-5.1562954872827,104.99102519427
1802022003,180202,1802,18,Sidorejo,34173,-5.1650595995034,105.02489618512
1802022004,180202,1802,18,Cimarias,34173,-5.1538816263858,105.05651656482
1802022005,180202,1802,18,"Bangun Rejo",34173,-5.1511524905763,105.03703925561
1802022006,180202,1802,18,Sidoluhur,34173,-5.1326460707287,105.0132844638
1802022007,180202,1802,18,Sidomulyo,34173,-5.1404379055162,104.98467805753
1802022008,180202,1802,18,"Timbul Rejo",34173,-5.113059087777,105.00133249171
1802022009,180202,1802,18,Sukanegara,34173,-5.1064768907267,105.03116670567
1802022010,180202,1802,18,"Sinar Seputih",34173,-5.1326815640943,105.04511592873
1802022011,180202,1802,18,"Sinar Luas",34173,-5.1285144695922,105.06227020156
1802022012,180202,1802,18,"Tanjung Pandan",34173,-5.1385836458211,105.10894227233
1802022013,180202,1802,18,"Tanjung Jaya",34173,-5.1067216916364,105.07023997566
1802022014,180202,1802,18,"Sri Pendowo",34173,-5.1049847275238,105.04833216319
1802022015,180202,1802,18,Sukowaringin,34173,-5.0821646525536,105.03261393819
1802022016,180202,1802,18,"Mekar Jaya",34173,-5.0981704231668,105.08525882181
1802022017,180202,1802,18,"Suka Negeri",34173,-5.1028197524279,105.01994339469
1802032001,180203,1802,18,Purwosari,34175,-5.1494107341152,104.93423007967
1802032002,180203,1802,18,"Sendang Ayu",34175,-5.1306513149453,104.95454009475
1802032003,180203,1802,18,"Bandar Sari",34175,-5.0847113742715,104.96079694476
1802032004,180203,1802,18,Surabaya,34175,-5.1005348535067,104.96731494922
1802032005,180203,1802,18,Margorejo,34175,-5.0980660883601,104.98764730814
1802032006,180203,1802,18,"Kota Baru",34175,-5.0626655821526,104.99943835439
1802032007,180203,1802,18,"Karang Tanjung",34175,-5.0773518027402,105.01668501732
1802032008,180203,1802,18,Kuripan,34175,-5.0300795680995,104.98626240434
1802032009,180203,1802,18,"Sri Agung",34175,-5.0617999063443,104.9794107419
1802032010,180203,1802,18,"Haduyang Ratu",34175,-5.0206076522802,104.96832496334
1802032011,180203,1802,18,"Padang Ratu",34175,-5.0110779155605,104.93565753881
1802032018,180203,1802,18,"Karang Sari",34175,-5.0310567870429,104.9325595203
1802032019,180203,1802,18,Mojokerto,34175,-5.1025263427164,104.93798368749
1802032020,180203,1802,18,"Sumber Sari",34175,-5.049369786768,105.01686318746
1802032021,180203,1802,18,Purworejo,34175,-5.1435175871092,104.91942710025
1802041005,180204,1802,18,"Gunung Sugih",34165,-4.9973172212441,105.2083435889
1802041006,180204,1802,18,"Gunung S. Raya",34165,-4.9728037265227,105.23167155255
1802041007,180204,1802,18,"Komering Agung",34165,-5.0041897095314,105.17694355619
1802041008,180204,1802,18,"Seputih Jaya",34165,-4.9636069588106,105.2043328805
1802042001,180204,1802,18,"Terbanggi Subing",34165,-5.0375647631172,105.20363753084
1802042002,180204,1802,18,"Terbanggi Agung",34165,-5.0197115119652,105.19930652401
1802042003,180204,1802,18,"Fajar Bulan",34165,-4.9984857924322,105.11905104979
1802042004,180204,1802,18,"Komering Putih",34165,-5.0038108130978,105.15220005511
1802042009,180204,1802,18,"Buyut Udik",34165,-4.9672629469302,105.25937726678
1802042010,180204,1802,18,"Buyut Ilir",34165,-4.9644567855965,105.28443215054
1802042011,180204,1802,18,"Bangun Rejo",34165,-4.9709215170602,105.30562513294
1802042012,180204,1802,18,"Wono Sari",34165,-5.0497949261662,105.1664708696
1802042013,180204,1802,18,"Putra Buyut",34165,-4.9187123008077,105.30570958491
1802042014,180204,1802,18,"Gunung Sari",34165,-5.00701908199,105.22913405472
1802042015,180204,1802,18,"Buyut Utara",34165,-4.9189582550619,105.30084176372
1802051003,180205,1802,18,"Adi Puro",34172,-5.1539402510402,105.23922093913
1802051004,180205,1802,18,Trimurjo,34172,-5.1381895505072,105.23445119563
1802051007,180205,1802,18,"Simbar Waringin",34171,-5.1227658826146,105.25384000698
1802052001,180205,1802,18,"Depok Rejo",34172,-5.1697204023371,105.26487904085
1802052002,180205,1802,18,"Liman Benawi",34172,-5.155921411519,105.2546812936
1802052005,180205,1802,18,"Noto Harjo",34172,-5.1099419277734,105.2340138525
1802052006,180205,1802,18,"Purwo Dadi",34172,-5.1123999357509,105.27371661255
1802052008,180205,1802,18,Tempuran,34172,-5.1326951343899,105.26788000936
1802052009,180205,1802,18,"Purwo Adi",34172,-5.1056163401307,105.25274807374
1802052010,180205,1802,18,"Pujo Dadi",34172,-5.0852012094433,105.27021819372
1802052011,180205,1802,18,"Pujo Kerto",34172,-5.0791365169199,105.25765426242
1802052012,180205,1802,18,Untoro,34172,-5.092523314212,105.24612725457
1802052013,180205,1802,18,"Pujo Asri",34172,-5.0626963761501,105.24596162514
1802052014,180205,1802,18,"Pujo Basuki",34172,-5.0590279286194,105.25571871553
1802062001,180206,1802,18,"Nunggal Rejo",34152,-5.0705123479933,105.27884376104
1802062002,180206,1802,18,"Badran Sari",34152,-5.0557605825395,105.30256370402
1802062003,180206,1802,18,"Sri Sawahan",34152,-5.0436129406424,105.32497333832
1802062004,180206,1802,18,"Toto Katon",34152,-5.0569988203891,105.27939793047
1802062005,180206,1802,18,"Tanggul Angin",34152,-5.0383789550228,105.2592824276
1802062006,180206,1802,18,"Ngesti Rahayu",34152,-5.0171414726264,105.24908469762
1802062007,180206,1802,18,Mojopahit,34152,-4.9923210788927,105.24920158114
1802062008,180206,1802,18,"Asto Mulyo",34152,-5.0096950472549,105.2681962518
1802062009,180206,1802,18,"Sido Mulyo",34152,-5.0217420636099,105.28536735474
1802071002,180207,1802,18,"Bandar Jaya Timur",34163,-4.946876179891,105.20715185707
1802071003,180207,1802,18,"Bandar Jaya Barat",34163,-4.944783381502,105.229015118
1802071004,180207,1802,18,"Yukum Jaya",34163,-4.9152625600955,105.21111694311
1802072001,180207,1802,18,"Adi Jaya",34163,-4.9374847505962,105.19336405144
1802072005,180207,1802,18,"Indra Putra Subing",34163,-4.9387286110597,105.26100140169
1802072006,180207,1802,18,"Karang Endah",34163,-4.9216159110854,105.2454069393
1802072007,180207,1802,18,"Nambah Dadi",34163,-4.8984595676607,105.27895365541
1802072008,180207,1802,18,"Ono Harjo",34163,-4.8728225009952,105.2998971193
1802072009,180207,1802,18,"Terbanggi Besar",34163,-4.8551046841068,105.22107601491
1802072010,180207,1802,18,Poncowati,34163,-4.8978165999776,105.18136682942
1802082001,180208,1802,18,"Rejo Basuki",34155,-4.9445205847527,105.32637355265
1802082002,180208,1802,18,"Rejo Asri",34155,-4.9530355772077,105.36552975258
1802082003,180208,1802,18,"Rukti Endah",34155,-4.9434590899013,105.39859488973
1802082004,180208,1802,18,"Rama Dewa",34155,-4.9334461329448,105.36297147542
1802082005,180208,1802,18,"Ratna Chaton",34155,-4.9240356508055,105.32762906851
1802082006,180208,1802,18,"Rama Yana",34155,-4.8877272931686,105.33162358957
1802082007,180208,1802,18,"Rama Indra",34155,-4.9106082798111,105.34181826269
1802082008,180208,1802,18,"Rukti Harjo",34155,-4.902996449849,105.3621373516
1802082009,180208,1802,18,"Rama Gunawan",34155,-4.9174425079592,105.38470353199
1802082010,180208,1802,18,"Rama Oetama",34155,-4.895132140393,105.40616945138
1802082011,180208,1802,18,"Rama Nirwana",34155,-4.8639263819129,105.3913904904
1802082012,180208,1802,18,"Rama Murti",34155,-4.8741798494681,105.3724394127
1802082013,180208,1802,18,"Rama Klandungan",34155,-4.8717527225454,105.35068631065
1802082014,180208,1802,18,"Buyut Baru",34155,-4.8364179293258,105.37784929188
1802092001,180209,1802,18,"Teluk Dalem Ilir",34154,-4.7776009136589,105.47779129801
1802092002,180209,1802,18,"Rekso Binangun",34154,-4.7506348184021,105.5155736699
1802092003,180209,1802,18,"Rukti Basuki",34154,-4.7730075438311,105.54005217239
1802092004,180209,1802,18,"Restu Baru",34154,-4.7578924996567,105.56984148671
1802092005,180209,1802,18,"Restu Buana",34154,-4.7467015391928,105.60424793598
1802092006,180209,1802,18,"Reno Basuki",34154,-4.7363096470192,105.54858188015
1802092013,180209,1802,18,"Bina Karya Putra",34154,-4.7862053468327,105.59784763223
1802092014,180209,1802,18,"Bina Karya Buana",34154,-4.7658289161014,105.651253159
1802092015,180209,1802,18,"Bina Karya mandiri",34154,-4.7797243202524,105.61635348445
1802102001,180210,1802,18,"Sumber Bahagia",34156,-4.8617019572811,105.4267107251
1802102002,180210,1802,18,"Tanjung Harapan",34156,-4.8534301041396,105.44841127928
1802102003,180210,1802,18,"Setia Bumi",34156,-4.884902669788,105.45216333532
1802102004,180210,1802,18,"Sumber Baru",34156,-4.8631139733261,105.4685423589
1802102005,180210,1802,18,"Siswo Binangun",34156,-4.8779983239969,105.49331139655
1802102006,180210,1802,18,"Sanggar Buana",34156,-4.86899200049,105.53242312748
1802102007,180210,1802,18,"Sakti Buana",34156,-4.834213445929,105.52446549201
1802102008,180210,1802,18,"Setia Bhakti",34156,-4.8327800987621,105.50076492304
1802102009,180210,1802,18,"Sri Basuki",34156,-4.8227184656389,105.44104307747
1802102010,180210,1802,18,"Sari Bhakti",34156,-4.8465065475135,105.41078118128
1802102011,180210,1802,18,"Swastika Buana",34156,-4.7963214844457,105.51080728591
1802102012,180210,1802,18,"Sumber Fajar",34156,-4.8785115036888,105.42743510832
1802102013,180210,1802,18,"Tanjung Kerajan",34156,-4.8485759247026,105.42432574504
1802112001,180211,1802,18,"Fajar Mataram",34164,-4.8526236785526,105.30765733559
1802112002,180211,1802,18,"Rejosari Mataram",34164,-4.8476922514584,105.33633880719
1802112003,180211,1802,18,"Qurnia Mataram",34164,-4.8319107640201,105.31264923622
1802112004,180211,1802,18,"Trimulyo Mataram",34164,-4.8076936730877,105.3219867483
1802112005,180211,1802,18,"Utama Jaya Mataram",34164,-4.8185808291523,105.33494818697
1802112006,180211,1802,18,"Sumber Agung Mataram",34164,-4.82399108905,105.35982621416
1802112007,180211,1802,18,"Varia Agung Mataram",34164,-4.7993227148308,105.36783163955
1802112008,180211,1802,18,"Wirata Agung Mataram",34164,-4.7844560051575,105.34543089369
1802112009,180211,1802,18,"Dharma Agung Mataram",34164,-4.7520467867721,105.35653360873
1802112010,180211,1802,18,"Bumi Setia Mataram",34164,-4.7747878819923,105.38019233593
1802112011,180211,1802,18,"Subing Karya",34164,-4.7873482767929,105.40441556902
1802112012,180211,1802,18,"Banjar Agung Mataram",34164,-4.7582647306771,105.39173767133
1802122001,180212,1802,18,"Gaya Baru VI",34158,-4.7331607600524,105.63500304731
1802122002,180212,1802,18,"Sumber Katon",34158,-4.7043622127106,105.60072090631
1802122003,180212,1802,18,Srikaton,34158,-4.7020482105788,105.61510458097
1802122004,180212,1802,18,"Gaya Baru VII",34158,-4.7184470090888,105.62719044882
1802122005,180212,1802,18,"Gaya Baru IV",34158,-4.7022678270526,105.66001042665
1802122006,180212,1802,18,"Gaya Baru III",34158,-4.6854865110286,105.66525542052
1802122007,180212,1802,18,"Gaya Baru II",34158,-4.6993765439557,105.6381152862
1802122008,180212,1802,18,"Gaya Baru VIII",34158,-4.7141447963657,105.63657099025
1802122009,180212,1802,18,"Gaya Baru I",34158,-4.6873246636901,105.64006753089
1802122010,180212,1802,18,"Mataram Ilir",34158,-4.6426867362947,105.61848725718
1802122011,180212,1802,18,"Rawa Betik",34158,-4.7355507083652,105.67229065565
1802122012,180212,1802,18,"Srimulya Jaya",34158,-4.644700180929,105.66237326557
1802122013,180212,1802,18,"Kenanga Sari",34158,-4.6513448402978,105.67825396892
1802132001,180213,1802,18,"Gunung Batin Udik",34167,-4.6832257132015,105.17615756032
1802132002,180213,1802,18,"Gunung Batin Ilir",34167,-4.6418788982432,105.21402417572
1802132003,180213,1802,18,"Gunung Batin Baru",34167,-4.6873271783068,105.25101653685
1802132004,180213,1802,18,"Gunung Agung",34167,-4.7546803440174,105.18772700643
1802132005,180213,1802,18,"Bandar Agung",34167,-4.7737074511704,105.17059474264
1802132006,180213,1802,18,"Bandar Sakti",34167,-4.7569900743665,105.25844958888
1802132007,180213,1802,18,"Tanjung Anom",34167,-4.7695287622469,105.27860834752
1802142001,180214,1802,18,"Suka Jawa",34160,-5.117911129357,105.1954192673
1802142002,180214,1802,18,Sidokerto,34160,-5.13410166119,105.21707716556
1802142003,180214,1802,18,"Suka Jadi",34160,-5.1085773098023,105.21558700239
1802142004,180214,1802,18,"Bumi Raharjo",34160,-5.0891940213956,105.22471129838
1802142005,180214,1802,18,Wates,34160,-5.1050034062434,105.1881422315
1802142006,180214,1802,18,"Bumi Ratu",34160,-5.0791522496537,105.19320014687
1802142007,180214,1802,18,"Bulu Sari",34160,-5.0523655316383,105.20283833086
1802142008,180214,1802,18,"Bumi Rahayu",34160,-5.0714883805518,105.23231690655
1802142009,180214,1802,18,"Sido Waras",34160,-5.0499415418656,105.23271316885
1802142010,180214,1802,18,"Tulang Kakan",34160,-5.0692367191887,105.21565441254
1802152001,180215,1802,18,Rengas,34162,-5.1253758142202,105.15931663544
1802152002,180215,1802,18,"Kesuma Dadi",34162,-5.1022893683604,105.15488342209
1802152003,180215,1802,18,"Sinar Banten",34162,-5.0842397201642,105.12248579835
1802152004,180215,1802,18,"Kesuma Jaya",34162,-5.076633509158,105.16076789143
1802152005,180215,1802,18,"Binjai Ngagung",34162,-5.1406570204512,105.12800935478
1802152006,180215,1802,18,Kedatuan,34162,-5.1516511401794,105.10291294662
1802152007,180215,1802,18,"Goras Jaya",34162,-5.0956882908567,105.13207699871
1802152008,180215,1802,18,"Bangun Sari",34162,-5.1152755273177,105.13633922222
1802162001,180216,1802,18,"Harapan Rejo",34166,-4.9817842282125,105.11543781565
1802162002,180216,1802,18,"Endang Rejo",34166,-4.9697708247737,105.13892722215
1802162003,180216,1802,18,"Dono Arum",34166,-4.9358062766522,105.13929834746
1802162004,180216,1802,18,"Simpang Agung",34166,-4.9596333221384,105.16374842697
1802162005,180216,1802,18,"Bumi Kencana",34166,-4.9332967502213,105.17223280816
1802162006,180216,1802,18,"Gayau Sakti",34166,-4.9159317205799,105.13274393576
1802162007,180216,1802,18,"Fajar Asri",34166,-4.9392061700312,105.10973402266
1802162008,180216,1802,18,"Muji Rahayu",34166,-4.9065132717847,105.09895358233
1802162009,180216,1802,18,Sulusuban,34166,-4.9359299933107,105.08386690072
1802162010,180216,1802,18,"Bumi Mas",34166,-4.9152011982034,105.17992519428
1802172001,180217,1802,18,"Tanjung Ratu Ilir",35213,-4.8487856651251,105.12453175314
1802172002,180217,1802,18,"Candi Rejo",35213,-4.8884912041108,105.08559840769
1802172003,180217,1802,18,"Banjar Ratu",35213,-4.8892828442957,105.06723881192
1802172004,180217,1802,18,"Banjar Kerta Rahayu",35213,-4.863596792211,105.08232194075
1802172005,180217,1802,18,"Lempuyang Bandar",35213,-4.7953275208097,105.22468635023
1802172006,180217,1802,18,"Purnama Tunggal",35213,-4.8930197021878,105.13264851984
1802172007,180217,1802,18,"Banjar Rejo",35213,-4.9345611838675,105.05912261995
1802172008,180217,1802,18,"Putra Lempuyang",35213,-4.8098159539712,105.2969460584
1802182001,180218,1802,18,"Sriwijaya Mataram",34169,-4.7637893004047,105.45244167963
1802182002,180218,1802,18,"Uman Agung Mataram",34169,-4.7610161170296,105.42214649431
1802182003,180218,1802,18,"Terbanggi Ilir",34169,-4.6190261433836,105.37201024642
1802182004,180218,1802,18,"Jatidatar Mataram",34169,-4.7383054197095,105.4045453319
1802182005,180218,1802,18,"Sendang Agung Mataram",34169,-4.743032121382,105.42979018789
1802182006,180218,1802,18,"Mataram Udik",34169,-4.5860859403441,105.58290397044
1802182007,180218,1802,18,"Terbanggi Mulya",34169,-4.7004243924499,105.32576937798
1802182008,180218,1802,18,"Mataram Jaya",34169,-4.725267219933,105.48482850619
1802182009,180218,1802,18,"Sumber Rejeki Mataram",34169,-4.6765591995993,105.50048764014
1802192001,180219,1802,18,"Kota Batu",34176,-5.1406545149583,104.83215316665
1802192002,180219,1802,18,"Sangun Ratu",34176,-5.0910181752991,104.91808523737
1802192003,180219,1802,18,"Gunung Raya",34176,-5.0502283733978,104.93057662381
1802192004,180219,1802,18,"Gunung Haji",34176,-5.0705592514871,104.92831922343
1802192005,180219,1802,18,"Negri Ratu",34176,-5.0580623272518,104.90635051598
1802192006,180219,1802,18,"Tanjung Kemala",34176,-5.0814374087218,104.90432307407
1802192007,180219,1802,18,"Payung Rejo",34176,-5.1026233388312,104.88916886186
1802192008,180219,1802,18,"Payung Batu",34176,-5.0854614856077,104.88176365831
1802192009,180219,1802,18,"Negeri Kepayungan",34176,-5.0689947024893,104.88572994127
1802192010,180219,1802,18,"Segala Mider",34176,-5.0572385652662,104.86949875443
1802192011,180219,1802,18,"Tias Bangun",34176,-5.0390082305623,104.88890362548
1802192012,180219,1802,18,"Riau Priangan",34176,-5.025362952733,104.90044970008
1802192013,180219,1802,18,"Payung Dadi",34176,-5.1230062806758,104.88394106581
1802192014,180219,1802,18,"Payung Makmur",34176,-5.1030234877759,104.86167913946
1802192015,180219,1802,18,"Tanjung Rejo",34176,-5.1121911832836,104.91000382225
1802192016,180219,1802,18,"Tawang Negeri",34176,-5.0909075839771,104.80903853567
1802192017,180219,1802,18,"Sinar Negeri",34176,-5.021258553693,104.8773486067
1802192018,180219,1802,18,Pekandangan,34176,-5.082259551499,104.76916823326
1802192019,180219,1802,18,"Payung Mulya",34176,-5.1015711174069,104.83924757579
1802192020,180219,1802,18,"Padang Rejo",34176,-5.0776274948997,104.85454217414
1802202001,180220,1802,18,"Nyukang Harjo",34177,-5.0743667528543,104.82140549066
1802202002,180220,1802,18,"Lingga Pura",34177,-5.0646464915955,104.77415105259
1802202003,180220,1802,18,"Sido Harjo",34177,-5.0530377403186,104.83975604678
1802202004,180220,1802,18,"Taman Sari",34177,-5.0433720959469,104.85287859789
1802202005,180220,1802,18,"Karang Anyar",34177,-5.0116891103283,104.88073475258
1802202006,180220,1802,18,"Negeri Katon",34177,-5.0273196936183,104.82816422167
1802202007,180220,1802,18,"Gedung Harta",34177,-5.0388861173813,104.82455312127
1802202008,180220,1802,18,"Tanjung Ratu",34177,-5.010078134282,104.80229677189
1802202009,180220,1802,18,"Negeri Agung",34177,-4.9927724876918,104.84271326904
1802202010,180220,1802,18,"Gilih Karang Jati",34177,-4.9953845702019,104.87444470775
1802202011,180220,1802,18,"Marga Jaya",34177,-5.1076406927577,104.69224999552
1802202012,180220,1802,18,"Gedung Aji",34177,-5.0506499503572,104.75585013482
1802202013,180220,1802,18,"Negeri Jaya",34177,-5.0544100669212,104.81201776764
1802202014,180220,1802,18,"Mekar Harjo",34177,-5.0676145972497,104.83120389967
1802212001,180221,1802,18,Srikaton,34161,-5.0683773991207,105.05194297432
1802212002,180221,1802,18,"Jaya Sakti",34161,-5.0744979156131,105.07429964377
1802212003,180221,1802,18,"Haji Pemanggilan",34161,-5.0033385018744,105.10100387251
1802212004,180221,1802,18,"Negara Bumi Ilir",34161,-4.9878593832578,105.07754666985
1802212005,180221,1802,18,"Bumi Aji",34161,-5.0075810590472,105.05981751182
1802212006,180221,1802,18,"Negara Aji Tua",34161,-5.021552046894,105.04343627378
1802212007,180221,1802,18,"Negara Bumi Udik",34161,-4.9838584699706,105.01617468471
1802212008,180221,1802,18,"Negara Aji Baru",34161,-5.0381702711421,105.02548247764
1802212009,180221,1802,18,"Gunung Agung",34161,-5.0291749298209,105.01279143364
1802212010,180221,1802,18,"Tanjung Harapan",34161,-4.9987588741205,105.00350942473
1802212011,180221,1802,18,"Bumi Jaya",34161,-5.0796327466895,105.0956327153
1802212012,180221,1802,18,"Mulyo Haji",34161,-5.0435640781493,105.10718897715
1802222001,180222,1802,18,"Sendang Mulyo",34178,-5.2246820003956,104.89418521449
1802222002,180222,1802,18,"Sendang Rejo",34178,-5.2009748120129,104.89589065256
1802222003,180222,1802,18,"Sendang Baru",34178,-5.1833072650276,104.83693702901
1802222004,180222,1802,18,"Sendang Retno",34178,-5.1833489195597,104.8696584124
1802222005,180222,1802,18,"Sendang Asih",34178,-5.1607161573128,104.86358088633
1802222006,180222,1802,18,"Sendang Agung",34178,-5.1840176230188,104.89548118221
1802222007,180222,1802,18,"Sendang Asri",34178,-5.1585778205099,104.89329556993
1802222008,180222,1802,18,"Sendang Mukti",34178,-5.1411565233522,104.89780639233
1802222009,180222,1802,18,Kutowinangun,34178,-5.1862624931432,104.9254086928
1802232001,180223,1802,18,"Sritejo Kencono",34153,-5.0223392636107,105.34710235953
1802232002,180223,1802,18,"Sapto Mulyo",34153,-5.0299237188074,105.31994149244
1802232003,180223,1802,18,"Nambah Rejo",34153,-5.0255866194152,105.30033755389
1802232004,180223,1802,18,"Sumber Rejo",34153,-5.0099435132394,105.31300325696
1802232005,180223,1802,18,Purworejo,34153,-4.9941496385889,105.30552191904
1802232006,180223,1802,18,"Kota Gajah",34153,-4.969355454368,105.31844355268
1802232007,180223,1802,18,"Kota Gajah Timur",34153,-4.9686109174858,105.33760368634
1802242001,180224,1802,18,"Sri Kencono",34168,-4.7225540748536,105.57706282599
1802242002,180224,1802,18,"Bumi Nabung Ilir",34168,-4.6586105177602,105.55125283256
1802242003,180224,1802,18,"Bumi Nabung Utara",34168,-4.6588847954006,105.57749584312
1802242004,180224,1802,18,"Bumi Nabung Selatan",34168,-4.7220883934086,105.51737038473
1802242005,180224,1802,18,"Bumi Nabung Timur",34168,-4.69109922025,105.57959943594
1802242006,180224,1802,18,"Bumi Nabung Baru",34168,-4.7108946866085,105.53495982766
1802242007,180224,1802,18,"Sri Kenanga",34168,-4.715566096582,105.59118355798
1802252001,180225,1802,18,"Sido Binangun",34179,-4.8292208360295,105.47514666033
1802252002,180225,1802,18,"Sri Bawono",34179,-4.8224483836129,105.40500017283
1802252003,180225,1802,18,"Sri Budaya",34179,-4.7988729394387,105.42240190962
1802252004,180225,1802,18,"Suko Binangun",34179,-4.7969575602979,105.45342769755
1802252005,180225,1802,18,"Sri Busono",34179,-4.8029432228281,105.47844000149
1802252006,180225,1802,18,"Sangga Buana",34179,-4.7650475447955,105.50076897789
1802262001,180226,1802,18,"Gaya Baru V",34159,-4.6848435163906,105.69373616116
1802262002,180226,1802,18,"Surabaya Ilir",34159,-4.6799755814498,105.73471970838
1802262003,180226,1802,18,Rajawali,34159,-4.7171834896672,105.70237208703
1802262004,180226,1802,18,"Cempaka Putih",34159,-4.7167186880571,105.79179768296
1802262005,180226,1802,18,"Subang Jaya",34159,-4.6585086266752,105.69851564198
1802262006,180226,1802,18,Cabang,34159,-4.6620119249695,105.80530998037
1802262007,180226,1802,18,"Beringin Jaya",34159,-4.7108199477716,105.75853808806
1802262008,180226,1802,18,Sidodadi,34159,-4.6832110123793,105.7922284018
1802262009,180226,1802,18,"Sumber Agung",34159,-4.6626755158216,105.78338241045
1802262010,180226,1802,18,"Surabaya Baru",34159,-4.7194371136136,105.73607478296
1802272001,180227,1802,18,"Gedung Sari",35513,-4.9472882301677,104.94478381195
1802272002,180227,1802,18,Srimulyo,35513,-4.9655092948781,104.92316177514
1802272003,180227,1802,18,"Gedung Ratu",35513,-4.9909164983998,104.90446643232
1802272004,180227,1802,18,"Bandar Putih Tua",35513,-4.937418049267,104.93904125561
1802272005,180227,1802,18,"Karang Jawa",35513,-4.9379840542045,104.98622808816
1802272006,180227,1802,18,Sukajaya,35513,-4.9667885290581,104.97092706355
1802282001,180228,1802,18,"Bina Karya Jaya",34157,-4.7985492352571,105.5552809957
1802282002,180228,1802,18,"Bina Karya Utama",34157,-4.8087194396799,105.58930535378
1802282003,180228,1802,18,"Bina Karya Sakti",34157,-4.8351906515117,105.55868878673
1802282004,180228,1802,18,Joharan,34157,-4.8637508438839,105.5703386275
1802282005,180228,1802,18,"Rantau Jaya Baru",34157,-4.8148036196625,105.6238338446
1802282006,180228,1802,18,"Rantau Jaya Ilir",34157,-4.8442089878085,105.61833635781
1802282007,180228,1802,18,"Bina Karya Baru",34157,-4.8228221884149,105.56802664843
1802282008,180228,1802,18,"Mranggi Jaya",34157,-4.8584100017892,105.58608385753
1802282009,180228,1802,18,"Mekar Jaya",34157,-4.8300549860012,105.60212647609
1802282010,180228,1802,18,"Rantau Jaya makmur",34157,-4.7981551910828,105.63992898414
1803011001,180301,1803,18,"Bukit Kemuning",34564,-4.854797663651,104.56652145659
1803012002,180301,1803,18,"Tanjung Baru",34564,-4.913425014218,104.54484082028
1803012003,180301,1803,18,"Suka Menanti",34564,-4.8702078760839,104.59396524052
1803012004,180301,1803,18,"Muara Aman",34564,-4.8366973576779,104.57920531808
1803012005,180301,1803,18,"Tanjung Baru Timur",34564,-4.8809616441735,104.5621612232
1803012006,180301,1803,18,Dwikora,34564,-4.9777697030382,104.53833940508
1803012007,180301,1803,18,"Tanjung Waras",34564,-4.845418288405,104.60511409599
1803012008,180301,1803,18,"Sido Mulyo",34564,-4.9097822809465,104.56729576355
1803021001,180302,1803,18,"Kotabumi Udik",34518,-4.8212567156366,104.83412511144
1803021002,180302,1803,18,Cempedak,34516,-4.8223592727078,104.88226913416
1803021003,180302,1803,18,"Rejosari ",34514,-4.8255748539381,104.91286917451
1803021004,180302,1803,18,"Kotabumi Tengah",34516,-4.8173855108695,104.88803109651
1803021005,180302,1803,18,"Kotabumi Pasar",34518,-4.8189362023205,104.88050963343
1803021006,180302,1803,18,"Kotabumi Ilir",34517,-4.8061346581573,104.90075949543
1803021007,180302,1803,18,"Sindang Sari",34517,-4.8096806857691,104.86316928744
1803021008,180302,1803,18,"Sribasuki ",34515,-4.8207664750344,104.8939248405
1803021009,180302,1803,18,"Kota Gapura",34511,-4.8328552448203,104.89435942202
1803022010,180302,1803,18,"Talang Bojong",34511,-4.8437876482739,104.83544357481
1803022011,180302,1803,18,"Sumber Arum",34511,-4.8088435758677,104.92769455734
1803022012,180302,1803,18,"Bojong Barat",34511,-4.838312844045,104.79928852911
1803022013,180302,1803,18,"Kotabumi Tengah Barat",34516,-4.8328942385959,104.77021168147
1803032002,180303,1803,18,"Bumi Ratu",34554,-4.763462746359,104.78932415699
1803032003,180303,1803,18,"Labuhan Ratu Pasar",34554,-4.748195876826,104.77014275923
1803032004,180303,1803,18,"Sinar Galih",34554,-4.7423927779494,104.74490838814
1803032005,180303,1803,18,"Labuhan Ratu Kampung",34554,-4.7269134289948,104.77611091968
1803032006,180303,1803,18,"Gedung Ketapang",34554,-4.7129885681039,104.7795636206
1803032007,180303,1803,18,"Kota Agung",34554,-4.6998563199477,104.78598788178
1803032008,180303,1803,18,Ketapang,34554,-4.6952859284544,104.81940050732
1803032009,180303,1803,18,"Karang Rejo I",34554,-4.7129920979797,104.81142539459
1803032010,180303,1803,18,"Banjar Ketapang",34554,-4.7080042700299,104.79387293605
1803032017,180303,1803,18,Sidodadi,34554,-4.6643263052468,104.81446713796
1803032023,180303,1803,18,"Gunung Labuhan",34554,-4.7622910929001,104.74616301906
1803042001,180304,1803,18,"Karang Waringin",34557,-4.9959946757709,104.69354852952
1803042002,180304,1803,18,"Suka Sari",34557,-4.9755605445173,104.70181667562
1803042003,180304,1803,18,Merambung,34557,-4.9549583301198,104.64469762792
1803042004,180304,1803,18,"Sinar Jaya",34557,-4.9588559430458,104.62496152128
1803042005,180304,1803,18,"Sindang Agung",34557,-4.9447241562637,104.61943704418
1803042006,180304,1803,18,"Mekar Jaya",34557,-4.9373538296534,104.60438182754
1803042007,180304,1803,18,"Sri Menanti",34557,-4.9055433529588,104.63818737479
1803042008,180304,1803,18,"Tulung Balak",34557,-4.9854087849089,104.66977575496
1803042009,180304,1803,18,"Tanjung Raja",34557,-4.9006781414778,104.66256589347
1803042010,180304,1803,18,"Tanjung Riang",34557,-4.9259408622077,104.68011577018
1803042011,180304,1803,18,"Kemala Raja",34557,-4.9156657759996,104.69456935349
1803042012,180304,1803,18,"Sindang Marga",34557,-4.8975345357366,104.7010562502
1803042013,180304,1803,18,"Ulak Ata",34557,-4.8952856085636,104.68540716846
1803042014,180304,1803,18,"Gunung Katon",34557,-5.0055986097704,104.71170656436
1803042015,180304,1803,18,"Suka Mulya",34557,-5.0123356333955,104.69671160636
1803042016,180304,1803,18,"Tanjung Beringin",34557,-5.0097571279734,104.62163265602
1803042017,180304,1803,18,"Sido Mulyo",34557,-4.9425966590129,104.70447723032
1803042018,180304,1803,18,"Sinar Mulya",34557,-4.942935571337,104.68137016755
1803042019,180304,1803,18,"Priangan Baru",34557,-4.9082376514946,104.70673930068
1803052001,180305,1803,18,"Banjar Agung",34583,-4.7836611536751,104.93077664801
1803052002,180305,1803,18,"Bumi Agung Marga",34583,-4.8017001895698,104.96243477577
1803052003,180305,1803,18,"Pungguk Lama",34583,-4.754067428109,104.93098992204
1803052004,180305,1803,18,"Gedung Nyapah",34583,-4.7144233762341,104.93627644837
1803052005,180305,1803,18,"Penagan Ratu",34583,-4.7139907043839,104.9157536643
1803052006,180305,1803,18,"Peraduan Waras",34583,-4.7791216052881,104.97269638765
1803052007,180305,1803,18,Surakarta,34583,-4.7281134415051,104.97347140768
1803052008,180305,1803,18,"Rejo Mulyo",34583,-4.7451377798702,105.07718670662
1803052009,180305,1803,18,Sidomukti,34583,-4.7571056220197,105.01473665174
1803052010,180305,1803,18,"Bumi Jaya",34583,-4.7660200505531,105.04229053455
1803052011,180305,1803,18,"Papan Rejo",34583,-4.7143557695022,104.93601180638
1803052012,180305,1803,18,"Sumber Agung",34583,-4.7498785705388,104.99046438512
1803062005,180306,1803,18,"Tanjung Harta",34558,-4.879030027302,104.65843195129
1803062006,180306,1803,18,"Ogan Lima",34558,-4.8732092413226,104.70339774308
1803062007,180306,1803,18,"Hujan Mas",34558,-4.8900974444401,104.7157024539
1803062008,180306,1803,18,"Simpang Agung",34558,-4.8698069761154,104.72397681342
1803062009,180306,1803,18,"Bumi Nabung",34558,-4.8632204911391,104.76423212892
1803062010,180306,1803,18,Kamplas,34558,-4.8467113796435,104.73184064808
1803062011,180306,1803,18,Kistang,34558,-4.8528352142136,104.70458925006
1803062012,180306,1803,18,"Cahaya Negeri",34558,-4.8516435170848,104.66557936414
1803062013,180306,1803,18,"Lepang Besar",34558,-4.82444869776,104.66904899669
1803062016,180306,1803,18,Pengaringan,34558,-4.8524698898916,104.74399780731
1803062017,180306,1803,18,"Gunung Betuah",34558,-4.8182504058668,104.6944568683
1803062021,180306,1803,18,"Way Wakak",34558,-4.8747724991537,104.68340100456
1803062023,180306,1803,18,"Pematang Kasih",34558,-4.8384074991187,104.70696239928
1803062024,180306,1803,18,"Bumi Mandiri",34558,-4.8749650942764,104.73666034213
1803072004,180307,1803,18,Trimodadi,34581,-4.9086754947696,104.95459851787
1803072005,180307,1803,18,"Cabang Empat",34581,-4.9478850170327,104.88688524017
1803072006,180307,1803,18,"Sinar Ogan",34581,-4.9325251616788,104.90580994094
1803072007,180307,1803,18,Kalibalangan,34581,-4.8727061837063,104.96329144596
1803072009,180307,1803,18,"Gilih Sukanegeri",34581,-4.9804269672636,104.88207217371
1803072010,180307,1803,18,Candimas,34581,-4.8910169802805,104.92040890725
1803072011,180307,1803,18,"Kembang Tanjung",34581,-4.8453901167849,104.95230627982
1803072012,180307,1803,18,"Abung Jayo",34581,-4.8324307030657,104.93675580946
1803072013,180307,1803,18,"Kembang Gading",34581,-4.9038255022653,104.89988107875
1803072014,180307,1803,18,"Ratu Abung",34581,-4.8892137064983,104.94075328131
1803072015,180307,1803,18,"Bandar Kagungan Raya",34581,-4.8908179719918,104.97878062283
1803072016,180307,1803,18,"Bumi Raya",34581,-4.8609132417201,104.93437106714
1803072017,180307,1803,18,"Kemalo Abung",34581,-4.9169229101418,104.9344533313
1803072018,180307,1803,18,"Cabang Abung Raya",34581,-4.9679979876795,104.89444066683
1803072019,180307,1803,18,"Kalibening Raya",34581,-4.862104576895,104.92825837799
1803072020,180307,1803,18,"Way Lunik",34581,-4.8444001325041,104.97824675006
1803082005,180308,1803,18,"Ogan Jaya",34563,-4.6929852685068,104.69703618569
1803082009,180308,1803,18,Ciamis,34563,-4.6648341701786,104.76026682776
1803082010,180308,1803,18,"Padang Ratu",34563,-4.6777428692492,104.72885130982
1803082011,180308,1803,18,"Negeri Sakti",34563,-4.6624114427033,104.73244123731
1803082012,180308,1803,18,"Negeri Ratu",34563,-4.6649503753261,104.71868320302
1803082019,180308,1803,18,"Negara Ratu",34563,-4.6327343349991,104.73229503463
1803082020,180308,1803,18,"Batu Raja",34563,-4.6487053550092,104.75562956328
1803082021,180308,1803,18,"Gedung Batin",34563,-4.6415615404655,104.79497946752
1803082022,180308,1803,18,"Negara Batin",34563,-4.6278596318999,104.79913583917
1803082023,180308,1803,18,"Kota Negara",34563,-4.6076836163961,104.77735591715
1803082024,180308,1803,18,"Bangun Jaya",34563,-4.6712729680505,104.71746204014
1803082028,180308,1803,18,"Baru Raharja",34563,-4.6946422501629,104.73249741507
1803082029,180308,1803,18,"Hanakau Jaya",34563,-4.5618797198185,104.7443570697
1803082032,180308,1803,18,"Negara Batin II",34563,-4.6470783735963,104.77693295965
1803082033,180308,1803,18,"Kota Negara Ilir",34563,-4.5676691800111,104.79692407758
1803092001,180309,1803,18,Madukoro,34511,-4.7654833896376,104.83959262394
1803092002,180309,1803,18,"Kali Cinta",34511,-4.7832720603408,104.89192875658
1803092003,180309,1803,18,"Wono Marto",34511,-4.7084547896759,104.8704756246
1803092004,180309,1803,18,"Talang Jali",34511,-4.750762186139,104.87055947979
1803092005,180309,1803,18,"Margo Rejo",34511,-4.7431865109488,104.90049649858
1803092006,180309,1803,18,"Banjar Wangi",34511,-4.7903038017932,104.81517788709
1803092007,180309,1803,18,"Sawo Jajar",34511,-4.7304650038508,104.82434040233
1803092008,180309,1803,18,"Madokoro Baru",34511,-4.7867517596299,104.85242939876
1803101001,180310,1803,18,"Kelapa Tujuh",34513,-4.8444923288566,104.90991393527
1803101002,180310,1803,18,"Tanjung Aman ",34511,-4.8308502134331,104.88281800154
1803101003,180310,1803,18,"Kota Alam",34519,-4.8641239019931,104.87839498207
1803101011,180310,1803,18,Tanjungharapan,34511,-4.8414646556091,104.88750526761
1803101012,180310,1803,18,Tanjungsenang,34511,-4.8723141523915,104.89833371871
1803102004,180310,1803,18,"Mulang Maya",34511,-4.8870946747208,104.85851404772
1803102005,180310,1803,18,"Bandar Putih",34511,-4.8891392473386,104.83403127365
1803102006,180310,1803,18,"Karang Agung",34511,-4.8671125715443,104.83283668805
1803102007,180310,1803,18,"Curup Guruh",34511,-4.8646186515583,104.86660819075
1803102008,180310,1803,18,Jerangkang,34511,-4.9317339480689,104.86330780903
1803102009,180310,1803,18,"Way Melan",34511,-4.9207947947112,104.85283681476
1803102010,180310,1803,18,"Taman Jaya",34511,-4.9489323574138,104.85819918956
1803102013,180310,1803,18,"Alam Jaya",34511,-4.9685372645834,104.8579496568
1803102014,180310,1803,18,"Sinar Mas Alam",34511,-4.9179328020862,104.88549227147
1803112001,180311,1803,18,"Gunung Besar",34584,-4.893020582045,104.77061169408
1803112002,180311,1803,18,Kinciran,34584,-4.906903251831,104.75774415763
1803112003,180311,1803,18,"Negla Sari",34584,-4.8898463844634,104.74474322781
1803112004,180311,1803,18,Kedaton,34584,-4.924149265068,104.74710958969
1803112005,180311,1803,18,"Sri Bandung",34584,-4.9046168675178,104.72809796013
1803112006,180311,1803,18,Subik,34584,-4.9633462402107,104.77221668861
1803112007,180311,1803,18,"Gunung Sadar",34584,-4.9698399644641,104.74344662286
1803112008,180311,1803,18,"Gunung Gijul",34584,-4.9900104778529,104.73590313519
1803112016,180311,1803,18,"Pekurun Barat",34584,-4.9537930466906,104.73507337817
1803112017,180311,1803,18,"Pekurun Selatan",34584,-4.945864601448,104.75779466771
1803112018,180311,1803,18,"Pekurun Utara",34584,-4.9294221639507,104.724440174
1803122001,180312,1803,18,"Ulak Rengas",34556,-4.8742466048848,104.61865394555
1803122002,180312,1803,18,"Muara Dua",34556,-4.8893681282855,104.63033598086
1803122003,180312,1803,18,"Pulau Panggung",34556,-4.8737963106514,104.64373584322
1803122004,180312,1803,18,Sekipi,34556,-4.8928238560017,104.60120727418
1803122005,180312,1803,18,"Sido Kayo",34556,-4.9183647864571,104.59130919293
1803122006,180312,1803,18,"Suka Marga",34556,-4.8390783175488,104.62634921699
1803122007,180312,1803,18,"Suka Maju",34556,-4.8364784486475,104.64260502652
1803122008,180312,1803,18,"Kebun Dalam",34556,-4.860304337736,104.64192925791
1803132001,180313,1803,18,"Suka Maju",34580,-4.8513952158819,104.99815488149
1803132002,180313,1803,18,"Semuli Raya",34580,-4.8050561350858,105.02301012173
1803132003,180313,1803,18,"Semuli Jaya",34580,-4.8104803260555,104.99396464647
1803132004,180313,1803,18,"Papan Asri",34580,-4.8135205210093,105.06806165233
1803132005,180313,1803,18,"Gunung Keramat",34580,-4.7478463870709,105.10877304159
1803132006,180313,1803,18,"Sido Rahayu",34580,-4.8399837371052,105.07217848721
1803132007,180313,1803,18,"Gunung Sari",34580,-4.779938640677,105.09028872275
1803142001,180314,1803,18,Tatakarya,34585,-4.7100447529996,105.02412262481
1803142002,180314,1803,18,"Bandar Abung",34585,-4.7047018343391,104.99226543059
1803142003,180314,1803,18,"Bangun Sari",34585,-4.7222297957468,105.00287372526
1803142004,180314,1803,18,"Purba Sakti",34585,-4.700205205256,105.05325087304
1803142005,180314,1803,18,"Bumi Raharja",34585,-4.7248221796463,105.06503322328
1803142006,180314,1803,18,"Bumi Restu",34585,-4.7477117469114,105.04021472047
1803142007,180314,1803,18,"Bandar Sakti",34585,-4.6821848370126,105.03821301672
1803142008,180314,1803,18,"Karya Sakti",34585,-4.6703361305362,105.01477698854
1803142009,180314,1803,18,Sukoharjo,34585,-4.7214961998136,105.04682103093
1803152001,180315,1803,18,"Negeri Ujung Karang",34559,-4.5903678960463,104.96807577746
1803152002,180315,1803,18,"Bandar Agung",34559,-4.5956702571626,104.9366904332
1803152003,180315,1803,18,"Karang Sari",34559,-4.5553207725182,104.97313882057
1803152004,180315,1803,18,"Karang Rejo II",34559,-4.5606816701846,104.9541109507
1803152005,180315,1803,18,"Karang Sakti",34559,-4.5543869966447,104.94116443392
1803152006,180315,1803,18,"Karang Mulyo",34559,-4.5314831814769,104.940286251
1803152007,180315,1803,18,"Banjar Negeri",34559,-4.6208523196528,104.97198090448
1803152008,180315,1803,18,"Banjar Ratu",34559,-4.6404566958884,104.98559218803
1803152009,180315,1803,18,"Negeri Ratu",34559,-4.6673287647277,104.99080002082
1803152010,180315,1803,18,"Pakuon Agung",34559,-4.6711640196611,104.96694864504
1803152011,180315,1803,18,"Sumber Agung",34559,-4.5706525260101,104.93619697841
1803162001,180316,1803,18,"Negara Tulang Bawang",34555,-4.6164743205843,104.87075986906
1803162002,180316,1803,18,"Kota Napal",34555,-4.5694224873607,104.83047172404
1803162003,180316,1803,18,"Tanah Abang",34555,-4.5945357429278,104.84920076548
1803162004,180316,1803,18,"Sukadana Udik",34555,-4.6106488741753,104.89278951309
1803162005,180316,1803,18,"Sukadana Ilir",34555,-4.5807061511865,104.90756364622
1803162006,180316,1803,18,"Haduyang Ratu",34555,-4.5773664840283,104.91943186687
1803162007,180316,1803,18,"Iso Rejo",34555,-4.6357438624256,104.93295601078
1803162008,180316,1803,18,"Mulyo Rejo II",34555,-4.6637514962163,104.91241059596
1803162009,180316,1803,18,"Tulang Bawang Baru",34555,-4.5414182031066,104.86285159292
1803162010,180316,1803,18,"Mulyo Rejo I",34555,-4.6727119118233,104.94066980946
1803162011,180316,1803,18,"Suka Maju",34555,-4.5449385839203,104.88532100335
1803172001,180317,1803,18,"Negera Kemakmuran",34561,-4.7043134612734,104.63770154265
1803172002,180317,1803,18,"Bonglai Tengah",34561,-4.6874409614468,104.65608287419
1803172003,180317,1803,18,"Tanjung Harapan",34561,-4.6766193364565,104.62504411663
1803172004,180317,1803,18,"Lubuk Rukam",34561,-4.6756252434559,104.64453492392
1803172005,180317,1803,18,"Ibul Jaya",34561,-4.6568332398615,104.69973235731
1803172006,180317,1803,18,"Beringin Jaya",34561,-4.6732514924945,104.67493793896
1803172007,180317,1803,18,"Gedung Makrifat",34561,-4.6565182888173,104.65664027105
1803172008,180317,1803,18,"Gedung Raja",34561,-4.6405152530563,104.67953746531
1803172009,180317,1803,18,"Gedung Negara",34561,-4.6394699864691,104.65083136289
1803172010,180317,1803,18,"Tulung Buyut",34561,-4.6070694771118,104.70340214429
1803182001,180318,1803,18,"Batu Nangkop",34562,-4.7271917177584,104.72673575964
1803182002,180318,1803,18,"Negara Bumi",34562,-4.6941568530346,104.76048850781
1803182003,180318,1803,18,"Melungun Ratu",34562,-4.675810135228,104.78027657383
1803182004,180318,1803,18,"Negeri Campang Jaya",34562,-4.7507510990322,104.6572030123
1803182005,180318,1803,18,"Pampang Tangguk Jaya",34562,-4.7282188324654,104.64498311665
1803182006,180318,1803,18,"Negeri Galih Rejo",34562,-4.7275200671425,104.69420245815
1803182007,180318,1803,18,"Ratu Jaya",34562,-4.7103956011352,104.67147248436
1803182008,180318,1803,18,"Mekar Sari",34562,-4.7145941523652,104.75235199397
1803192001,180319,1803,18,"Nyapah Banyu",34582,-4.9857123761931,104.78503697535
1803192002,180319,1803,18,"Sinar Gunung",34582,-4.9922664931552,104.76251561533
1803192003,180319,1803,18,"Campang Gijul",34582,-5.0103180841494,104.73457531226
1803192004,180319,1803,18,"Sumber Tani",34582,-5.0502242870259,104.67593855842
1803192005,180319,1803,18,Pekurun,34582,-4.9286554531134,104.78022258902
1803192006,180319,1803,18,"Ogan Campang",34582,-5.020124553676,104.76509711148
1803192007,180319,1803,18,"Pekurun Tengah",34582,-4.9549427985052,104.80163141206
1803192008,180319,1803,18,"Pekurun Udik",34582,-4.9626969912725,104.82783363478
1803192009,180319,1803,18,"Ogan Jaya",34582,-4.9997789492945,104.78042217584
1803202001,180320,1803,18,Cempaka,34553,-4.8033250637479,104.79186933602
1803202002,180320,1803,18,"Sri Agung",34553,-4.8119874582694,104.76272772869
1803202003,180320,1803,18,"Lepang Tengah",34553,-4.8217159582325,104.72014334342
1803202004,180320,1803,18,"Cahaya Makmur",34553,-4.8025380611184,104.72729432905
1803202005,180320,1803,18,"Suka Jaya",34553,-4.814134883366,104.74378041429
1803202006,180320,1803,18,"Sri Jaya",34553,-4.830825182798,104.74243700808
1803202007,180320,1803,18,"Negara Agung",34553,-4.7801243222796,104.75668944113
1803202008,180320,1803,18,"Cempaka Barat",34553,-4.7979474848765,104.77897012263
1803202009,180320,1803,18,"Cempaka Timur",34553,-4.7906506017948,104.80186776473
1803212001,180321,1803,18,"Sinar Harapan",34552,-4.7861841729111,104.67253296246
1803212002,180321,1803,18,"Kubu Hitu",34552,-4.7780524437169,104.69025709778
1803212003,180321,1803,18,"Negeri Sakti",34552,-4.7851997226453,104.72644240317
1803212004,180321,1803,18,"Tanjung Jaya",34552,-4.7488211990228,104.6988276989
1803212005,180321,1803,18,"Gunung Raja",34552,-4.7642784794293,104.71338013309
1803212006,180321,1803,18,"Cahaya Mas",34552,-4.8121824709054,104.67737012597
1803212007,180321,1803,18,"Comok Sinar Jaya",34552,-4.8106197038057,104.63926958215
1803212008,180321,1803,18,"Way Isem",34552,-4.794760191529,104.6520286307
1803212009,180321,1803,18,"Gunung Maknibai",34552,-4.7960607641251,104.69971163169
1803212010,180321,1803,18,"Negeri Batin Jaya",34552,-4.7655924279259,104.66826835003
1803222001,180322,1803,18,"Aji Kagungan",34565,-4.9160681105962,104.81217269914
1803222002,180322,1803,18,"Talang Jembatan",34565,-4.8803727462509,104.8115874031
1803222003,180322,1803,18,"Sabuk Empat",34565,-4.864178774885,104.79199107348
1803222004,180322,1803,18,Beringin,34565,-4.8931549361677,104.78819521078
1803222005,180322,1803,18,"Sabuk Indah",34565,-4.8552306625442,104.8149826966
1803222006,180322,1803,18,Bindu,34565,-4.9130934883093,104.82291231144
1803222007,180322,1803,18,"Way Perancang",34565,-4.9323205401477,104.83996080799
1803232001,180323,1803,18,Pagar,34586,-4.8987409757191,105.04602851277
1803232002,180323,1803,18,Blambangan,34586,-4.8707339940875,105.03330288981
1803232003,180323,1803,18,Jagang,34586,-4.9124439328287,104.98434178635
1803232004,180323,1803,18,"Tanjung Iman",34586,-4.8688844166461,105.00922569595
1803232005,180323,1803,18,"Tulung Singkip",34586,-4.9254734422656,105.04292375454
1803232006,180323,1803,18,"Pagar Gading",34586,-4.9392276100849,105.02037912166
1803232007,180323,1803,18,"Buring Kencana",34586,-4.8138496478542,105.04428125185
1804041001,180404,1804,18,"Pasar Liwa",34814,-5.0219820018086,104.07933207206
1804041003,180404,1804,18,"Way Mengaku",34812,-5.0350024298423,104.04799159668
1804042002,180404,1804,18,"Kubu Perahu",34813,-5.0748974998412,104.05756062916
1804042004,180404,1804,18,"Padang Cahya",34811,-5.0069728682112,104.0250994759
1804042005,180404,1804,18,Sebarus,34815,-5.0221227964062,104.09080859322
1804042006,180404,1804,18,"Way Empulau Ulu",34811,-5.0557140365495,104.10372246935
1804042007,180404,1804,18,"Gunung Sugih",34816,-5.0322689713484,104.10616964249
1804042008,180404,1804,18,Wates,34817,-5.0201984984522,104.11680326656
1804042009,180404,1804,18,"Padang Dalom",34818,-5.0088522853158,104.10220428447
1804042010,180404,1804,18,Sukarame,34811,-4.9921851295748,104.11370580311
1804042011,180404,1804,18,Bahway,34811,-4.9550717076028,104.1204382828
1804042012,180404,1804,18,"Sedampah Indah",34811,-4.995954014946,103.99946475118
1804051016,180405,1804,18,"Tugu Sari",34870,-5.0278763470055,104.48255274683
1804052001,180405,1804,18,"Simpang Sari",34870,-5.035992943121,104.45439894467
1804052010,180405,1804,18,Sukajaya,34870,-5.0246245917082,104.43219807617
1804052011,180405,1804,18,"Sindang Pagar",34870,-4.9960968868829,104.42923269563
1804052012,180405,1804,18,Sukapura,34870,-4.9680574279307,104.48762367719
1804052013,180405,1804,18,"Way Petai",34870,-4.9722499432732,104.45880714162
1804062001,180406,1804,18,Kenali,34873,-4.9841773763767,104.20087077067
1804062002,180406,1804,18,Kejadian,34873,-5.0060862773959,104.1861346993
1804062003,180406,1804,18,"Bumi Agung",34873,-4.9749372840506,104.16675957655
1804062004,180406,1804,18,Turgak,34873,-4.9820802361215,104.15494520422
1804062005,180406,1804,18,Bedudu,34873,-5.0357334299367,104.20525626116
1804062006,180406,1804,18,Sukarame,34873,-5.0316453150458,104.21532137826
1804062007,180406,1804,18,Hujung,34873,-4.9156058610292,104.19587369679
1804062013,180406,1804,18,Serungkuk,34873,-4.9648005648583,104.18961316201
1804062019,180406,1804,18,"Suka Makmur",34873,-4.8966741044922,104.22696318746
1804062020,180406,1804,18,"Fajar Agung",34873,-4.942147761641,104.16341656184
1804071001,180407,1804,18,"Pajar Bulan",34884,-5.0492672454118,104.42409896981
1804072002,180407,1804,18,Puralaksana,34884,-5.0253845968946,104.41371073073
1804072003,180407,1804,18,"Karang Agung",34884,-5.0138255830907,104.39575380383
1804072004,180407,1804,18,"Mutar Alam",34884,-5.0564933866388,104.39371739031
1804072005,180407,1804,18,"Tanjung Raya",34884,-5.0587900949899,104.38037734562
1804072006,180407,1804,18,Sukananti,34884,-5.0785109199757,104.36556509791
1804072007,180407,1804,18,Sukaraja,34884,-5.0617432927406,104.35701481302
1804072008,180407,1804,18,"Padang Tambak",34884,-5.0585616881509,104.34469182809
1804072009,180407,1804,18,"Tambak Jaya",34884,-5.0405267059652,104.33057266053
1804081005,180408,1804,18,Sekincau,34886,-5.0505582942867,104.30696073551
1804082001,180408,1804,18,Pampangan,34886,-4.9950816704315,104.30476805902
1804082006,180408,1804,18,Waspada,34886,-5.0467221937187,104.26871958111
1804082007,180408,1804,18,"Tiga Jaya",34886,-5.094237211779,104.29837833417
1804082008,180408,1804,18,"Giham Sukamaju",34886,-5.0274520342099,104.29808586373
1804092003,180409,1804,18,"Suka Marga",34880,-5.2381537214549,104.25285057056
1804092004,180409,1804,18,"Sumber Agung",34880,-5.2874183533908,104.28745940963
1804092005,180409,1804,18,Tuguratu,34880,-5.3190814642934,104.30696904345
1804092006,180409,1804,18,"Banding Agung",34880,-5.2903288042293,104.33934946229
1804092010,180409,1804,18,Roworejo,34880,-5.2929913671486,104.37604338483
1804092017,180409,1804,18,Sidorejo,34880,-5.3253403549556,104.35529251513
1804092018,180409,1804,18,"Ringin Sari",34880,-5.2735513504635,104.27473617686
1804102001,180410,1804,18,Kembahang,34881,-5.0124702940248,104.13858709987
1804102002,180410,1804,18,"Negeri Ratu",34881,-5.0519691838462,104.13941005567
1804102003,180410,1804,18,Kegeringan,34881,-5.060950444324,104.18293151085
1804102004,180410,1804,18,"Gunung Sugih",34881,-5.0053277041668,104.16766416247
1804102005,180410,1804,18,"Pekon Balak",34881,-5.0703672409649,104.17776839303
1804102006,180410,1804,18,Sukabumi,34881,-5.0744602682458,104.16297494913
1804102007,180410,1804,18,Canggu,34881,-5.0454989310404,104.17404705352
1804102008,180410,1804,18,"Kota Besi",34881,-5.0472600601783,104.17743569063
1804102009,180410,1804,18,Sukaraja,34881,-4.9956100245435,104.14850911629
1804102010,180410,1804,18,Kerang,34881,-5.0273569916195,104.19238239296
1804102011,180410,1804,18,"Teba Liyokh",34881,-5.1109218147544,104.2098035352
1804112001,180411,1804,18,"Tanjung Raya",34868,-4.9827100796007,104.03983635596
1804112002,180411,1804,18,Hanakau,34868,-4.9879826781294,104.07690085235
1804112003,180411,1804,18,"Buay Nyerupa",34868,-4.9415281778962,104.05077660922
1804112004,180411,1804,18,"Tapak Siring",34868,-4.9513941643843,103.99798528268
1804112005,180411,1804,18,"Jaga Raga",34868,-4.9200740915955,103.98927372279
1804112009,180411,1804,18,"Pagar Dewa",34868,-4.9194851610687,104.01945103666
1804112012,180411,1804,18,"Suka Mulya",34868,-4.9103742481429,104.05459601068
1804112018,180411,1804,18,"Bandar Baru",34868,-4.9486635883296,104.08094370845
1804112019,180411,1804,18,"Bumi Jaya",34868,-4.955569390184,104.01303483735
1804112020,180411,1804,18,"Teba Pering Jaya",34868,-4.9369020010115,103.98669524455
1804152001,180415,1804,18,"Gedung Surian",34871,-5.0780606712956,104.47156664709
1804152002,180415,1804,18,"Pura Mekar",34871,-5.0852250241855,104.49350778377
1804152003,180415,1804,18,"Cipta Waras",34871,-5.1260730910125,104.47640083176
1804152004,180415,1804,18,"Tri Mulyo",34871,-5.1301788343688,104.45251663608
1804152005,180415,1804,18,"Mekar Jaya",34871,-5.1126966731739,104.50910479963
1804182001,180418,1804,18,"Pura Jaya",34867,-5.032434014482,104.54236593119
1804182002,180418,1804,18,"Pura Wiwitan",34867,-5.0565618340932,104.52610163892
1804182003,180418,1804,18,"Tribudi Syukur",34867,-5.0343846459861,104.51488266987
1804182004,180418,1804,18,"Muara Jaya I",34867,-5.0801486420394,104.55271353946
1804182005,180418,1804,18,"Muara Jaya II",34867,-5.0755876462916,104.52411344129
1804182006,180418,1804,18,"Tribudi Makmur",34867,-5.0564243522056,104.50853885109
1804182007,180418,1804,18,"Tugu Mulya",34867,-5.0613893251789,104.53606185779
1804182008,180418,1804,18,"Cipta Mulya",34867,-5.0432200121271,104.55483108836
1804182009,180418,1804,18,"Muara Baru",34867,-5.0910103685322,104.52913673327
1804182010,180418,1804,18,"Sinar Luas",34867,-5.0623247185902,104.5670130274
1804192001,180419,1804,18,Sidodadi,34866,-5.0938820184978,104.40529744322
1804192002,180419,1804,18,"Semarang Jaya",34866,-5.0714507775788,104.41904070464
1804192003,180419,1804,18,"Sumber Alam",34866,-5.1023844793284,104.41792589059
1804192004,180419,1804,18,"Gunung Terang",34866,-5.0917663572111,104.43788799832
1804192005,180419,1804,18,"Suka Jadi",34866,-5.1452760751511,104.42983622732
1804192006,180419,1804,18,"Sri Menanti",34866,-5.0901271222815,104.381488812
1804192007,180419,1804,18,"Sinar Jaya",34866,-5.1063457367396,104.43405811023
1804192008,180419,1804,18,"Rigis Jaya",34866,-5.0753304709596,104.44867029156
1804192009,180419,1804,18,"Suka Damai",34866,-5.1558512196764,104.39144952789
1804192010,180419,1804,18,Manggarai,34866,-5.1216183027226,104.37915524271
1804202001,180420,1804,18,"Pahayu Jaya",34885,-4.9562013726092,104.32860391483
1804202002,180420,1804,18,Basungan,34885,-4.9189977671979,104.40567124352
1804202003,180420,1804,18,"Mekar Sari",34885,-4.940833416822,104.28842196724
1804202004,180420,1804,18,Sidomulyo,34885,-4.8899459430116,104.31200562329
1804202005,180420,1804,18,Sidodadi,34885,-4.9217272460466,104.34616146982
1804202006,180420,1804,18,"Marga Jaya",34885,-4.9578153030516,104.40853400524
1804202007,180420,1804,18,"Suka Jaya",34885,-4.9917572574799,104.34266500024
1804202008,180420,1804,18,"Batu Api",34885,-4.8928512536389,104.37364350709
1804202009,180420,1804,18,"Pagar Dewa",34885,-4.9683717955719,104.36433115816
1804202010,180420,1804,18,"Suka Mulya",34885,-4.9382150750127,104.29881991722
1804212001,180421,1804,18,Argomulyo,34872,-4.9086572060858,104.26433422672
1804212002,180421,1804,18,"Batu Kebayan",34872,-5.0123826918945,104.25283921572
1804212003,180421,1804,18,"Atar Bawang",34872,-5.0665097707117,104.24403197084
1804212004,180421,1804,18,"Campang Tiga",34872,-4.9388666272141,104.24516491392
1804212005,180421,1804,18,Luas,34872,-4.9360503022973,104.2405120008
1804212006,180421,1804,18,Bakhu,34872,-4.9795932895908,104.24657584973
1804212007,180421,1804,18,"Way Ngison",34872,-5.0476519440722,104.2447895408
1804212008,180421,1804,18,"Kubu Liku Jaya",34872,-5.0054611639429,104.2692283909
1804212009,180421,1804,18,"Sumber Rejo",34872,-5.1080704780348,104.25964006067
1804212010,180421,1804,18,"Atar Kuwau",34872,-5.080644231902,104.21599115166
1804222001,180422,1804,18,Lombok,34879,-4.9443036505056,103.93720136698
1804222002,180422,1804,18,"Heni Arong",34879,-4.9187165172475,103.91008401122
1804222003,180422,1804,18,"Suka Banjar",34879,-4.9453772298685,103.87792167378
1804222004,180422,1804,18,"Lombok Timur",34879,-4.9652966811475,103.97331377516
1804222005,180422,1804,18,"Suka Banjar II Ujung Rembun",34879,-4.9014435365095,103.83304041087
1804222006,180422,1804,18,"Suka Maju",34879,-4.9399242261753,103.94554763888
1804222007,180422,1804,18,Ujung,34879,-4.917454411941,103.93562621213
1804222008,180422,1804,18,Keagungan,34879,-4.9629153907239,103.90673049262
1804222009,180422,1804,18,"Tawan Suka Mulya",34879,-4.9326874840148,103.85628960704
1804222010,180422,1804,18,"Pancur Mas",34879,-4.9241181717378,103.83411723182
1804222011,180422,1804,18,"Lombok Selatan",34879,-4.9338259637085,103.96052407846
1804232001,180423,1804,18,Suoh,34882,-5.163186441474,104.32265546378
1804232002,180423,1804,18,Srimulyo,34882,-5.2632772360314,104.30422639473
1804232003,180423,1804,18,"Bandar Agung",34882,-5.2262902074246,104.34456998752
1804232004,180423,1804,18,"Ringin Jaya",34882,-5.1495340917062,104.26946057767
1804232005,180423,1804,18,"Bumi Hantatai",34882,-5.1457724830043,104.16497925131
1804232006,180423,1804,18,Gunungratu,34882,-5.2243381730119,104.27768168556
1804232007,180423,1804,18,Tanjungsari,34882,-5.2910411991424,104.31862893208
1804232008,180423,1804,18,"Negeri Jaya",34882,-5.1826338582725,104.29106705865
1804232009,180423,1804,18,Tembelang,34882,-5.1488859609897,104.23609078753
1804232010,180423,1804,18,"Tri Mekar Jaya",34882,-5.2468842241917,104.30050558087
1805021008,180502,1805,18,"Menggala Selatan",34611,-4.5033147026457,105.21657262674
1805021009,180502,1805,18,"Ujung Gunung ",34611,-4.4755335848559,105.22166224784
1805021010,180502,1805,18,"Menggala Tengah",34611,-4.4705825793321,105.29119599336
1805021011,180502,1805,18,"Menggala Kota",34611,-4.4519128058118,105.23987190051
1805022001,180502,1805,18,"Bujung Tenuk",34613,-4.5792934489796,105.21194397452
1805022002,180502,1805,18,"Ujung Gunung Ilir",34614,-4.5389632409173,105.20903043973
1805022007,180502,1805,18,"Astra Ksetra",34613,-4.6110247431929,105.22998404428
1805022013,180502,1805,18,"Kagungan Rahayu",34613,-4.5542438355038,105.18339334299
1805022014,180502,1805,18,"Tiuh Tohou",34611,-4.5444226329629,105.22726544475
1805062001,180506,1805,18,"Aji Jaya KNPI",34681,-4.296102946153,105.35687415632
1805062002,180506,1805,18,"Kecubung Jaya",34681,-4.2969499946056,105.39445365808
1805062008,180506,1805,18,"Kecubung Mulya",34681,-4.279520267477,105.38807401603
1805062015,180506,1805,18,"Gedung Aji",34681,-4.3238756326696,105.35673654721
1805062016,180506,1805,18,Penawar,34681,-4.3134907160518,105.3730336807
1805062022,180506,1805,18,"Penawar Baru",34681,-4.3416753575243,105.34077014438
1805062023,180506,1805,18,"Aji Murni Jaya",34681,-4.3209777007784,105.33473918577
1805062024,180506,1805,18,"Aji Mesir",34681,-4.2288105492056,105.59277877426
1805062025,180506,1805,18,"Aji Permai Talang Buah",34681,-4.2884696242565,105.33437352423
1805062026,180506,1805,18,"Bandar Aji Jaya",34681,-4.2344053914932,105.56462483085
1805082001,180508,1805,18,"Banjar Agung",34682,-4.30675524518,105.21227950229
1805082007,180508,1805,18,"Tri Darma Wirajaya",34682,-4.2792313005234,105.3113979042
1805082009,180508,1805,18,"Moris Jaya",34682,-4.2937883691485,105.26851885324
1805082010,180508,1805,18,"Tunggal Warga",34682,-4.2822370906018,105.20841294859
1805082011,180508,1805,18,"Dwi Warga Tunggal Jaya",34682,-4.289012705626,105.22411771435
1805082019,180508,1805,18,"Tri Mulya Jaya",34682,-4.299971147533,105.3131418127
1805082020,180508,1805,18,"Tri Mukti Jaya",34682,-4.3006992597402,105.29144456261
1805082021,180508,1805,18,"Tri Tunggal Jaya",34682,-4.3007511499728,105.24424931454
1805082022,180508,1805,18,"Warga Makmur Jaya",34682,-4.2886166822177,105.19238361924
1805082023,180508,1805,18,"Warga Indah Jaya",34682,-4.282626796762,105.17016627542
1805082024,180508,1805,18,"Banjar Dewa",34682,-4.3204234031846,105.21622656276
1805112001,180511,1805,18,"Gunung Tapa",34597,-4.4017912480065,105.54849710938
1805112002,180511,1805,18,"Gedung Meneng",34597,-4.4622971443289,105.52591059433
1805112006,180511,1805,18,"Bakung Udik",34597,-4.4645898012754,105.32568839988
1805112007,180511,1805,18,"Bakung Ilir",34597,-4.4512340685386,105.36423209542
1805112008,180511,1805,18,"Gedung Bandar Rahayu",34597,-4.3706537419689,105.65415144395
1805112014,180511,1805,18,"Gunung Tapa Ilir",34597,-4.3793840234011,105.62042185494
1805112015,180511,1805,18,"Gunung Tapa Tengah",34597,-4.3780788576499,105.59838017516
1805112016,180511,1805,18,"Gunung Tapa Udik",34597,-4.3860557535582,105.47567053419
1805112017,180511,1805,18,"Gedung Bandar Rejo",34597,-4.4072196726725,105.64306333724
1805112018,180511,1805,18,"Bakung Rahayu",34597,-4.3896951370797,105.41544175373
1805112019,180511,1805,18,"Gedung Meneng Baru",34597,-4.2744976686385,105.69499895833
1805122003,180512,1805,18,"Yudha Karya Jitu",34591,-4.2564858984807,105.73486892154
1805122004,180512,1805,18,"Gedung Karya Jitu",34591,-4.2116785535614,105.7400280898
1805122005,180512,1805,18,"Hargo Rejo",34591,-4.2303607563743,105.70523220907
1805122006,180512,1805,18,"Wono Agung",34591,-4.2128325103629,105.66860325716
1805122008,180512,1805,18,"Karya Jitu Mukti",34591,-4.2539787610156,105.75239468587
1805122009,180512,1805,18,"Bumi Ratu",34591,-4.2520991452239,105.66809203586
1805122010,180512,1805,18,Medasari,34591,-4.2015257474447,105.70277501511
1805122013,180512,1805,18,"Hargo Mulyo",34591,-4.2618267219202,105.71191454844
1805122014,180512,1805,18,"Karya Cipta Abadi",34591,-4.2854756489008,105.75854690071
1805132001,180513,1805,18,"Tri Rejo Mulyo",34593,-4.1816249860277,105.45009271817
1805132002,180513,1805,18,"Tri Jaya",34593,-4.1450340449236,105.37719425135
1805132005,180513,1805,18,Sidoharjo,34593,-4.1765492228205,105.41687611771
1805132006,180513,1805,18,"Sido Mulyo",34593,-4.1869408486544,105.38207482507
1805132010,180513,1805,18,"Boga Tama",34593,-4.1867970915359,105.48758299915
1805132011,180513,1805,18,"Wira Tama",34593,-4.1548439536465,105.49167826181
1805132013,180513,1805,18,"Tri Tunggal Jaya",34593,-4.1393468417024,105.41357909099
1805132019,180513,1805,18,"Pulo Gadung",34593,-4.2128851819852,105.49132100809
1805132020,180513,1805,18,Sidodadi,34593,-4.2064313264063,105.41466939528
1805132021,180513,1805,18,Dwimulyo,34593,-4.2191033161911,105.37831789244
1805132022,180513,1805,18,"Rejo Sari",34593,-4.2090733811407,105.44328921195
1805132023,180513,1805,18,"Wira Agung Sari",34593,-4.1552933965071,105.47241214585
1805132024,180513,1805,18,Sidomakmur,34593,-4.1656049127539,105.3844160604
1805132025,180513,1805,18,Trikarya,34593,-4.1493089943043,105.39806910817
1805182001,180518,1805,18,"Bumi Dipasena Utama",34590,-4.2915462437757,105.79084810656
1805182002,180518,1805,18,"Bumi Dipasena Agung",34590,-4.2678030657694,105.7900546922
1805182003,180518,1805,18,"Bumi Dipasena Jaya",34590,-4.244412208633,105.78953064092
1805182004,180518,1805,18,"Bumi Dipasena Abadi",34590,-4.1412698813729,105.78799694866
1805182005,180518,1805,18,"Bumi Dipasena Makmur",34590,-4.1966746691581,105.790376745
1805182006,180518,1805,18,"Bumi Sentosa",34590,-4.3540958608869,105.81904064196
1805182007,180518,1805,18,"Bumi Dipasena Mulya",34590,-4.2207036628843,105.78903912959
1805182008,180518,1805,18,"Bumi Dipasena Sjahtera",34590,-4.1729803164973,105.78819803143
1805202001,180520,1805,18,"Bujuk Agung",34684,-4.2042146533344,105.23499797321
1805202002,180520,1805,18,"Ringin Sari",34684,-4.212465345922,105.33501712861
1805202003,180520,1805,18,Sukamaju,34684,-4.2598661082352,105.28976077971
1805202004,180520,1805,18,"Catur Karya Buana",34684,-4.2389509145866,105.31640258337
1805202005,180520,1805,18,"Purwa Jaya",34684,-4.2647417104965,105.21911447906
1805202006,180520,1805,18,"Penawar Jaya",34684,-4.2324673287657,105.23272373656
1805202007,180520,1805,18,"Agung Dalem",34684,-4.2575380309337,105.26405363348
1805202008,180520,1805,18,"Sumber Makmur",34684,-4.2288067275477,105.27974331692
1805202009,180520,1805,18,"Tri Tunggal Jaya",34684,-4.2330050770122,105.29775907779
1805202010,180520,1805,18,"Agung Jaya",34684,-4.216317025701,105.24721416442
1805202011,180520,1805,18,"Penawar Rejo",34684,-4.2518620426925,105.23517763424
1805202012,180520,1805,18,"Mekar Jaya",34684,-4.2542513375136,105.20012142503
1805222001,180522,1805,18,"Sumber Agung",34594,-4.2616452562834,105.57807801806
1805222002,180522,1805,18,"Batang Hari",34594,-4.3021133299379,105.56011554284
1805222003,180522,1805,18,"Panggung Mulyo",34594,-4.3485571421444,105.53096803122
1805222004,180522,1805,18,"Duto Yoso Mulyo",34594,-4.3399256463174,105.60222104411
1805222005,180522,1805,18,"Andalas Cermin",34594,-4.3520415040184,105.56563723435
1805222006,180522,1805,18,"Rawa Ragil",34594,-4.2914145345292,105.6608328842
1805222007,180522,1805,18,"Gedung Jaya",34594,-4.3228351168555,105.66252052431
1805222008,180522,1805,18,"Bumi Sari",34594,-4.3234816037078,105.6304632055
1805222009,180522,1805,18,"Mulyo Dadi",34594,-4.2921934235817,105.59564302259
1805232001,180523,1805,18,"Gedung Harapan",34592,-4.2869238843904,105.4879042099
1805232002,180523,1805,18,"Gedung Asri",34592,-4.2556847512582,105.52402939241
1805232003,180523,1805,18,"Gedung Rejo Sakti",34592,-4.2676251192282,105.48846798162
1805232004,180523,1805,18,"Pasar Batang",34592,-4.2331266574403,105.48201698192
1805232005,180523,1805,18,"Suka Makmur",34592,-4.2362233619584,105.45531574456
1805232006,180523,1805,18,"Karya Makmur",34592,-4.2942273417309,105.52069628469
1805232007,180523,1805,18,"Wono Rejo",34592,-4.2781755000945,105.53348623086
1805232008,180523,1805,18,"Panca Tunggal Jaya",34592,-4.3081491419262,105.49528472583
1805232009,180523,1805,18,"Sumber Sari",34592,-4.3339952940152,105.50981136543
1805252001,180525,1805,18,Teladas,34596,-4.3657734646911,105.77537104721
1805252002,180525,1805,18,Kekatung,34596,-4.4498734853631,105.83905634354
1805252003,180525,1805,18,"Kuala Teladas",34596,-4.4181508129472,105.8539669361
1805252004,180525,1805,18,Mahabang,34596,-4.4538811453771,105.88113973529
1805252005,180525,1805,18,"Sungai Nibung",34596,-4.5232485320552,105.85795651086
1805252006,180525,1805,18,"Pasiran Jaya",34596,-4.6161553760358,105.80190843924
1805252007,180525,1805,18,"Bratasena Adiwarna",34596,-4.5986191411942,105.84533204268
1805252008,180525,1805,18,"Bratasena Mandiri",34596,-4.650274306687,105.87409959412
1805252009,180525,1805,18,"Way Dente",34596,-4.4561009314205,105.80105354304
1805252010,180525,1805,18,"Dente Makmur",34596,-4.4667738688637,105.73792636187
1805252011,180525,1805,18,"Pendowo Asri",34596,-4.5374180951351,105.77475683748
1805252012,180525,1805,18,"Sungai Burung",34596,-4.6226796170119,105.89243535096
1805262001,180526,1805,18,"Bangun Rejo",34680,-4.3117075144246,105.46524712016
1805262002,180526,1805,18,"Paduan Rajawali",34680,-4.2955428443758,105.42231513763
1805262003,180526,1805,18,"Karya Bhakti",34680,-4.2736982896298,105.42323479837
1805262004,180526,1805,18,Sukarame,34680,-4.2801854848189,105.45751690104
1805262005,180526,1805,18,"Bina Bumi",34680,-4.2691943162113,105.45104255556
1805262006,180526,1805,18,"Mulyo Aji",34680,-4.2542463178969,105.42820613122
1805262007,180526,1805,18,"Kecubung Raya",34680,-4.2486634105723,105.4038701965
1805262008,180526,1805,18,"Marga Jaya",34680,-4.2334479047716,105.43005547268
1805272001,180527,1805,18,Sidomukti,34595,-4.2025080963738,105.57603740786
1805272002,180527,1805,18,"Mesir Dwi Jaya",34595,-4.2288740407184,105.52752192585
1805272003,180527,1805,18,Makartitama,34595,-4.1829330009944,105.5227045353
1805272004,180527,1805,18,"Suka Bhakti",34595,-4.2360208044555,105.62840489039
1805272005,180527,1805,18,"Batu Ampar",34595,-4.2706934586833,105.62779856156
1805272006,180527,1805,18,"Setia Tama",34595,-4.2129773511841,105.52922204601
1805272007,180527,1805,18,"Sumber Jaya",34595,-4.2080057739334,105.59796979925
1805272008,180527,1805,18,"Mekar Asri",34595,-4.228095271662,105.50735503627
1805272009,180527,1805,18,Sidomekar,34595,-4.1929785392504,105.55074077459
1805292001,180529,1805,18,"Panca Mulia",34685,-4.3391250714207,105.20923558267
1805292002,180529,1805,18,"Panca Karsa Purna Jaya",34685,-4.335724219188,105.24418047641
1805292003,180529,1805,18,"Kahuripan Jaya",34685,-4.376175374596,105.22738071422
1805292004,180529,1805,18,"Bawang Sakti Jaya",34685,-4.4019435676969,105.27930364333
1805292005,180529,1805,18,"Mekar Jaya",34685,-4.3513637892416,105.30386566342
1805292006,180529,1805,18,"Balai Murni Jaya",34685,-4.3277612684524,105.30675837931
1805292007,180529,1805,18,"Mekar Indah Jaya",34685,-4.335379345451,105.27735578971
1805292008,180529,1805,18,"Jaya Makmur",34685,-4.3663219382069,105.209096352
1805292009,180529,1805,18,"Bawang Tirto Mulyo",34685,-4.3757043153747,105.27550447496
1805292010,180529,1805,18,"Karya Murni Jaya",34685,-4.3373230416139,105.32073186446
1805302001,180530,1805,18,"Lebuh Dalam",34615,-4.4041954224511,105.24770996387
1805302002,180530,1805,18,Menggala,34616,-4.4308653330758,105.27702447856
1805302003,180530,1805,18,Lingai,34619,-4.3550595607642,105.29117471411
1805302004,180530,1805,18,"Kibang Pacing",34617,-4.384035492644,105.35928701415
1805302005,180530,1805,18,"Sungai Luar",34616,-4.4116557755169,105.32695376979
1805302006,180530,1805,18,"Kahuripan Dalam",34619,-4.3606540101517,105.25218175094
1805302007,180530,1805,18,"Cempaka Dalem",34619,-4.3864740076562,105.29942658753
1805302008,180530,1805,18,"Bedarou Indah",34616,-4.4015301640992,105.31982131747
1805302009,180530,1805,18,"Tri Makmur Jaya",34618,-4.4007136054075,105.2936044173
1805302010,180530,1805,18,"Cempaka Jaya",34617,-4.3769763915053,105.31323485089
1806011001,180601,1806,18,Baros,35381,-5.4942368213008,104.61917287805
1806011002,180601,1806,18,"Pasar Madang",35381,-5.4986770819592,104.62282342233
1806011003,180601,1806,18,Kuripan,35381,-5.4917124047903,104.62463919399
1806012016,180601,1806,18,"Negeri Ratu",35381,-5.4923759196672,104.61352564038
1806012019,180601,1806,18,Penanggungan,35381,-5.4372624675782,104.62853994687
1806012020,180601,1806,18,Terdana,35381,-5.4844302324929,104.61343720802
1806012021,180601,1806,18,Kelungu,35381,-5.4469521693908,104.63947883365
1806012022,180601,1806,18,Pardasuka,35381,-5.4715967095507,104.62533841278
1806012023,180601,1806,18,Teratas,35381,-5.4651715918969,104.64144965737
1806012024,180601,1806,18,Kusa,35381,-5.4921098245528,104.63531907634
1806012025,180601,1806,18,Terbaya,35381,-5.4993256582069,104.6337790756
1806012026,180601,1806,18,Kedamaian,35381,-5.4876749518401,104.64234468568
1806012027,180601,1806,18,"Kota Agung",35381,-5.4879769079344,104.65380559959
1806012039,180601,1806,18,"Kota Batu",35381,-5.4912162617839,104.60571295934
1806012040,180601,1806,18,"Campang Tiga",35381,-5.4891542711259,104.66366000531
1806012041,180601,1806,18,"Benteng Jaya",35381,-5.4418555413964,104.65942413303
1806022012,180602,1806,18,Kalibening,35377,-5.3667497758148,104.76019923139
1806022015,180602,1806,18,Kejayaan,35377,-5.3908343829563,104.7933583445
1806022016,180602,1806,18,"Suka Bumi",35377,-5.3764686711618,104.77924145651
1806022017,180602,1806,18,"Suka Negeri Jaya",35377,-5.3742255885492,104.77995268251
1806022018,180602,1806,18,"Banjar Sari",35377,-5.3698717831867,104.77054438328
1806022019,180602,1806,18,Singosari,35377,-5.357561280076,104.74933373336
1806022020,180602,1806,18,"Sinar Banten",35377,-5.3639876152503,104.77607539164
1806022021,180602,1806,18,Sukarame,35377,-5.3591543519492,104.77026876395
1806022022,180602,1806,18,"Banding Agung",35377,-5.3716236659946,104.7829749378
1806022023,180602,1806,18,"Talang Padang",35377,-5.3664698849363,104.78812506363
1806022024,180602,1806,18,"Suka Negeri",35377,-5.3603780354318,104.79008987788
1806022025,180602,1806,18,"Suka Bandung",35377,-5.3587772727842,104.79392789004
1806022026,180602,1806,18,"Suka Merindu",35377,-5.3531945003089,104.79681293169
1806022027,180602,1806,18,"Sinar Semendo",35377,-5.3595217002134,104.78345653565
1806022028,180602,1806,18,"Negeri Agung",35377,-5.3482963548079,104.77680325135
1806022029,180602,1806,18,"Sinar Petir",35377,-5.3502562376634,104.78828251098
1806022030,180602,1806,18,"Way Halom",35377,-5.3849864709565,104.79879953973
1806022031,180602,1806,18,"Talang Sepuh",35377,-5.3756689224199,104.80172799836
1806022032,180602,1806,18,"Sinar Harapan",35377,-5.3601745507115,104.77793869138
1806022033,180602,1806,18,"Sinar Betung",35377,-5.3703595755074,104.74442858535
1806032001,180603,1806,18,"Karang Anyar",35685,-5.51743562287,104.54025694011
1806032002,180603,1806,18,Kalirejo,35685,-5.5039253699742,104.52847256448
1806032003,180603,1806,18,Dadirejo,35685,-5.4994476143902,104.53854152416
1806032004,180603,1806,18,"Banyu Urip",35685,-5.4894541887766,104.53869309107
1806032005,180603,1806,18,Wonosobo,35685,-5.4787233439418,104.53938234294
1806032006,180603,1806,18,Soponyono,35685,-5.4959606520981,104.54779778465
1806032007,180603,1806,18,"Bandar Kejadian",35685,-5.4511715329373,104.5398247704
1806032008,180603,1806,18,"Way Panas",35685,-5.4095991868563,104.57090815768
1806032009,180603,1806,18,"Sinar Saudara",35685,-5.4827912106339,104.54795847583
1806032010,180603,1806,18,Sridadi,35685,-5.4762714030438,104.54403613739
1806032011,180603,1806,18,Lakaran,35685,-5.4844706984172,104.52615849749
1806032012,180603,1806,18,"Padang Ratu",35685,-5.4723227443573,104.53097818317
1806032013,180603,1806,18,Pardasuka,35685,-5.4717918794589,104.52119924902
1806032014,180603,1806,18,"Tanjung Kurung",35685,-5.4567135188765,104.52412790365
1806032015,180603,1806,18,"Padang Manis",35685,-5.4630346706159,104.52857542183
1806032016,180603,1806,18,Kejadian,35685,-5.4720139528052,104.51226541043
1806032017,180603,1806,18,Dadisari,35685,-5.4901835468734,104.52496319252
1806032018,180603,1806,18,Kalisari,35685,-5.4901946911257,104.51317939967
1806032019,180603,1806,18,"Banjar Negara",35685,-5.4831102169773,104.50727100931
1806032020,180603,1806,18,"Pekon Balak",35685,-5.4377193720327,104.52640546405
1806032021,180603,1806,18,Kunyayan,35685,-5.4505166345476,104.51540007162
1806032022,180603,1806,18,"Banjar Sari",35685,-5.4757656889128,104.49911665574
1806032023,180603,1806,18,"Negeri Ngarip",35685,-5.4550117458622,104.50381255791
1806032034,180603,1806,18,Dadimulyo,35685,-5.4966197933742,104.52025782599
1806032035,180603,1806,18,"Sampang Turus",35685,-5.4159949716465,104.53992807125
1806032036,180603,1806,18,"Sri Melati",35685,-5.468629632838,104.50382555547
1806032037,180603,1806,18,"Way Liwok",35685,-5.4767861678543,104.54948302355
1806032038,180603,1806,18,"Sumur Tujuh",35685,-5.4652158059089,104.54028104596
1806042001,180604,1806,18,"Talang Beringin",35678,-5.4004861137488,104.63526385848
1806042002,180604,1806,18,"Gunung Megang",35678,-5.3540834477769,104.68066503635
1806042003,180604,1806,18,"Tanjung Rejo",35678,-5.3400856876245,104.6904102369
1806042004,180604,1806,18,"Tanjung Begelung",35678,-5.331040241591,104.69780087729
1806042005,180604,1806,18,"Sinar Mulyo",35678,-5.339122995367,104.71728397732
1806042006,180604,1806,18,Kemuning,35678,-5.33286802001,104.75457552711
1806042007,180604,1806,18,"Gedung Agung",35678,-5.3349784876561,104.77362908016
1806042008,180604,1806,18,Penantian,35678,-5.3237620055226,104.77522923524
1806042009,180604,1806,18,"Muara Dua",35678,-5.3171282485182,104.76185272496
1806042010,180604,1806,18,Tekad,35678,-5.3144981577675,104.75219859867
1806042011,180604,1806,18,"Pulau Panggung",35678,-5.320238656807,104.73124095565
1806042012,180604,1806,18,"Gunung Meraksa",35678,-5.3213752314962,104.71053446959
1806042013,180604,1806,18,"Way Ilahan",35678,-5.3057922443343,104.72305174154
1806042014,180604,1806,18,"Batu Bedil",35678,-5.2924876751458,104.67814104156
1806042015,180604,1806,18,"Air Bakoman",35678,-5.2948239869587,104.6485097694
1806042025,180604,1806,18,"Sumber Mulya",35678,-5.3143854235183,104.67409487332
1806042026,180604,1806,18,"Sindang Marga",35678,-5.3426345245031,104.76886113192
1806042027,180604,1806,18,"Talang Jawa",35678,-5.3460687593495,104.66204543809
1806042028,180604,1806,18,Srimanganten,35678,-5.3147131180464,104.65081654422
1806042029,180604,1806,18,"Tanjung Gunung",35678,-5.3154109520786,104.74191747321
1806042030,180604,1806,18,"Sinar Mancak",35678,-5.2923140391494,104.71608343588
1806092001,180609,1806,18,"Karang Buah",35683,-5.8142498951028,104.82326860881
1806092002,180609,1806,18,"Sawang Balak",35683,-5.8027444217489,104.82863914886
1806092003,180609,1806,18,"Way Rilau",35683,-5.6722968265516,104.92104134191
1806092004,180609,1806,18,"Tanjung Raja",35683,-5.6747074950309,104.9351276804
1806092005,180609,1806,18,Tengor,35683,-5.6567424635623,104.90906981825
1806092006,180609,1806,18,"Tanjung Jati",35683,-5.6509927378025,104.9253950207
1806092007,180609,1806,18,"Kejadian Lom",35683,-5.6023010875897,104.94702750626
1806092008,180609,1806,18,Sukaraja,35683,-5.6535107978038,104.9597403406
1806092009,180609,1806,18,"Banjar Negeri",35683,-5.6223042062865,104.96154635549
1806092010,180609,1806,18,Gedung,35683,-5.6608555895614,104.94690393281
1806092011,180609,1806,18,"Suka Padang",35683,-5.6341817348569,104.92490565914
1806092012,180609,1806,18,Kacamarga,35683,-5.5944245634506,104.92567346808
1806092013,180609,1806,18,Pampangan,35683,-5.6023678284951,104.90606441088
1806092014,180609,1806,18,"Banjar Manis",35683,-5.6315198197593,104.89637417313
1806092015,180609,1806,18,"Tanjung Betuah",35683,-5.6231655555639,104.88468385194
1806092016,180609,1806,18,"Putih Doh",35683,-5.5963353967303,104.86975448084
1806092017,180609,1806,18,Pekondoh,35683,-5.629499671476,104.86028823936
1806092028,180609,1806,18,Kubulangka,35683,-5.6151823902202,104.98445250168
1806092029,180609,1806,18,Kutakakhang,35683,-5.7792443247867,104.78987336275
1806092030,180609,1806,18,"Suka Banjar",35683,-5.7877600571889,104.82159082939
1806112001,180611,1806,18,"Rantau Tijang",35675,-5.3588868712496,104.85599363995
1806112002,180611,1806,18,"Tiuh Memon",35675,-5.3460492889259,104.83920690681
1806112003,180611,1806,18,"Banjar Agung Udik",35675,-5.3474990719008,104.81864653796
1806112004,180611,1806,18,"Tanjung Heran",35675,-5.344218254529,104.80400302317
1806112005,180611,1806,18,Sumanda,35675,-5.3957557765649,104.81585680546
1806112006,180611,1806,18,"Campang Way Handak",35675,-5.4577432865782,104.77763735243
1806112007,180611,1806,18,"Taman Sari",35675,-5.4839256005175,104.80581062465
1806112008,180611,1806,18,Sukajadi,35675,-5.3845273817971,104.85380283175
1806112009,180611,1806,18,"Binjai Wangi",35675,-5.3854809751022,104.86532018423
1806112010,180611,1806,18,"Tanjung Kemala",35675,-5.4072239083137,104.86076171289
1806112011,180611,1806,18,"Tanjung Agung",35675,-5.4385755537326,104.85920690553
1806112012,180611,1806,18,Babakan,35675,-5.4241617660199,104.8967488955
1806112013,180611,1806,18,"Negeri Ratu",35675,-5.3563391227267,104.84331501636
1806112014,180611,1806,18,"Sinar Agung",35675,-5.3592725552675,104.8449456097
1806112015,180611,1806,18,"Tangkit Serdang",35675,-5.3149377627898,104.8025801754
1806112016,180611,1806,18,"Gunung Kasih",35675,-5.4059051987166,104.88008579814
1806112017,180611,1806,18,"Way Jaha",35675,-5.3537778324966,104.85087770183
1806112018,180611,1806,18,"Banjar Agung Ilir",35675,-5.3387065503802,104.82755400871
1806112019,180611,1806,18,Gading,35675,-5.4431233091697,104.81820163145
1806112020,180611,1806,18,"Way Piring",35675,-5.450425757859,104.75421406982
1806112021,180611,1806,18,Pungkut,35675,-5.3741250992172,104.82260068746
1806112022,180611,1806,18,"Gunung Tiga",35675,-5.4159597889656,104.88015155449
1806112023,180611,1806,18,"Way Manak",35675,-5.4246782624153,104.87639490441
1806112024,180611,1806,18,Sukamaju,35675,-5.3999804607034,104.83631436738
1806112025,180611,1806,18,"Suka Mulya",35675,-5.4186733549041,104.82542371037
1806112026,180611,1806,18,Kayuhubi,35675,-5.4240824849726,104.80213835008
1806112027,180611,1806,18,"Talang Lebar",35675,-5.2982625627056,104.78293484059
1806122001,180612,1806,18,"Tugu Papak",35386,-5.5386231345007,104.50532476834
1806122002,180612,1806,18,Kacapura,35386,-5.5277003173402,104.51389507402
1806122003,180612,1806,18,Sukaraja,35386,-5.5185655056972,104.48239298209
1806122004,180612,1806,18,"Bangun Rejo",35386,-5.5057807280419,104.49933398211
1806122005,180612,1806,18,"Tugu Rejo",35386,-5.4985673714714,104.50609866307
1806122006,180612,1806,18,Sidodadi,35386,-5.5100397566137,104.51001010206
1806122007,180612,1806,18,Garut,35386,-5.5062404173488,104.51599858341
1806122008,180612,1806,18,"Karang Rejo",35386,-5.5213423165423,104.52527332964
1806122009,180612,1806,18,Kanoman,35386,-5.4911173242945,104.49690578585
1806122010,180612,1806,18,Sudimoro,35386,-5.4815343531376,104.48961479969
1806122011,180612,1806,18,"Sudimoro Bangun",35386,-5.4704795446122,104.48481541538
1806122012,180612,1806,18,"Sri Purnomo",35386,-5.4603109984769,104.47714419628
1806122013,180612,1806,18,"Sri Kuncoro",35386,-5.4552898007605,104.46462995703
1806122014,180612,1806,18,Sidomulyo,35386,-5.4498761201597,104.43240022379
1806122015,180612,1806,18,"Karang Agung",35386,-5.4619543014715,104.43809511803
1806122016,180612,1806,18,"Tulung Asahan",35386,-5.3910751176516,104.37752136595
1806122017,180612,1806,18,"Sri Katon",35386,-5.4736932221003,104.44373048601
1806122018,180612,1806,18,Pardawaras,35386,-5.4822955663309,104.45049453857
1806122019,180612,1806,18,Sedayu,35386,-5.5140471297232,104.46681090728
1806122020,180612,1806,18,"Way Kerap",35386,-5.4975421417842,104.45980022091
1806122021,180612,1806,18,Margomulyo,35386,-5.547846270505,104.48936615203
1806122022,180612,1806,18,Sukajaya,35386,-5.5272245841563,104.49524520429
1806132001,180613,1806,18,Kebumen,35374,-5.3431806781327,104.75634002235
1806132002,180613,1806,18,Sidomulyo,35374,-5.3491643738807,104.73551432393
1806132003,180613,1806,18,"Sumber Rejo",35374,-5.3475977621685,104.71914808107
1806132004,180613,1806,18,"Tegal Binangun",35374,-5.3568373018024,104.72018662979
1806132005,180613,1806,18,Argopeni,35374,-5.3606729319593,104.69831263875
1806132006,180613,1806,18,Margodadi,35374,-5.3691668195577,104.69209063261
1806132007,180613,1806,18,Margoyoso,35374,-5.3888709460025,104.67634403764
1806132008,180613,1806,18,Dadapan,35374,-5.3965707168755,104.68824487021
1806132009,180613,1806,18,"Simpang Kanan",35374,-5.4039771302675,104.69888591235
1806132010,180613,1806,18,Wonoharjo,35374,-5.3690773691923,104.7190581357
1806132011,180613,1806,18,"Sumber Mulyo",35374,-5.3795344412856,104.73083204288
1806132012,180613,1806,18,Argomulyo,35374,-5.3501063503163,104.70418445484
1806132013,180613,1806,18,Sidorejo,35374,-5.3339872195359,104.73391358298
1806152001,180615,1806,18,Datarajan,35387,-5.3664646594392,104.62048140013
