[
    {
        "code": 1801042001,
        "district_code": 180104,
        "regency_code": 1801,
        "province_code": 18,
        "name": "Hajimena",
        "postal_code": "35362",
        "latitude": -5.3522829865944015,
        "longitude": 105.22519492469502
    },
    {
        "code": 1801042002,
        "district_code": 180104,
        "regency_code": 1801,
        "province_code": 18,
        "name": "Sidosari",
        "postal_code": "35362",
        "latitude": -5.327385556888612,
        "longitude": 105.2435466294542
    },
    {
        "code": 1801042003,
        "district_code": 180104,
        "regency_code": 1801,
        "province_code": 18,
        "name": "Pemanggilan",
        "postal_code": "35362",
        "latitude": -5.340008637890956,
        "longitude": 105.21639260691845
    },
    {
        "code": 1801042004,
        "district_code": 180104,
        "regency_code": 1801,
        "province_code": 18,
        "name": "Natar",
        "postal_code": "35362",
        "latitude": -5.329821751037759,
        "longitude": 105.20272935622212
    },
    {
        "code": 1801042005,
        "district_code": 180104,
        "regency_code": 1801,
        "province_code": 18,
        "name": "Muara Putih",
        "postal_code": "35362",
        "latitude": -5.280671065628523,
        "longitude": 105.23744882189611
    },
    {
        "code": 1801042006,
        "district_code": 180104,
        "regency_code": 1801,
        "province_code": 18,
        "name": "Negara Ratu",
        "postal_code": "35362",
        "latitude": -5.319436140432535,
        "longitude": 105.17435151647811
    },
    {
        "code": 1801042007,
        "district_code": 180104,
        "regency_code": 1801,
        "province_code": 18,
        "name": "Merak Batin",
        "postal_code": "35362",
        "latitude": -5.310949340437743,
        "longitude": 105.20813214981416
    },
    {
        "code": 1801042008,
        "district_code": 180104,
        "regency_code": 1801,
        "province_code": 18,
        "name": "Tanjung Sari",
        "postal_code": "35362",
        "latitude": -5.2900176811231665,
        "longitude": 105.20751749836462
    },
    {
        "code": 1801042009,
        "district_code": 180104,
        "regency_code": 1801,
        "province_code": 18,
        "name": "Bumi Sari",
        "postal_code": "35362",
        "latitude": -5.285934396996376,
        "longitude": 105.19070770878814
    },
    {
        "code": 1801042010,
        "district_code": 180104,
        "regency_code": 1801,
        "province_code": 18,
        "name": "Candi Mas",
        "postal_code": "35362",
        "latitude": -5.266536766714039,
        "longitude": 105.18815061058504
    },
    {
        "code": 1801042011,
        "district_code": 180104,
        "regency_code": 1801,
        "province_code": 18,
        "name": "Branti Raya",
        "postal_code": "35362",
        "latitude": -5.242226099658108,
        "longitude": 105.18367729093288
    },
    {
        "code": 1801042012,
        "district_code": 180104,
        "regency_code": 1801,
        "province_code": 18,
        "name": "Haduyang",
        "postal_code": "35362",
        "latitude": -5.2211729931422814,
        "longitude": 105.170765936604
    },
    {
        "code": 1801042013,
        "district_code": 180104,
        "regency_code": 1801,
        "province_code": 18,
        "name": "Banjar Negeri",
        "postal_code": "35362",
        "latitude": -5.217694125632982,
        "longitude": 105.18099921127519
    },
    {
        "code": 1801042014,
        "district_code": 180104,
        "regency_code": 1801,
        "province_code": 18,
        "name": "Mandah",
        "postal_code": "35362",
        "latitude": -5.2152118623314205,
        "longitude": 105.19940470883009
    },
    {
        "code": 1801042015,
        "district_code": 180104,
        "regency_code": 1801,
        "province_code": 18,
        "name": "Rulung Helok",
        "postal_code": "35362",
        "latitude": -5.1967068770560925,
        "longitude": 105.21447719571078
    },
    {
        "code": 1801042016,
        "district_code": 180104,
        "regency_code": 1801,
        "province_code": 18,
        "name": "Bandarejo",
        "postal_code": "35362",
        "latitude": -5.227046377181307,
        "longitude": 105.2809043338222
    },
    {
        "code": 1801042017,
        "district_code": 180104,
        "regency_code": 1801,
        "province_code": 18,
        "name": "Suka Damai",
        "postal_code": "35362",
        "latitude": -5.232060786587978,
        "longitude": 105.31932917875443
    },
    {
        "code": 1801042018,
        "district_code": 180104,
        "regency_code": 1801,
        "province_code": 18,
        "name": "Purwosari",
        "postal_code": "35362",
        "latitude": -5.21601841721748,
        "longitude": 105.26642938029791
    },
    {
        "code": 1801042019,
        "district_code": 180104,
        "regency_code": 1801,
        "province_code": 18,
        "name": "Pancasila",
        "postal_code": "35362",
        "latitude": -5.252791541216084,
        "longitude": 105.26659233888698
    },
    {
        "code": 1801042020,
        "district_code": 180104,
        "regency_code": 1801,
        "province_code": 18,
        "name": "Rejosari",
        "postal_code": "35362",
        "latitude": -5.289287149687523,
        "longitude": 105.14852214131596
    },
    {
        "code": 1801042021,
        "district_code": 180104,
        "regency_code": 1801,
        "province_code": 18,
        "name": "Rulung Raya",
        "postal_code": "35362",
        "latitude": -5.227533304998139,
        "longitude": 105.24240474883605
    },
    {
        "code": 1801042022,
        "district_code": 180104,
        "regency_code": 1801,
        "province_code": 18,
        "name": "Krawang Sari",
        "postal_code": "35362",
        "latitude": -5.288381627975302,
        "longitude": 105.2553948093216
    },
    {
        "code": 1801042023,
        "district_code": 180104,
        "regency_code": 1801,
        "province_code": 18,
        "name": "Wai Sari",
        "postal_code": "35362",
        "latitude": -5.255480764270527,
        "longitude": 105.20999916660574
    },
    {
        "code": 1801042024,
        "district_code": 180104,
        "regency_code": 1801,
        "province_code": 18,
        "name": "Kali Sari",
        "postal_code": "35362",
        "latitude": -5.295841324017826,
        "longitude": 105.22663837893276
    },
    {
        "code": 1801042025,
        "district_code": 180104,
        "regency_code": 1801,
        "province_code": 18,
        "name": "Rulung Sari",
        "postal_code": "35362",
        "latitude": -5.2345824786331585,
        "longitude": 105.22154426177268
    },
    {
        "code": 1801042026,
        "district_code": 180104,
        "regency_code": 1801,
        "province_code": 18,
        "name": "Rulung Mulya",
        "postal_code": "35362",
        "latitude": -5.1914074158199845,
        "longitude": 105.26160101677716
    },
    {
        "code": 1801052001,
        "district_code": 180105,
        "regency_code": 1801,
        "province_code": 18,
        "name": "Kaliasin",
        "postal_code": "35361",
        "latitude": -5.427690985852792,
        "longitude": 105.35234606289957
    },
    {
        "code": 1801052003,
        "district_code": 180105,
        "regency_code": 1801,
        "province_code": 18,
        "name": "Lematang",
        "postal_code": "35361",
        "latitude": -5.3811169357137585,
        "longitude": 105.3636419937361
    },
    {
        "code": 1801052004,
        "district_code": 180105,
        "regency_code": 1801,
        "province_code": 18,
        "name": "Sukanegara",
        "postal_code": "35361",
        "latitude": -5.3953879611824735,
        "longitude": 105.36263842043985
    },
    {
        "code": 1801052005,
        "district_code": 180105,
        "regency_code": 1801,
        "province_code": 18,
        "name": "Serdang",
        "postal_code": "35361",
        "latitude": -5.412831151345322,
        "longitude": 105.3954342702665
    },
    {
        "code": 1801052006,
        "district_code": 180105,
        "regency_code": 1801,
        "province_code": 18,
        "name": "Sinar Ogan",
        "postal_code": "35361",
        "latitude": -5.43881708604979,
        "longitude": 105.42434980133893
    },
    {
        "code": 1801052007,
        "district_code": 180105,
        "regency_code": 1801,
        "province_code": 18,
        "name": "Jati Baru",
        "postal_code": "35361",
        "latitude": -5.428581066760964,
        "longitude": 105.43100388269664
    },
    {
        "code": 1801052008,
        "district_code": 180105,
        "regency_code": 1801,
        "province_code": 18,
        "name": "Sabah Balau",
        "postal_code": "35361",
        "latitude": -5.379118811589068,
        "longitude": 105.33030025309186
    },
    {
        "code": 1801052009,
        "district_code": 180105,
        "regency_code": 1801,
        "province_code": 18,
        "name": "Budi Lestari",
        "postal_code": "35361",
        "latitude": -5.417631348598502,
        "longitude": 105.4756742114301
    },
    {
        "code": 1801052010,
        "district_code": 180105,
        "regency_code": 1801,
        "province_code": 18,
        "name": "Trimulyo",
        "postal_code": "35361",
        "latitude": -5.3939278051591755,
        "longitude": 105.4674467474634
    },
    {
        "code": 1801052011,
        "district_code": 180105,
        "regency_code": 1801,
        "province_code": 18,
        "name": "Jati Indah",
        "postal_code": "35361",
        "latitude": -5.405852091327064,
        "longitude": 105.41325463620502
    },
    {
        "code": 1801052012,
        "district_code": 180105,
        "regency_code": 1801,
        "province_code": 18,
        "name": "Way Galih",
        "postal_code": "35361",
        "latitude": -5.359416407358724,
        "longitude": 105.35635507446078
    },
    {
        "code": 1801052013,
        "district_code": 180105,
        "regency_code": 1801,
        "province_code": 18,
        "name": "Sindang Sari",
        "postal_code": "35361",
        "latitude": -5.3625702011229635,
        "longitude": 105.38936842487237
    },
    {
        "code": 1801052015,
        "district_code": 180105,
        "regency_code": 1801,
        "province_code": 18,
        "name": "Purwodadi Simpang",
        "postal_code": "35361",
        "latitude": -5.343587828312353,
        "longitude": 105.42599912419287
    },
    {
        "code": 1801052021,
        "district_code": 180105,
        "regency_code": 1801,
        "province_code": 18,
        "name": "Galih Lunik",
        "postal_code": "35361",
        "latitude": -5.427309685979955,
        "longitude": 105.37967482407585
    },
    {
        "code": 1801052022,
        "district_code": 180105,
        "regency_code": 1801,
        "province_code": 18,
        "name": "Rejomulyo",
        "postal_code": "35361",
        "latitude": -5.383838453541684,
        "longitude": 105.4007078760158
    },
    {
        "code": 1801052023,
        "district_code": 180105,
        "regency_code": 1801,
        "province_code": 18,
        "name": "Sri Katon",
        "postal_code": "35361",
        "latitude": -5.406840364049274,
        "longitude": 105.4395535204351
    },
    {
        "code": 1801061006,
        "district_code": 180106,
        "regency_code": 1801,
        "province_code": 18,
        "name": "Bumi Agung",
        "postal_code": "35551",
        "latitude": -5.742442047946627,
        "longitude": 105.59576405335991
    },
    {
        "code": 1801061007,
        "district_code": 180106,
        "regency_code": 1801,
        "province_code": 18,
        "name": "Kalianda",
        "postal_code": "35551",
        "latitude": -5.739288665239431,
        "longitude": 105.59182783953864
    },
    {
        "code": 1801061008,
        "district_code": 180106,
        "regency_code": 1801,
        "province_code": 18,
        "name": "Way Urang",
        "postal_code": "35551",
        "latitude": -5.70518057821877,
        "longitude": 105.57557776768418
    },
    {
        "code": 1801061028,
        "district_code": 180106,
        "regency_code": 1801,
        "province_code": 18,
        "name": "Wai Lubuk",
        "postal_code": "35551",
        "latitude": -5.676861359085984,
        "longitude": 105.57798523252613
    },
    {
        "code": 1801062001,
        "district_code": 180106,
        "regency_code": 1801,
        "province_code": 18,
        "name": "Jondong",
        "postal_code": "35551",
        "latitude": -5.773056183478822,
        "longitude": 105.60655761543157
    },
    {
        "code": 1801062002,
        "district_code": 180106,
        "regency_code": 1801,
        "province_code": 18,
        "name": "Tengkujuh",
        "postal_code": "35551",
        "latitude": -5.769248483183484,
        "longitude": 105.60088167779544
    },
    {
        "code": 1801062003,
        "district_code": 180106,
        "regency_code": 1801,
        "province_code": 18,
        "name": "Pauh Tanjung Iman",
        "postal_code": "35551",
        "latitude": -5.764928448143946,
        "longitude": 105.60525304393687
    },
    {
        "code": 1801062004,
        "district_code": 180106,
        "regency_code": 1801,
        "province_code": 18,
        "name": "Sumur Kumbang",
        "postal_code": "35551",
        "latitude": -5.756369658227062,
        "longitude": 105.61125322551985
    },
    {
        "code": 1801062005,
        "district_code": 180106,
        "regency_code": 1801,
        "province_code": 18,
        "name": "Maja",
        "postal_code": "35551",
        "latitude": -5.754770120975455,
        "longitude": 105.59405920991284
    },
    {
        "code": 1801062009,
        "district_code": 180106,
        "regency_code": 1801,
        "province_code": 18,
        "name": "Buah Berak",
        "postal_code": "35551",
        "latitude": -5.744779504576699,
        "longitude": 105.60172574313911
    },
    {
        "code": 1801062010,
        "district_code": 180106,
        "regency_code": 1801,
        "province_code": 18,
        "name": "Kesugihan",
        "postal_code": "35551",
        "latitude": -5.738597143526323,
        "longitude": 105.6076640627092
    },
    {
        "code": 1801062011,
        "district_code": 180106,
        "regency_code": 1801,
        "province_code": 18,
        "name": "Pematang",
        "postal_code": "35551",
        "latitude": -5.748282988371791,
        "longitude": 105.61875021978092
    },
    {
        "code": 1801062012,
        "district_code": 180106,
        "regency_code": 1801,
        "province_code": 18,
        "name": "Kecapi",
        "postal_code": "35551",
        "latitude": -5.746116812325848,
        "longitude": 105.62584961150084
    },
    {
        "code": 1801062013,
        "district_code": 180106,
        "regency_code": 1801,
        "province_code": 18,
        "name": "Babulang",
        "postal_code": "35551",
        "latitude": -5.747442740353396,
        "longitude": 105.63392875633728
    },
    {
        "code": 1801062014,
        "district_code": 180106,
        "regency_code": 1801,
        "province_code": 18,
        "name": "Sukaratu",
        "postal_code": "35551",
        "latitude": -5.7276292200201,
        "longitude": 105.62261957008086
    },
    {
        "code": 1801062015,
        "district_code": 180106,
        "regency_code": 1801,
        "province_code": 18,
        "name": "Palembapang",
        "postal_code": "35551",
        "latitude": -5.720244449236281,
        "longitude": 105.64465511148158
    },
    {
        "code": 1801062016,
        "district_code": 180106,
        "regency_code": 1801,
        "province_code": 18,
        "name": "Tajimalela",
        "postal_code": "35551",
        "latitude": -5.687819966384262,
        "longitude": 105.632751632972
    },
    {
        "code": 1801062017,
        "district_code": 180106,
        "regency_code": 1801,
        "province_code": 18,
        "name": "Canggu",
        "postal_code": "35551",
        "latitude": -5.698098419091629,
        "longitude": 105.61189854330533
    },
    {
        "code": 1801062018,
        "district_code": 180106,
        "regency_code": 1801,
        "province_code": 18,
        "name": "Kedaton",
        "postal_code": "35551",
        "latitude": -5.703754235236098,
        "longitude": 105.59390439071703
    },
    {
        "code": 1801062019,
        "district_code": 180106,
        "regency_code": 1801,
        "province_code": 18,
        "name": "Merak Belatung",
        "postal_code": "35551",
        "latitude": -5.66685665039394,
        "longitude": 105.53164558967565
    },
    {
        "code": 1801062020,
        "district_code": 180106,
        "regency_code": 1801,
        "province_code": 18,
        "name": "Bulok",
        "postal_code": "35551",
        "latitude": -5.649086323086244,
        "longitude": 105.50610597306968
    },
    {
        "code": 1801062021,
        "district_code": 180106,
        "regency_code": 1801,
        "province_code": 18,
        "name": "Munjuk Sampurna",
        "postal_code": "35551",
        "latitude": -5.62677236038112,
        "longitude": 105.53945632793807
    },
    {
        "code": 1801062022,
        "district_code": 180106,
        "regency_code": 1801,
        "province_code": 18,
        "name": "Gunung Terang",
        "postal_code": "35551",
        "latitude": -5.652250905954801,
        "longitude": 105.5461814035507
    },
    {
        "code": 1801062023,
        "district_code": 180106,
        "regency_code": 1801,
        "province_code": 18,
        "name": "Margacatur",
        "postal_code": "35551",
        "latitude": -5.651245409092052,
        "longitude": 105.63709393680004
    },
    {
        "code": 1801062024,
        "district_code": 180106,
        "regency_code": 1801,
        "province_code": 18,
        "name": "Sukatani",
        "postal_code": "35551",
        "latitude": -5.658934244695676,
        "longitude": 105.60615851186706
    },
    {
        "code": 1801062025,
        "district_code": 180106,
        "regency_code": 1801,
        "province_code": 18,
        "name": "Agom",
        "postal_code": "35551",
        "latitude": -5.648230763475529,
        "longitude": 105.58136937206959
    },
    {
        "code": 1801062026,
        "district_code": 180106,
        "regency_code": 1801,
        "province_code": 18,
        "name": "Negeri Pandan",
        "postal_code": "35551",
        "latitude": -5.706829100459086,
        "longitude": 105.63786356725451
    },
    {
        "code": 1801062027,
        "district_code": 180106,
        "regency_code": 1801,
        "province_code": 18,
        "name": "Taman Agung",
        "postal_code": "35551",
        "latitude": -5.631903478582363,
        "longitude": 105.56828008203013
    },
    {
        "code": 1801062029,
        "district_code": 180106,
        "regency_code": 1801,
        "province_code": 18,
        "name": "Hara Banjar Manis",
        "postal_code": "35551",
        "latitude": -5.696613319056777,
        "longitude": 105.60107358455603
    },
    {
        "code": 1801072001,
        "district_code": 180107,
        "regency_code": 1801,
        "province_code": 18,
        "name": "Bandar Dalam",
        "postal_code": "35352",
        "latitude": -5.568209484192053,
        "longitude": 105.4519764931688
    },
    {
        "code": 1801072002,
        "district_code": 180107,
        "regency_code": 1801,
        "province_code": 18,
        "name": "Campang Tiga",
        "postal_code": "35352",
        "latitude": -5.5638683243256475,
        "longitude": 105.48297850133434
    },
    {
        "code": 1801072003,
        "district_code": 180107,
        "regency_code": 1801,
        "province_code": 18,
        "name": "Talang Baru",
        "postal_code": "35352",
        "latitude": -5.578769808676248,
        "longitude": 105.48153087064975
    },
    {
        "code": 1801072004,
        "district_code": 180107,
        "regency_code": 1801,
        "province_code": 18,
        "name": "Suka Banjar",
        "postal_code": "35352",
        "latitude": -5.59495673439783,
        "longitude": 105.4817611390012
    },
    {
        "code": 1801072005,
        "district_code": 180107,
        "regency_code": 1801,
        "province_code": 18,
        "name": "Kota Dalam",
        "postal_code": "35352",
        "latitude": -5.609725348571472,
        "longitude": 105.50002057675495
    },
    {
        "code": 1801072006,
        "district_code": 180107,
        "regency_code": 1801,
        "province_code": 18,
        "name": "Budidaya",
        "postal_code": "35352",
        "latitude": -5.627556583190899,
        "longitude": 105.49480569433764
    },
    {
        "code": 1801072007,
        "district_code": 180107,
        "regency_code": 1801,
        "province_code": 18,
        "name": "Siring Jaha",
        "postal_code": "35352",
        "latitude": -5.637970755157581,
        "longitude": 105.48052221976694
    },
    {
        "code": 1801072008,
        "district_code": 180107,
        "regency_code": 1801,
        "province_code": 18,
        "name": "Suak",
        "postal_code": "35352",
        "latitude": -5.62980799410988,
        "longitude": 105.45627189407307
    },
    {
        "code": 1801072009,
        "district_code": 180107,
        "regency_code": 1801,
        "province_code": 18,
        "name": "Sukamaju",
        "postal_code": "35352",
        "latitude": -5.616001746178529,
        "longitude": 105.51770745066852
    },
    {
        "code": 1801072010,
        "district_code": 180107,
        "regency_code": 1801,
        "province_code": 18,
        "name": "Sukamarga",
        "postal_code": "35352",
        "latitude": -5.619331736711149,
        "longitude": 105.52852874097653
    },
    {
        "code": 1801072011,
        "district_code": 180107,
        "regency_code": 1801,
        "province_code": 18,
        "name": "Seloretno",
        "postal_code": "35352",
        "latitude": -5.60085953592135,
        "longitude": 105.5149615081644
    },
    {
        "code": 1801072012,
        "district_code": 180107,
        "regency_code": 1801,
        "province_code": 18,
        "name": "Sidodadi",
        "postal_code": "35352",
        "latitude": -5.59267853261492,
        "longitude": 105.52300050176972
    },
    {
        "code": 1801072013,
        "district_code": 180107,
        "regency_code": 1801,
        "province_code": 18,
        "name": "Sidorejo",
        "postal_code": "35352",
        "latitude": -5.584307189932416,
        "longitude": 105.5250121646853
    },
    {
        "code": 1801072014,
        "district_code": 180107,
        "regency_code": 1801,
        "province_code": 18,
        "name": "Sidomulyo",
        "postal_code": "35352",
        "latitude": -5.575811405116161,
        "longitude": 105.53727207141634
    },
    {
        "code": 1801072015,
        "district_code": 180107,
        "regency_code": 1801,
        "province_code": 18,
        "name": "Sidowaluyo",
        "postal_code": "35352",
        "latitude": -5.599023430645239,
        "longitude": 105.56211258599151
    },
    {
        "code": 1801072020,
        "district_code": 180107,
        "regency_code": 1801,
        "province_code": 18,
        "name": "Banjar Suri",
        "postal_code": "35352",
        "latitude": -5.607484555756547,
        "longitude": 105.45858088817347
    },
    {
        "code": 1801082001,
        "district_code": 180108,
        "regency_code": 1801,
        "province_code": 18,
        "name": "Tarahan",
        "postal_code": "35452",
        "latitude": -5.566042050902425,
        "longitude": 105.3849911076368
    },
    {
        "code": 1801082002,
        "district_code": 180108,
        "regency_code": 1801,
        "province_code": 18,
        "name": "Babatan",
        "postal_code": "35452",
        "latitude": -5.544179197385023,
        "longitude": 105.40431759403359
    },
    {
        "code": 1801082003,
        "district_code": 180108,
        "regency_code": 1801,
        "province_code": 18,
        "name": "Pardasuka",
        "postal_code": "35452",
        "latitude": -5.519918924938899,
        "longitude": 105.42438726923683
    },
    {
        "code": 1801082004,
        "district_code": 180108,
        "regency_code": 1801,
        "province_code": 18,
        "name": "Sukajaya",
        "postal_code": "35452",
        "latitude": -5.532487469751285,
        "longitude": 105.43814670789894
    },
    {
        "code": 1801082005,
        "district_code": 180108,
        "regency_code": 1801,
        "province_code": 18,
        "name": "Tanjung Ratu",
        "postal_code": "35452",
        "latitude": -5.490073790984397,
        "longitude": 105.49745098969186
    },
    {
        "code": 1801082006,
        "district_code": 180108,
        "regency_code": 1801,
        "province_code": 18,
        "name": "Tanjung Agung",
        "postal_code": "35452",
        "latitude": -5.516327352489423,
        "longitude": 105.4658960545239
    },
    {
        "code": 1801082007,
        "district_code": 180108,
        "regency_code": 1801,
        "province_code": 18,
        "name": "Tanjungan",
        "postal_code": "35452",
        "latitude": -5.535557330764909,
        "longitude": 105.46413375431138
    },
    {
        "code": 1801082008,
        "district_code": 180108,
        "regency_code": 1801,
        "province_code": 18,
        "name": "Trans Tanjungan",
        "postal_code": "35452",
        "latitude": -5.540204668126568,
        "longitude": 105.49989772581739
    },
    {
        "code": 1801082009,
        "district_code": 180108,
        "regency_code": 1801,
        "province_code": 18,
        "name": "Neglasari",
        "postal_code": "35452",
        "latitude": -5.478524031676981,
        "longitude": 105.4627142911182
    },
    {
        "code": 1801082018,
        "district_code": 180108,
        "regency_code": 1801,
        "province_code": 18,
        "name": "Karya Tunggal",
        "postal_code": "35452",
        "latitude": -5.604597782802247,
        "longitude": 105.42064593357227
    },
    {
        "code": 1801082019,
        "district_code": 180108,
        "regency_code": 1801,
        "province_code": 18,
        "name": "Rangai Tri Tunggal",
        "postal_code": "35452",
        "latitude": -5.5274395229291,
        "longitude": 105.37206163204773
    },
    {
        "code": 1801082020,
        "district_code": 180108,
        "regency_code": 1801,
        "province_code": 18,
        "name": "Sidomekar",
        "postal_code": "35452",
        "latitude": -5.57068319352189,
        "longitude": 105.41371865456377
    },
    {
        "code": 1801092001,
        "district_code": 180109,
        "regency_code": 1801,
        "province_code": 18,
        "name": "Kekiling",
        "postal_code": "35593",
        "latitude": -5.7190530598093465,
        "longitude": 105.65427337492801
    },
    {
        "code": 1801092002,
        "district_code": 180109,
        "regency_code": 1801,
        "province_code": 18,
        "name": "Belambangan",
        "postal_code": "35593",
        "latitude": -5.725872460012447,
        "longitude": 105.65847205595016
    },
    {
        "code": 1801092003,
        "district_code": 180109,
        "regency_code": 1801,
        "province_code": 18,
        "name": "Rawi",
        "postal_code": "35593",
        "latitude": -5.725727720641981,
        "longitude": 105.6635844136329
    },
    {
        "code": 1801092004,
        "district_code": 180109,
        "regency_code": 1801,
        "province_code": 18,
        "name": "Padan",
        "postal_code": "35593",
        "latitude": -5.76149975023358,
        "longitude": 105.64352077878742
    },
    {
        "code": 1801092005,
        "district_code": 180109,
        "regency_code": 1801,
        "province_code": 18,
        "name": "Kuripan",
        "postal_code": "35593",
        "latitude": -5.719962935010933,
        "longitude": 105.67683138126036
    },
    {
        "code": 1801092006,
        "district_code": 180109,
        "regency_code": 1801,
        "province_code": 18,
        "name": "Taman Baru",
        "postal_code": "35593",
        "latitude": -5.739750147859825,
        "longitude": 105.65830622844427
    },
    {
        "code": 1801092007,
        "district_code": 180109,
        "regency_code": 1801,
        "province_code": 18,
        "name": "Kelau",
        "postal_code": "35593",
        "latitude": -5.700822462625369,
        "longitude": 105.70307221527591
    },
    {
        "code": 1801092008,
        "district_code": 180109,
        "regency_code": 1801,
        "province_code": 18,
        "name": "Ruang Tengah",
        "postal_code": "35593",
        "latitude": -5.726665074058492,
        "longitude": 105.68588804973815
    },
    {
        "code": 1801092009,
        "district_code": 180109,
        "regency_code": 1801,
        "province_code": 18,
        "name": "Pasuruan",
        "postal_code": "35593",
        "latitude": -5.743440598454843,
        "longitude": 105.6819402383824
    },
    {
        "code": 1801092010,
        "district_code": 180109,
        "regency_code": 1801,
        "province_code": 18,
        "name": "Klaten",
        "postal_code": "35593",
        "latitude": -5.728040726377665,
        "longitude": 105.70486548180897
    },
    {
        "code": 1801092011,
        "district_code": 180109,
        "regency_code": 1801,
        "province_code": 18,
        "name": "Kampung Baru",
        "postal_code": "35593",
        "latitude": -5.757621185257775,
        "longitude": 105.68098133166652
    },
    {
        "code": 1801092012,
        "district_code": 180109,
        "regency_code": 1801,
        "province_code": 18,
        "name": "Banjar Masin",
        "postal_code": "35593",
        "latitude": -5.756484737927856,
        "longitude": 105.69093664489091
    },
    {
        "code": 1801092013,
        "district_code": 180109,
        "regency_code": 1801,
        "province_code": 18,
        "name": "Way Kalam",
        "postal_code": "35593",
        "latitude": -5.767434426257404,
        "longitude": 105.65722018528284
    },
    {
        "code": 1801092014,
        "district_code": 180109,
        "regency_code": 1801,
        "province_code": 18,
        "name": "Gedung Harta",
        "postal_code": "35593",
        "latitude": -5.770187827129715,
        "longitude": 105.67858267336211
    },
    {
        "code": 1801092015,
        "district_code": 180109,
        "regency_code": 1801,
        "province_code": 18,
        "name": "Gayam",
        "postal_code": "35593",
        "latitude": -5.760623271963009,
        "longitude": 105.69980076591202
    },
    {
        "code": 1801092016,
        "district_code": 180109,
        "regency_code": 1801,
        "province_code": 18,
        "name": "Penengahan",
        "postal_code": "35593",
        "latitude": -5.774006409840972,
        "longitude": 105.71519106758188
    },
    {
        "code": 1801092017,
        "district_code": 180109,
        "regency_code": 1801,
        "province_code": 18,
        "name": "Sukajaya",
        "postal_code": "35593",
        "latitude": -5.772609993429439,
        "longitude": 105.70399781470272
    },
    {
        "code": 1801092018,
        "district_code": 180109,
        "regency_code": 1801,
        "province_code": 18,
        "name": "Tetaan",
        "postal_code": "35593",
        "latitude": -5.751605008519044,
        "longitude": 105.71110235536267
    },
    {
        "code": 1801092019,
        "district_code": 180109,
        "regency_code": 1801,
        "province_code": 18,
        "name": "Suka Baru",
        "postal_code": "35593",
        "latitude": -5.78541421339725,
        "longitude": 105.69567718617525
    },
    {
        "code": 1801092020,
        "district_code": 180109,
        "regency_code": 1801,
        "province_code": 18,
        "name": "Pisang",
        "postal_code": "35593",
        "latitude": -5.78516681392257,
        "longitude": 105.70564963666789
    },
    {
        "code": 1801092021,
        "district_code": 180109,
        "regency_code": 1801,
        "province_code": 18,
        "name": "Tanjung Heran",
        "postal_code": "35593",
        "latitude": -5.796642132424338,
        "longitude": 105.68743971846004
    },
    {
        "code": 1801092026,
        "district_code": 180109,
        "regency_code": 1801,
        "province_code": 18,
        "name": "Gandri",
        "postal_code": "35593",
        "latitude": -5.6999982981266575,
        "longitude": 105.71361415890506
    },
    {
        "code": 1801102001,
        "district_code": 180110,
        "regency_code": 1801,
        "province_code": 18,
        "name": "Sukaraja",
        "postal_code": "35594",
        "latitude": -5.676453426676501,
        "longitude": 105.67612457317655
    },
    {
        "code": 1801102002,
        "district_code": 180110,
        "regency_code": 1801,
        "province_code": 18,
        "name": "Sukabakti",
        "postal_code": "35594",
        "latitude": -5.691216187126236,
        "longitude": 105.6890884643808
    },
    {
        "code": 1801102003,
        "district_code": 180110,
        "regency_code": 1801,
        "province_code": 18,
        "name": "Sukamulya",
        "postal_code": "35594",
        "latitude": -5.664430643326986,
        "longitude": 105.67346675788137
    },
    {
        "code": 1801102004,
        "district_code": 180110,
        "regency_code": 1801,
        "province_code": 18,
        "name": "Tanjung Sari",
        "postal_code": "35594",
        "latitude": -5.667834166448828,
        "longitude": 105.6598531103076
    },
    {
        "code": 1801102005,
        "district_code": 180110,
        "regency_code": 1801,
        "province_code": 18,
        "name": "Bangunan",
        "postal_code": "35594",
        "latitude": -5.649006920739405,
        "longitude": 105.66426648437458
    },
    {
        "code": 1801102006,
        "district_code": 180110,
        "regency_code": 1801,
        "province_code": 18,
        "name": "Rejo Mulyo",
        "postal_code": "35594",
        "latitude": -5.634781663205706,
        "longitude": 105.67095986919206
    },
    {
        "code": 1801102007,
        "district_code": 180110,
        "regency_code": 1801,
        "province_code": 18,
        "name": "Palas Aji",
        "postal_code": "35594",
        "latitude": -5.64339767211724,
        "longitude": 105.69181233825763
    },
    {
        "code": 1801102008,
        "district_code": 180110,
        "regency_code": 1801,
        "province_code": 18,
        "name": "Palas Pasemah",
        "postal_code": "35594",
        "latitude": -5.626121980930107,
        "longitude": 105.69727912376244
    },
    {
        "code": 1801102009,
        "district_code": 180110,
        "regency_code": 1801,
        "province_code": 18,
        "name": "Palas Jaya",
        "postal_code": "35594",
        "latitude": -5.5988576635325,
        "longitude": 105.69589536711791
    },
    {
        "code": 1801102010,
        "district_code": 180110,
        "regency_code": 1801,
        "province_code": 18,
        "name": "Bandan Hurip",
        "postal_code": "35594",
        "latitude": -5.607260723858486,
        "longitude": 105.71872762312125
    },
    {
        "code": 1801102011,
        "district_code": 180110,
        "regency_code": 1801,
        "province_code": 18,
        "name": "Pulau Tengah",
        "postal_code": "35594",
        "latitude": -5.59991283631527,
        "longitude": 105.69923054827751
    },
    {
        "code": 1801102012,
        "district_code": 180110,
        "regency_code": 1801,
        "province_code": 18,
        "name": "Bali Agung",
        "postal_code": "35594",
        "latitude": -5.593192970657099,
        "longitude": 105.66224679405117
    },
    {
        "code": 1801102013,
        "district_code": 180110,
        "regency_code": 1801,
        "province_code": 18,
        "name": "Bumi Daya",
        "postal_code": "35594",
        "latitude": -5.615549653293138,
        "longitude": 105.63340816825755
    },
    {
        "code": 1801102014,
        "district_code": 180110,
        "regency_code": 1801,
        "province_code": 18,
        "name": "Tanjung Jaya",
        "postal_code": "35594",
        "latitude": -5.588297820923336,
        "longitude": 105.6243444701605
    },
    {
        "code": 1801102015,
        "district_code": 180110,
        "regency_code": 1801,
        "province_code": 18,
        "name": "Bumi Restu",
        "postal_code": "35594",
        "latitude": -5.580488463193199,
        "longitude": 105.6458108813009
    },
    {
        "code": 1801102016,
        "district_code": 180110,
        "regency_code": 1801,
        "province_code": 18,
        "name": "Pematang Baru",
        "postal_code": "35594",
        "latitude": -5.663688092026264,
        "longitude": 105.70297742255205
    },
    {
        "code": 1801102017,
        "district_code": 180110,
        "regency_code": 1801,
        "province_code": 18,
        "name": "Mekar Mulya",
        "postal_code": "35594",
        "latitude": -5.606200740172191,
        "longitude": 105.6780313454292
    },
    {
        "code": 1801102018,
        "district_code": 180110,
        "regency_code": 1801,
        "province_code": 18,
        "name": "Bumi Asih",
        "postal_code": "35594",
        "latitude": -5.586848284200426,
        "longitude": 105.63525955713195
    },
    {
        "code": 1801102019,
        "district_code": 180110,
        "regency_code": 1801,
        "province_code": 18,
        "name": "Kalirejo",
        "postal_code": "35594",
        "latitude": -5.626594779339935,
        "longitude": 105.65197950077
    },
    {
        "code": 1801102020,
        "district_code": 180110,
        "regency_code": 1801,
        "province_code": 18,
        "name": "Bumi Asri",
        "postal_code": "35594",
        "latitude": -5.56858102050194,
        "longitude": 105.63553592663823
    },
    {
        "code": 1801102021,
        "district_code": 180110,
        "regency_code": 1801,
        "province_code": 18,
        "name": "Pulau Jaya",
        "postal_code": "35594",
        "latitude": -5.563240796358358,
        "longitude": 105.65566756101957
    },
    {
        "code": 1801132001,
        "district_code": 180113,
        "regency_code": 1801,
        "province_code": 18,
        "name": "Way Hui",
        "postal_code": "35365",
        "latitude": -5.354615922739152,
        "longitude": 105.3055771184667
    },
    {
        "code": 1801132002,
        "district_code": 180113,
        "regency_code": 1801,
        "province_code": 18,
        "name": "Sidodadi Asri",
        "postal_code": "35365",
        "latitude": -5.313848137243726,
        "longitude": 105.43642886475878
    },
    {
        "code": 1801132003,
        "district_code": 180113,
        "regency_code": 1801,
        "province_code": 18,
        "name": "Margo Mulyo",
        "postal_code": "35365",
        "latitude": -5.322298850036465,
        "longitude": 105.40478964049142
    },
    {
        "code": 1801132004,
        "district_code": 180113,
        "regency_code": 1801,
        "province_code": 18,
        "name": "Gedung Agung",
        "postal_code": "35365",
        "latitude": -5.3110632766615415,
        "longitude": 105.38545049339886
    },
    {
        "code": 1801132005,
        "district_code": 180113,
        "regency_code": 1801,
        "province_code": 18,
        "name": "Margodadi",
        "postal_code": "35365",
        "latitude": -5.3091670265074145,
        "longitude": 105.36071671340311
    },
    {
        "code": 1801132006,
        "district_code": 180113,
        "regency_code": 1801,
        "province_code": 18,
        "name": "Gedung Harapan",
        "postal_code": "35365",
        "latitude": -5.333536244480037,
        "longitude": 105.36442900802093
    },
    {
        "code": 1801132007,
        "district_code": 180113,
        "regency_code": 1801,
        "province_code": 18,
        "name": "Marga Agung",
        "postal_code": "35365",
        "latitude": -5.31822016063829,
        "longitude": 105.33084810912487
    },
    {
        "code": 1801132008,
        "district_code": 180113,
        "regency_code": 1801,
        "province_code": 18,
        "name": "Jati Mulyo",
        "postal_code": "35365",
        "latitude": -5.335696881716269,
        "longitude": 105.30719939287398
    },
    {
        "code": 1801132009,
        "district_code": 180113,
        "regency_code": 1801,
        "province_code": 18,
        "name": "Fajar Baru",
        "postal_code": "35365",
        "latitude": -5.330651684478014,
        "longitude": 105.26678860006304
    },
    {
        "code": 1801132010,
        "district_code": 180113,
        "regency_code": 1801,
        "province_code": 18,
        "name": "Karang Anyar",
        "postal_code": "35365",
        "latitude": -5.2945465821005415,
        "longitude": 105.28052962742416
    },
    {
        "code": 1801132011,
        "district_code": 180113,
        "regency_code": 1801,
        "province_code": 18,
        "name": "Marga Kaya",
        "postal_code": "35365",
        "latitude": -5.304683548068368,
        "longitude": 105.31343600991227
    },
    {
        "code": 1801132012,
        "district_code": 180113,
        "regency_code": 1801,
        "province_code": 18,
        "name": "Margo Lestari",
        "postal_code": "35365",
        "latitude": -5.293335794993995,
        "longitude": 105.34088297023646
    },
    {
        "code": 1801132013,
        "district_code": 180113,
        "regency_code": 1801,
        "province_code": 18,
        "name": "Sumber Jaya",
        "postal_code": "35365",
        "latitude": -5.287947806149926,
        "longitude": 105.37285205294799
    },
    {
        "code": 1801132014,
        "district_code": 180113,
        "regency_code": 1801,
        "province_code": 18,
        "name": "Sinar Rejeki",
        "postal_code": "35365",
        "latitude": -5.265359871040858,
        "longitude": 105.39427095188896
    },
    {
        "code": 1801132015,
        "district_code": 180113,
        "regency_code": 1801,
        "province_code": 18,
        "name": "Sidoharjo",
        "postal_code": "35365",
        "latitude": -5.241774830836847,
        "longitude": 105.40727541188123
    },
    {
        "code": 1801132016,
        "district_code": 180113,
        "regency_code": 1801,
        "province_code": 18,
        "name": "Rejomulyo",
        "postal_code": "35365",
        "latitude": -5.2657855387097054,
        "longitude": 105.30529910608556
    },
    {
        "code": 1801132017,
        "district_code": 180113,
        "regency_code": 1801,
        "province_code": 18,
        "name": "Purwotani",
        "postal_code": "35365",
        "latitude": -5.273243474519103,
        "longitude": 105.43087851576071
    },
    {
        "code": 1801132018,
        "district_code": 180113,
        "regency_code": 1801,
        "province_code": 18,
        "name": "Banjar Agung",
        "postal_code": "35365",
        "latitude": -5.343198015433587,
        "longitude": 105.33781744442199
    },
    {
        "code": 1801132019,
        "district_code": 180113,
        "regency_code": 1801,
        "province_code": 18,
        "name": "Karang Sari",
        "postal_code": "35365",
        "latitude": -5.32668640814081,
        "longitude": 105.2833812938556
    },
    {
        "code": 1801132020,
        "district_code": 180113,
        "regency_code": 1801,
        "province_code": 18,
        "name": "Karang Rejo",
        "postal_code": "35365",
        "latitude": -5.2409635856747006,
        "longitude": 105.36967494944163
    },
    {
        "code": 1801132021,
        "district_code": 180113,
        "regency_code": 1801,
        "province_code": 18,
        "name": "Margorejo",
        "postal_code": "35365",
        "latitude": -5.308350038306517,
        "longitude": 105.39452370773293
    },
    {
        "code": 1801142001,
        "district_code": 180114,
        "regency_code": 1801,
        "province_code": 18,
        "name": "Bangunrejo",
        "postal_code": "35596",
        "latitude": -5.73736296450992,
        "longitude": 105.76620653729545
    },
    {
        "code": 1801142002,
        "district_code": 180114,
        "regency_code": 1801,
        "province_code": 18,
        "name": "Sripendowo",
        "postal_code": "35596",
        "latitude": -5.728109808936788,
        "longitude": 105.75515422280493
    },
    {
        "code": 1801142003,
        "district_code": 180114,
        "regency_code": 1801,
        "province_code": 18,
        "name": "Karang Sari",
        "postal_code": "35596",
        "latitude": -5.745023901121392,
        "longitude": 105.73046672884799
    },
    {
        "code": 1801142004,
        "district_code": 180114,
        "regency_code": 1801,
        "province_code": 18,
        "name": "Ketapang",
        "postal_code": "35596",
        "latitude": -5.7451412648030855,
        "longitude": 105.77820898107706
    },
    {
        "code": 1801142005,
        "district_code": 180114,
        "regency_code": 1801,
        "province_code": 18,
        "name": "Legundi",
        "postal_code": "35596",
        "latitude": -5.767018138241749,
        "longitude": 105.7663611132124
    },
    {
        "code": 1801142006,
        "district_code": 180114,
        "regency_code": 1801,
        "province_code": 18,
        "name": "Tri Dharma Yoga",
        "postal_code": "35596",
        "latitude": -5.771697860665037,
        "longitude": 105.78626074919393
    },
    {
        "code": 1801142007,
        "district_code": 180114,
        "regency_code": 1801,
        "province_code": 18,
        "name": "Ruguk",
        "postal_code": "35596",
        "latitude": -5.798266446167212,
        "longitude": 105.76837456892595
    },
    {
        "code": 1801142008,
        "district_code": 180114,
        "regency_code": 1801,
        "province_code": 18,
        "name": "Sumur",
        "postal_code": "35596",
        "latitude": -5.837740672075625,
        "longitude": 105.7677230308329
    },
    {
        "code": 1801142009,
        "district_code": 180114,
        "regency_code": 1801,
        "province_code": 18,
        "name": "Sumber Nadi",
        "postal_code": "35596",
        "latitude": -5.70792965808975,
        "longitude": 105.7870908409197
    },
    {
        "code": 1801142010,
        "district_code": 180114,
        "regency_code": 1801,
        "province_code": 18,
        "name": "Sidoasih",
        "postal_code": "35596",
        "latitude": -5.651448473603692,
        "longitude": 105.77643549310783
    },
    {
        "code": 1801142011,
        "district_code": 180114,
        "regency_code": 1801,
        "province_code": 18,
        "name": "Pematang Pasir",
        "postal_code": "35596",
        "latitude": -5.683946766459713,
        "longitude": 105.79102315743823
    },
    {
        "code": 1801142012,
        "district_code": 180114,
        "regency_code": 1801,
        "province_code": 18,
        "name": "Berundung",
        "postal_code": "35596",
        "latitude": -5.6565192223922125,
        "longitude": 105.79858987933024
    },
    {
        "code": 1801142013,
        "district_code": 180114,
        "regency_code": 1801,
        "province_code": 18,
        "name": "Taman Sari",
        "postal_code": "35596",
        "latitude": -5.703529811960949,
        "longitude": 105.77074721224217
    },
    {
        "code": 1801142014,
        "district_code": 180114,
        "regency_code": 1801,
        "province_code": 18,
        "name": "Kemukus",
        "postal_code": "35596",
        "latitude": -5.713224716745426,
        "longitude": 105.7469295029894
    },
    {
        "code": 1801142015,
        "district_code": 180114,
        "regency_code": 1801,
        "province_code": 18,
        "name": "Lebung Nala",
        "postal_code": "35596",
        "latitude": -5.691403237704195,
        "longitude": 105.76989765332789
    },
    {
        "code": 1801142016,
        "district_code": 180114,
        "regency_code": 1801,
        "province_code": 18,
        "name": "Sidoluhur",
        "postal_code": "35596",
        "latitude": -5.836523391960089,
        "longitude": 105.74492183017385
    },
    {
        "code": 1801142017,
        "district_code": 180114,
        "regency_code": 1801,
        "province_code": 18,
        "name": "Wai Sidomukti",
        "postal_code": "35596",
        "latitude": -5.655386310399852,
        "longitude": 105.77800109437439
    },
    {
        "code": 1801152001,
        "district_code": 180115,
        "regency_code": 1801,
        "province_code": 18,
        "name": "Kuala Sekampung",
        "postal_code": "35597",
        "latitude": -5.623878258770173,
        "longitude": 105.7597663749833
    },
    {
        "code": 1801152002,
        "district_code": 180115,
        "regency_code": 1801,
        "province_code": 18,
        "name": "Baktirasa",
        "postal_code": "35597",
        "latitude": -5.646329122409759,
        "longitude": 105.73431709426482
    },
    {
        "code": 1801152003,
        "district_code": 180115,
        "regency_code": 1801,
        "province_code": 18,
        "name": "Mandala Sari",
        "postal_code": "35597",
        "latitude": -5.648229928489277,
        "longitude": 105.72003759853801
    },
    {
        "code": 1801152004,
        "district_code": 180115,
        "regency_code": 1801,
        "province_code": 18,
        "name": "Sukapura",
        "postal_code": "35597",
        "latitude": -5.612956587238818,
        "longitude": 105.74055231090668
    },
    {
        "code": 1801152005,
        "district_code": 180115,
        "regency_code": 1801,
        "province_code": 18,
        "name": "Sumber Agung",
        "postal_code": "35597",
        "latitude": -5.671338989215159,
        "longitude": 105.76396829207158
    },
    {
        "code": 1801152006,
        "district_code": 180115,
        "regency_code": 1801,
        "province_code": 18,
        "name": "Marga Jasa",
        "postal_code": "35597",
        "latitude": -5.675938260656941,
        "longitude": 105.71963488019907
    },
    {
        "code": 1801152007,
        "district_code": 180115,
        "regency_code": 1801,
        "province_code": 18,
        "name": "Sumber Sari",
        "postal_code": "35597",
        "latitude": -5.691860488203277,
        "longitude": 105.74251401011945
    },
    {
        "code": 1801152008,
        "district_code": 180115,
        "regency_code": 1801,
        "province_code": 18,
        "name": "Bandar Agung",
        "postal_code": "35597",
        "latitude": -5.6082114940513925,
        "longitude": 105.80377479376564
    },
    {
        "code": 1801152009,
        "district_code": 180115,
        "regency_code": 1801,
        "province_code": 18,
        "name": "Kedaung",
        "postal_code": "35597",
        "latitude": -5.652272771595832,
        "longitude": 105.75167525240693
    },
    {
        "code": 1801152010,
        "district_code": 180115,
        "regency_code": 1801,
        "province_code": 18,
        "name": "Margasari",
        "postal_code": "35597",
        "latitude": -5.63871694118835,
        "longitude": 105.70582244197504
    },
    {
        "code": 1801162001,
        "district_code": 180116,
        "regency_code": 1801,
        "province_code": 18,
        "name": "Banding",
        "postal_code": "35552",
        "latitude": -5.802797932984541,
        "longitude": 105.60479703993771
    },
    {
        "code": 1801162002,
        "district_code": 180116,
        "regency_code": 1801,
        "province_code": 18,
        "name": "Betung",
        "postal_code": "35552",
        "latitude": -5.7824196266599825,
        "longitude": 105.59578164916273
    },
    {
        "code": 1801162003,
        "district_code": 180116,
        "regency_code": 1801,
        "province_code": 18,
        "name": "Batu Balak",
        "postal_code": "35552",
        "latitude": -5.834087756846229,
        "longitude": 105.66985829325571
    },
    {
        "code": 1801162004,
        "district_code": 180116,
        "regency_code": 1801,
        "province_code": 18,
        "name": "Canti",
        "postal_code": "35552",
        "latitude": -5.792482870735801,
        "longitude": 105.60393411293953
    },
    {
        "code": 1801162005,
        "district_code": 180116,
        "regency_code": 1801,
        "province_code": 18,
        "name": "Canggung",
        "postal_code": "35552",
        "latitude": -5.787610022681749,
        "longitude": 105.59396785904097
    },
    {
        "code": 1801162006,
        "district_code": 180116,
        "regency_code": 1801,
        "province_code": 18,
        "name": "Cugung",
        "postal_code": "35552",
        "latitude": -5.8114619163542915,
        "longitude": 105.66090593967456
    },
    {
        "code": 1801162007,
        "district_code": 180116,
        "regency_code": 1801,
        "province_code": 18,
        "name": "Hargo Pancuran",
        "postal_code": "35552",
        "latitude": -5.827474653820547,
        "longitude": 105.6782679393292
    },
    {
        "code": 1801162008,
        "district_code": 180116,
        "regency_code": 1801,
        "province_code": 18,
        "name": "Kerinjing",
        "postal_code": "35552",
        "latitude": -5.820854794648477,
        "longitude": 105.67313809914965
    },
    {
        "code": 1801162009,
        "district_code": 180116,
        "regency_code": 1801,
        "province_code": 18,
        "name": "Kunjir",
        "postal_code": "35552",
        "latitude": -5.819573882413768,
        "longitude": 105.65017838225411
    },
    {
        "code": 1801162010,
        "district_code": 180116,
        "regency_code": 1801,
        "province_code": 18,
        "name": "Kota Guring",
        "postal_code": "35552",
        "latitude": -5.776088021108347,
        "longitude": 105.60521582533396
    },
    {
        "code": 1801162011,
        "district_code": 180116,
        "regency_code": 1801,
        "province_code": 18,
        "name": "Rajabasa",
        "postal_code": "35552",
        "latitude": -5.80759699530812,
        "longitude": 105.61425927933833
    },
    {
        "code": 1801162012,
        "district_code": 180116,
        "regency_code": 1801,
        "province_code": 18,
        "name": "Sukaraja",
        "postal_code": "35552",
        "latitude": -5.813978783656468,
        "longitude": 105.6226966899702
    },
    {
        "code": 1801162013,
        "district_code": 180116,
        "regency_code": 1801,
        "province_code": 18,
        "name": "Tanjung Gading",
        "postal_code": "35552",
        "latitude": -5.778922384504097,
        "longitude": 105.59869405224896
    },
    {
        "code": 1801162014,
        "district_code": 180116,
        "regency_code": 1801,
        "province_code": 18,
        "name": "Tejang Pulau Sebesi",
        "postal_code": "35552",
        "latitude": -5.996451458053771,
        "longitude": 105.4712608331151
    },
    {
        "code": 1801162015,
        "district_code": 180116,
        "regency_code": 1801,
        "province_code": 18,
        "name": "Way Muli",
        "postal_code": "35552",
        "latitude": -5.816544612977685,
        "longitude": 105.63273105662965
    },
    {
        "code": 1801162016,
        "district_code": 180116,
        "regency_code": 1801,
        "province_code": 18,
        "name": "Wai Muli Timur",
        "postal_code": "35552",
        "latitude": -5.817848925693704,
        "longitude": 105.63961668383648
    },
    {
        "code": 1801172001,
        "district_code": 180117,
        "regency_code": 1801,
        "province_code": 18,
        "name": "Batuliman Indah",
        "postal_code": "35356",
        "latitude": -5.520308387304464,
        "longitude": 105.51293129339045
    },
    {
        "code": 1801172002,
        "district_code": 180117,
        "regency_code": 1801,
        "province_code": 18,
        "name": "Sinar Palembang",
        "postal_code": "35356",
        "latitude": -5.535126040717271,
        "longitude": 105.54398339750142
    },
    {
        "code": 1801172003,
        "district_code": 180117,
        "regency_code": 1801,
        "province_code": 18,
        "name": "Rantau Minyak",
        "postal_code": "35356",
        "latitude": -5.551453183822623,
        "longitude": 105.54000540566808
    },
    {
        "code": 1801172004,
        "district_code": 180117,
        "regency_code": 1801,
        "province_code": 18,
        "name": "Sido Asri",
        "postal_code": "35356",
        "latitude": -5.554213115248755,
        "longitude": 105.56016317124289
    },
    {
        "code": 1801172005,
        "district_code": 180117,
        "regency_code": 1801,
        "province_code": 18,
        "name": "Way Gelam",
        "postal_code": "35356",
        "latitude": -5.563927310652573,
        "longitude": 105.57261989233814
    },
    {
        "code": 1801172006,
        "district_code": 180117,
        "regency_code": 1801,
        "province_code": 18,
        "name": "Cinta Mulya",
        "postal_code": "35356",
        "latitude": -5.527396095471695,
        "longitude": 105.57049350764075
    },
    {
        "code": 1801172007,
        "district_code": 180117,
        "regency_code": 1801,
        "province_code": 18,
        "name": "Banyumas",
        "postal_code": "35356",
        "latitude": -5.4977993899071285,
        "longitude": 105.58059375203366
    },
    {
        "code": 1801172008,
        "district_code": 180117,
        "regency_code": 1801,
        "province_code": 18,
        "name": "Beringin Kencana",
        "postal_code": "35356",
        "latitude": -5.507495349051479,
        "longitude": 105.5958823876919
    },
    {
        "code": 1801172009,
        "district_code": 180117,
        "regency_code": 1801,
        "province_code": 18,
        "name": "Sinar Pasemah",
        "postal_code": "35356",
        "latitude": -5.4958431820406926,
        "longitude": 105.62268598093452
    },
    {
        "code": 1801172010,
        "district_code": 180117,
        "regency_code": 1801,
        "province_code": 18,
        "name": "Rawa Selapan",
        "postal_code": "35356",
        "latitude": -5.517265571620755,
        "longitude": 105.63410088371594
    },
    {
        "code": 1801172011,
        "district_code": 180117,
        "regency_code": 1801,
        "province_code": 18,
        "name": "Bumi Jaya",
        "postal_code": "35356",
        "latitude": -5.534270486081464,
        "longitude": 105.60888509179901
    },
    {
        "code": 1801172012,
        "district_code": 180117,
        "regency_code": 1801,
        "province_code": 18,
        "name": "Trimomukti",
        "postal_code": "35356",
        "latitude": -5.54929238151181,
        "longitude": 105.62769536621153
    },
    {
        "code": 1801172013,
        "district_code": 180117,
        "regency_code": 1801,
        "province_code": 18,
        "name": "Titiwangi",
        "postal_code": "35356",
        "latitude": -5.534308066471471,
        "longitude": 105.59153575422461
    },
    {
        "code": 1801172014,
        "district_code": 180117,
        "regency_code": 1801,
        "province_code": 18,
        "name": "Karya Mulya Sari",
        "postal_code": "35356",
        "latitude": -5.517738191383754,
        "longitude": 105.54121986868496
    },
    {
        "code": 1801182001,
        "district_code": 180118,
        "regency_code": 1801,
        "province_code": 18,
        "name": "Merbau Mataram",
        "postal_code": "35357",
        "latitude": -5.446298862940553,
        "longitude": 105.3735475707606
    },
    {
        "code": 1801182002,
        "district_code": 180118,
        "regency_code": 1801,
        "province_code": 18,
        "name": "Suban",
        "postal_code": "35357",
        "latitude": -5.469244806779096,
        "longitude": 105.40813013715336
    },
    {
        "code": 1801182003,
        "district_code": 180118,
        "regency_code": 1801,
        "province_code": 18,
        "name": "Tanjung Baru",
        "postal_code": "35357",
        "latitude": -5.450299402970765,
        "longitude": 105.34246174218198
    },
    {
        "code": 1801182004,
        "district_code": 180118,
        "regency_code": 1801,
        "province_code": 18,
        "name": "Baru Ranji",
        "postal_code": "35357",
        "latitude": -5.484058494726083,
        "longitude": 105.34838186770973
    },
    {
        "code": 1801182005,
        "district_code": 180118,
        "regency_code": 1801,
        "province_code": 18,
        "name": "Karang Raja ND",
        "postal_code": "35357",
        "latitude": -5.486555679557634,
        "longitude": 105.40768692283784
    },
    {
        "code": 1801182006,
        "district_code": 180118,
        "regency_code": 1801,
        "province_code": 18,
        "name": "Talang Jawa",
        "postal_code": "35357",
        "latitude": -5.4500370716205175,
        "longitude": 105.48369940776925
    },
    {
        "code": 1801182007,
        "district_code": 180118,
        "regency_code": 1801,
        "province_code": 18,
        "name": "Lebung Sari",
        "postal_code": "35357",
        "latitude": -5.447202416474461,
        "longitude": 105.49981439680246
    },
    {
        "code": 1801182008,
        "district_code": 180118,
        "regency_code": 1801,
        "province_code": 18,
        "name": "Puji Rahayu",
        "postal_code": "35357",
        "latitude": -5.448839186669547,
        "longitude": 105.51521170724581
    },
    {
        "code": 1801182009,
        "district_code": 180118,
        "regency_code": 1801,
        "province_code": 18,
        "name": "Batu Agung",
        "postal_code": "35357",
        "latitude": -5.426290755637453,
        "longitude": 105.52187522037279
    },
    {
        "code": 1801182010,
        "district_code": 180118,
        "regency_code": 1801,
        "province_code": 18,
        "name": "Tanjung Harapan",
        "postal_code": "35357",
        "latitude": -5.405417171565221,
        "longitude": 105.51393979520805
    },
    {
        "code": 1801182011,
        "district_code": 180118,
        "regency_code": 1801,
        "province_code": 18,
        "name": "Sinar Karya",
        "postal_code": "35357",
        "latitude": -5.428912096088439,
        "longitude": 105.50005577032529
    },
    {
        "code": 1801182012,
        "district_code": 180118,
        "regency_code": 1801,
        "province_code": 18,
        "name": "Triharjo",
        "postal_code": "35357",
        "latitude": -5.454735789396162,
        "longitude": 105.41437534723735
    },
    {
        "code": 1801182013,
        "district_code": 180118,
        "regency_code": 1801,
        "province_code": 18,
        "name": "Panca Tunggal",
        "postal_code": "35357",
        "latitude": -5.450488683840444,
        "longitude": 105.45175822754675
    },
    {
        "code": 1801182014,
        "district_code": 180118,
        "regency_code": 1801,
        "province_code": 18,
        "name": "Mekar Jaya",
        "postal_code": "35357",
        "latitude": -5.505512932029502,
        "longitude": 105.39092893622187
    },
    {
        "code": 1801182015,
        "district_code": 180118,
        "regency_code": 1801,
        "province_code": 18,
        "name": "Karang Jaya",
        "postal_code": "35357",
        "latitude": -5.478096665771448,
        "longitude": 105.37034207339737
    },
    {
        "code": 1801212001,
        "district_code": 180121,
        "regency_code": 1801,
        "province_code": 18,
        "name": "Semanak",
        "postal_code": "35592",
        "latitude": -5.814097895264824,
        "longitude": 105.70659896261908
    },
    {
        "code": 1801212002,
        "district_code": 180121,
        "regency_code": 1801,
        "province_code": 18,
        "name": "Toto Harjo",
        "postal_code": "35592",
        "latitude": -5.831471984338179,
        "longitude": 105.69208070989983
    },
    {
        "code": 1801212003,
        "district_code": 180121,
        "regency_code": 1801,
        "province_code": 18,
        "name": "Hatta",
        "postal_code": "35592",
        "latitude": -5.809175864419099,
        "longitude": 105.7348015867264
    },
    {
        "code": 1801212004,
        "district_code": 180121,
        "regency_code": 1801,
        "province_code": 18,
        "name": "Bakauheni",
        "postal_code": "35592",
        "latitude": -5.870634438641788,
        "longitude": 105.74313627303344
    },
    {
        "code": 1801212005,
        "district_code": 180121,
        "regency_code": 1801,
        "province_code": 18,
        "name": "Kelawi",
        "postal_code": "35592",
        "latitude": -5.854837403176056,
        "longitude": 105.72109523419601
    },
    {
        "code": 1801222001,
        "district_code": 180122,
        "regency_code": 1801,
        "province_code": 18,
        "name": "Bangun Sari",
        "postal_code": "35360",
        "latitude": -5.367715723700715,
        "longitude": 105.51936958916095
    },
    {
        "code": 1801222002,
        "district_code": 180122,
        "regency_code": 1801,
        "province_code": 18,
        "name": "Purwodadi Dalam",
        "postal_code": "35360",
        "latitude": -5.374737823344609,
        "longitude": 105.43959363995714
    },
    {
        "code": 1801222003,
        "district_code": 180122,
        "regency_code": 1801,
        "province_code": 18,
        "name": "Sidomukti",
        "postal_code": "35360",
        "latitude": -5.377446707732453,
        "longitude": 105.48669515042103
    },
    {
        "code": 1801222004,
        "district_code": 180122,
        "regency_code": 1801,
        "province_code": 18,
        "name": "Wawasan",
        "postal_code": "35360",
        "latitude": -5.373161459990829,
        "longitude": 105.50345712923811
    },
    {
        "code": 1801222005,
        "district_code": 180122,
        "regency_code": 1801,
        "province_code": 18,
        "name": "Mulyosari",
        "postal_code": "35360",
        "latitude": -5.331185624445927,
        "longitude": 105.50645665301137
    },
    {
        "code": 1801222006,
        "district_code": 180122,
        "regency_code": 1801,
        "province_code": 18,
        "name": "Wonodadi",
        "postal_code": "35360",
        "latitude": -5.354125767429044,
        "longitude": 105.45995745750552
    },
    {
        "code": 1801222007,
        "district_code": 180122,
        "regency_code": 1801,
        "province_code": 18,
        "name": "Kertosari",
        "postal_code": "35360",
        "latitude": -5.338425556854901,
        "longitude": 105.47156149760967
    },
    {
        "code": 1801222008,
        "district_code": 180122,
        "regency_code": 1801,
        "province_code": 18,
        "name": "Malangsari",
        "postal_code": "35360",
        "latitude": -5.308321765374574,
        "longitude": 105.4791348887619
    },
    {
        "code": 1801232001,
        "district_code": 180123,
        "regency_code": 1801,
        "province_code": 18,
        "name": "Mekar Sari",
        "postal_code": "35456",
        "latitude": -5.468041841022189,
        "longitude": 105.51166396380954
    },
    {
        "code": 1801232002,
        "district_code": 180123,
        "regency_code": 1801,
        "province_code": 18,
        "name": "Sumber Agung",
        "postal_code": "35456",
        "latitude": -5.480910236317352,
        "longitude": 105.5069897582016
    },
    {
        "code": 1801232003,
        "district_code": 180123,
        "regency_code": 1801,
        "province_code": 18,
        "name": "Talang Way Sulan",
        "postal_code": "35456",
        "latitude": -5.486952121971176,
        "longitude": 105.52272890382747
    },
    {
        "code": 1801232004,
        "district_code": 180123,
        "regency_code": 1801,
        "province_code": 18,
        "name": "Pamulihan",
        "postal_code": "35456",
        "latitude": -5.497666170181671,
        "longitude": 105.5403475493486
    },
    {
        "code": 1801232005,
        "district_code": 180123,
        "regency_code": 1801,
        "province_code": 18,
        "name": "Purwodadi",
        "postal_code": "35456",
        "latitude": -5.494609197014982,
        "longitude": 105.56499512364995
    },
    {
        "code": 1801232006,
        "district_code": 180123,
        "regency_code": 1801,
        "province_code": 18,
        "name": "Sukamaju",
        "postal_code": "35456",
        "latitude": -5.468053172871185,
        "longitude": 105.58150280593736
    },
    {
        "code": 1801232007,
        "district_code": 180123,
        "regency_code": 1801,
        "province_code": 18,
        "name": "Banjarsari",
        "postal_code": "35456",
        "latitude": -5.469686959741308,
        "longitude": 105.5616468094293
    },
    {
        "code": 1801232008,
        "district_code": 180123,
        "regency_code": 1801,
        "province_code": 18,
        "name": "Karang Pucung",
        "postal_code": "35456",
        "latitude": -5.471932796241932,
        "longitude": 105.54146423729365
    },
    {
        "code": 1801242001,
        "district_code": 180124,
        "regency_code": 1801,
        "province_code": 18,
        "name": "Sidoharjo",
        "postal_code": "35354",
        "latitude": -5.61509382276475,
        "longitude": 105.5991808952409
    },
    {
        "code": 1801242002,
        "district_code": 180124,
        "regency_code": 1801,
        "province_code": 18,
        "name": "Sidomakmur",
        "postal_code": "35354",
        "latitude": -5.638658183126972,
        "longitude": 105.6185954239546
    },
    {
        "code": 1801242003,
        "district_code": 180124,
        "regency_code": 1801,
        "province_code": 18,
        "name": "Sidoreno",
        "postal_code": "35354",
        "latitude": -5.592661710219602,
        "longitude": 105.59676904521992
    },
    {
        "code": 1801242004,
        "district_code": 180124,
        "regency_code": 1801,
        "province_code": 18,
        "name": "Bali Nuraga",
        "postal_code": "35354",
        "latitude": -5.571969960106454,
        "longitude": 105.59897060722977
    },
    {
        "code": 1802012001,
        "district_code": 180201,
        "regency_code": 1802,
        "province_code": 18,
        "name": "Sri Way Langsep",
        "postal_code": "34174",
        "latitude": -5.248883136577494,
        "longitude": 104.92426675956526
    },
    {
        "code": 1802012002,
        "district_code": 180201,
        "regency_code": 1802,
        "province_code": 18,
        "name": "Wayakrui",
        "postal_code": "34174",
        "latitude": -5.250634098891481,
        "longitude": 104.94542677956649
    },
    {
        "code": 1802012003,
        "district_code": 180201,
        "regency_code": 1802,
        "province_code": 18,
        "name": "Kalirejo",
        "postal_code": "34174",
        "latitude": -5.231496627909216,
        "longitude": 104.95685752812768
    },
    {
        "code": 1802012004,
        "district_code": 180201,
        "regency_code": 1802,
        "province_code": 18,
        "name": "Balai Rejo",
        "postal_code": "34174",
        "latitude": -5.224177209197073,
        "longitude": 104.998832167213
    },
    {
        "code": 1802012005,
        "district_code": 180201,
        "regency_code": 1802,
        "province_code": 18,
        "name": "Watu Agung",
        "postal_code": "34174",
        "latitude": -5.1855248377895755,
        "longitude": 105.02393473423967
    },
    {
        "code": 1802012006,
        "district_code": 180201,
        "regency_code": 1802,
        "province_code": 18,
        "name": "Sri Basuki",
        "postal_code": "34174",
        "latitude": -5.215302021389219,
        "longitude": 104.9884100196583
    },
    {
        "code": 1802012007,
        "district_code": 180201,
        "regency_code": 1802,
        "province_code": 18,
        "name": "Kaliwungu",
        "postal_code": "34174",
        "latitude": -5.214732556565496,
        "longitude": 104.96067532798664
    },
    {
        "code": 1802012008,
        "district_code": 180201,
        "regency_code": 1802,
        "province_code": 18,
        "name": "Kali Dadi",
        "postal_code": "34174",
        "latitude": -5.222867399772775,
        "longitude": 104.9266760250079
    },
    {
        "code": 1802012009,
        "district_code": 180201,
        "regency_code": 1802,
        "province_code": 18,
        "name": "Sri Mulyo",
        "postal_code": "34174",
        "latitude": -5.189193304561791,
        "longitude": 104.9376105502124
    },
    {
        "code": 1802012010,
        "district_code": 180201,
        "regency_code": 1802,
        "province_code": 18,
        "name": "Sri Dadi",
        "postal_code": "34174",
        "latitude": -5.197650234006005,
        "longitude": 104.96605540352093
    },
    {
        "code": 1802012011,
        "district_code": 180201,
        "regency_code": 1802,
        "province_code": 18,
        "name": "Suko Sari",
        "postal_code": "34174",
        "latitude": -5.199274471493344,
        "longitude": 104.99168919021633
    },
    {
        "code": 1802012012,
        "district_code": 180201,
        "regency_code": 1802,
        "province_code": 18,
        "name": "Sinar Sari",
        "postal_code": "34174",
        "latitude": -5.17767014982604,
        "longitude": 104.9988246656611
    },
    {
        "code": 1802012013,
        "district_code": 180201,
        "regency_code": 1802,
        "province_code": 18,
        "name": "Ponco Warno",
        "postal_code": "34174",
        "latitude": -5.174878932706832,
        "longitude": 104.97752586343269
    },
    {
        "code": 1802012014,
        "district_code": 180201,
        "regency_code": 1802,
        "province_code": 18,
        "name": "Sri Purnomo",
        "postal_code": "34174",
        "latitude": -5.194873803926096,
        "longitude": 104.94990955503133
    },
    {
        "code": 1802012015,
        "district_code": 180201,
        "regency_code": 1802,
        "province_code": 18,
        "name": "Sinar Rejo",
        "postal_code": "34174",
        "latitude": -5.176218220402408,
        "longitude": 104.95611285689012
    },
    {
        "code": 1802012016,
        "district_code": 180201,
        "regency_code": 1802,
        "province_code": 18,
        "name": "Agung Timur",
        "postal_code": "34174",
        "latitude": -5.202272077886604,
        "longitude": 105.03755353449442
    },
    {
        "code": 1802012017,
        "district_code": 180201,
        "regency_code": 1802,
        "province_code": 18,
        "name": "Kalisari",
        "postal_code": "34174",
        "latitude": -5.211792465014552,
        "longitude": 104.93803342505058
    },
    {
        "code": 1802022001,
        "district_code": 180202,
        "regency_code": 1802,
        "province_code": 18,
        "name": "Purwodadi",
        "postal_code": "34173",
        "latitude": -5.159253382866495,
        "longitude": 104.9539860215172
    },
    {
        "code": 1802022002,
        "district_code": 180202,
        "regency_code": 1802,
        "province_code": 18,
        "name": "Sidodadi",
        "postal_code": "34173",
        "latitude": -5.15629548728272,
        "longitude": 104.99102519426776
    },
    {
        "code": 1802022003,
        "district_code": 180202,
        "regency_code": 1802,
        "province_code": 18,
        "name": "Sidorejo",
        "postal_code": "34173",
        "latitude": -5.1650595995033575,
        "longitude": 105.02489618511875
    },
    {
        "code": 1802022004,
        "district_code": 180202,
        "regency_code": 1802,
        "province_code": 18,
        "name": "Cimarias",
        "postal_code": "34173",
        "latitude": -5.153881626385824,
        "longitude": 105.05651656481682
    },
    {
        "code": 1802022005,
        "district_code": 180202,
        "regency_code": 1802,
        "province_code": 18,
        "name": "Bangun Rejo",
        "postal_code": "34173",
        "latitude": -5.151152490576338,
        "longitude": 105.03703925560866
    },
    {
        "code": 1802022006,
        "district_code": 180202,
        "regency_code": 1802,
        "province_code": 18,
        "name": "Sidoluhur",
        "postal_code": "34173",
        "latitude": -5.1326460707286925,
        "longitude": 105.01328446380016
    },
    {
        "code": 1802022007,
        "district_code": 180202,
        "regency_code": 1802,
        "province_code": 18,
        "name": "Sidomulyo",
        "postal_code": "34173",
        "latitude": -5.140437905516201,
        "longitude": 104.98467805753486
    },
    {
        "code": 1802022008,
        "district_code": 180202,
        "regency_code": 1802,
        "province_code": 18,
        "name": "Timbul Rejo",
        "postal_code": "34173",
        "latitude": -5.113059087776986,
        "longitude": 105.0013324917123
    },
    {
        "code": 1802022009,
        "district_code": 180202,
        "regency_code": 1802,
        "province_code": 18,
        "name": "Sukanegara",
        "postal_code": "34173",
        "latitude": -5.106476890726663,
        "longitude": 105.03116670566686
    },
    {
        "code": 1802022010,
        "district_code": 180202,
        "regency_code": 1802,
        "province_code": 18,
        "name": "Sinar Seputih",
        "postal_code": "34173",
        "latitude": -5.1326815640943035,
        "longitude": 105.04511592872691
    },
    {
        "code": 1802022011,
        "district_code": 180202,
        "regency_code": 1802,
        "province_code": 18,
        "name": "Sinar Luas",
        "postal_code": "34173",
        "latitude": -5.12851446959222,
        "longitude": 105.06227020156443
    },
    {
        "code": 1802022012,
        "district_code": 180202,
        "regency_code": 1802,
        "province_code": 18,
        "name": "Tanjung Pandan",
        "postal_code": "34173",
        "latitude": -5.1385836458210665,
        "longitude": 105.10894227233044
    },
    {
        "code": 1802022013,
        "district_code": 180202,
        "regency_code": 1802,
        "province_code": 18,
        "name": "Tanjung Jaya",
        "postal_code": "34173",
        "latitude": -5.106721691636448,
        "longitude": 105.07023997566293
    },
    {
        "code": 1802022014,
        "district_code": 180202,
        "regency_code": 1802,
        "province_code": 18,
        "name": "Sri Pendowo",
        "postal_code": "34173",
        "latitude": -5.1049847275238225,
        "longitude": 105.04833216318731
    },
    {
        "code": 1802022015,
        "district_code": 180202,
        "regency_code": 1802,
        "province_code": 18,
        "name": "Sukowaringin",
        "postal_code": "34173",
        "latitude": -5.082164652553619,
        "longitude": 105.03261393819199
    },
    {
        "code": 1802022016,
        "district_code": 180202,
        "regency_code": 1802,
        "province_code": 18,
        "name": "Mekar Jaya",
        "postal_code": "34173",
        "latitude": -5.0981704231668035,
        "longitude": 105.08525882181402
    },
    {
        "code": 1802022017,
        "district_code": 180202,
        "regency_code": 1802,
        "province_code": 18,
        "name": "Suka Negeri",
        "postal_code": "34173",
        "latitude": -5.102819752427933,
        "longitude": 105.01994339468936
    },
    {
        "code": 1802032001,
        "district_code": 180203,
        "regency_code": 1802,
        "province_code": 18,
        "name": "Purwosari",
        "postal_code": "34175",
        "latitude": -5.14941073411524,
        "longitude": 104.93423007966904
    },
    {
        "code": 1802032002,
        "district_code": 180203,
        "regency_code": 1802,
        "province_code": 18,
        "name": "Sendang Ayu",
        "postal_code": "34175",
        "latitude": -5.13065131494526,
        "longitude": 104.9545400947479
    },
    {
        "code": 1802032003,
        "district_code": 180203,
        "regency_code": 1802,
        "province_code": 18,
        "name": "Bandar Sari",
        "postal_code": "34175",
        "latitude": -5.084711374271512,
        "longitude": 104.96079694475998
    },
    {
        "code": 1802032004,
        "district_code": 180203,
        "regency_code": 1802,
        "province_code": 18,
        "name": "Surabaya",
        "postal_code": "34175",
        "latitude": -5.100534853506699,
        "longitude": 104.96731494921858
    },
    {
        "code": 1802032005,
        "district_code": 180203,
        "regency_code": 1802,
        "province_code": 18,
        "name": "Margorejo",
        "postal_code": "34175",
        "latitude": -5.098066088360112,
        "longitude": 104.98764730814273
    },
    {
        "code": 1802032006,
        "district_code": 180203,
        "regency_code": 1802,
        "province_code": 18,
        "name": "Kota Baru",
        "postal_code": "34175",
        "latitude": -5.062665582152593,
        "longitude": 104.99943835439132
    },
    {
        "code": 1802032007,
        "district_code": 180203,
        "regency_code": 1802,
        "province_code": 18,
        "name": "Karang Tanjung",
        "postal_code": "34175",
        "latitude": -5.077351802740204,
        "longitude": 105.01668501731828
    },
    {
        "code": 1802032008,
        "district_code": 180203,
        "regency_code": 1802,
        "province_code": 18,
        "name": "Kuripan",
        "postal_code": "34175",
        "latitude": -5.030079568099451,
        "longitude": 104.986262404345
    },
    {
        "code": 1802032009,
        "district_code": 180203,
        "regency_code": 1802,
        "province_code": 18,
        "name": "Sri Agung",
        "postal_code": "34175",
        "latitude": -5.061799906344319,
        "longitude": 104.97941074189558
    },
    {
        "code": 1802032010,
        "district_code": 180203,
        "regency_code": 1802,
        "province_code": 18,
        "name": "Haduyang Ratu",
        "postal_code": "34175",
        "latitude": -5.020607652280245,
        "longitude": 104.96832496334099
    },
    {
        "code": 1802032011,
        "district_code": 180203,
        "regency_code": 1802,
        "province_code": 18,
        "name": "Padang Ratu",
        "postal_code": "34175",
        "latitude": -5.011077915560522,
        "longitude": 104.93565753881477
    },
    {
        "code": 1802032018,
        "district_code": 180203,
        "regency_code": 1802,
        "province_code": 18,
        "name": "Karang Sari",
        "postal_code": "34175",
        "latitude": -5.031056787042948,
        "longitude": 104.93255952030306
    },
    {
        "code": 1802032019,
        "district_code": 180203,
        "regency_code": 1802,
        "province_code": 18,
        "name": "Mojokerto",
        "postal_code": "34175",
        "latitude": -5.102526342716368,
        "longitude": 104.93798368748936
    },
    {
        "code": 1802032020,
        "district_code": 180203,
        "regency_code": 1802,
        "province_code": 18,
        "name": "Sumber Sari",
        "postal_code": "34175",
        "latitude": -5.049369786768008,
        "longitude": 105.01686318745573
    },
    {
        "code": 1802032021,
        "district_code": 180203,
        "regency_code": 1802,
        "province_code": 18,
        "name": "Purworejo",
        "postal_code": "34175",
        "latitude": -5.143517587109152,
        "longitude": 104.91942710024927
    },
    {
        "code": 1802041005,
        "district_code": 180204,
        "regency_code": 1802,
        "province_code": 18,
        "name": "Gunung Sugih",
        "postal_code": "34165",
        "latitude": -4.997317221244135,
        "longitude": 105.20834358890264
    },
    {
        "code": 1802041006,
        "district_code": 180204,
        "regency_code": 1802,
        "province_code": 18,
        "name": "Gunung S. Raya",
        "postal_code": "34165",
        "latitude": -4.972803726522741,
        "longitude": 105.23167155254767
    },
    {
        "code": 1802041007,
        "district_code": 180204,
        "regency_code": 1802,
        "province_code": 18,
        "name": "Komering Agung",
        "postal_code": "34165",
        "latitude": -5.004189709531441,
        "longitude": 105.17694355618617
    },
    {
        "code": 1802041008,
        "district_code": 180204,
        "regency_code": 1802,
        "province_code": 18,
        "name": "Seputih Jaya",
        "postal_code": "34165",
        "latitude": -4.963606958810646,
        "longitude": 105.20433288049904
    },
    {
        "code": 1802042001,
        "district_code": 180204,
        "regency_code": 1802,
        "province_code": 18,
        "name": "Terbanggi Subing",
        "postal_code": "34165",
        "latitude": -5.037564763117215,
        "longitude": 105.20363753083791
    },
    {
        "code": 1802042002,
        "district_code": 180204,
        "regency_code": 1802,
        "province_code": 18,
        "name": "Terbanggi Agung",
        "postal_code": "34165",
        "latitude": -5.019711511965169,
        "longitude": 105.19930652400727
    },
    {
        "code": 1802042003,
        "district_code": 180204,
        "regency_code": 1802,
        "province_code": 18,
        "name": "Fajar Bulan",
        "postal_code": "34165",
        "latitude": -4.998485792432248,
        "longitude": 105.11905104978625
    },
    {
        "code": 1802042004,
        "district_code": 180204,
        "regency_code": 1802,
        "province_code": 18,
        "name": "Komering Putih",
        "postal_code": "34165",
        "latitude": -5.003810813097784,
        "longitude": 105.15220005511343
    },
    {
        "code": 1802042009,
        "district_code": 180204,
        "regency_code": 1802,
        "province_code": 18,
        "name": "Buyut Udik",
        "postal_code": "34165",
        "latitude": -4.967262946930226,
        "longitude": 105.25937726677633
    },
    {
        "code": 1802042010,
        "district_code": 180204,
        "regency_code": 1802,
        "province_code": 18,
        "name": "Buyut Ilir",
        "postal_code": "34165",
        "latitude": -4.964456785596469,
        "longitude": 105.2844321505408
    },
    {
        "code": 1802042011,
        "district_code": 180204,
        "regency_code": 1802,
        "province_code": 18,
        "name": "Bangun Rejo",
        "postal_code": "34165",
        "latitude": -4.970921517060248,
        "longitude": 105.30562513294056
    },
    {
        "code": 1802042012,
        "district_code": 180204,
        "regency_code": 1802,
        "province_code": 18,
        "name": "Wono Sari",
        "postal_code": "34165",
        "latitude": -5.049794926166181,
        "longitude": 105.1664708696005
    },
    {
        "code": 1802042013,
        "district_code": 180204,
        "regency_code": 1802,
        "province_code": 18,
        "name": "Putra Buyut",
        "postal_code": "34165",
        "latitude": -4.918712300807654,
        "longitude": 105.30570958491414
    },
    {
        "code": 1802042014,
        "district_code": 180204,
        "regency_code": 1802,
        "province_code": 18,
        "name": "Gunung Sari",
        "postal_code": "34165",
        "latitude": -5.007019081990028,
        "longitude": 105.2291340547181
    },
    {
        "code": 1802042015,
        "district_code": 180204,
        "regency_code": 1802,
        "province_code": 18,
        "name": "Buyut Utara",
        "postal_code": "34165",
        "latitude": -4.918958255061913,
        "longitude": 105.30084176372058
    },
    {
        "code": 1802051003,
        "district_code": 180205,
        "regency_code": 1802,
        "province_code": 18,
        "name": "Adi Puro",
        "postal_code": "34172",
        "latitude": -5.153940251040186,
        "longitude": 105.23922093913241
    },
    {
        "code": 1802051004,
        "district_code": 180205,
        "regency_code": 1802,
        "province_code": 18,
        "name": "Trimurjo",
        "postal_code": "34172",
        "latitude": -5.138189550507242,
        "longitude": 105.23445119563202
    },
    {
        "code": 1802051007,
        "district_code": 180205,
        "regency_code": 1802,
        "province_code": 18,
        "name": "Simbar Waringin",
        "postal_code": "34171",
        "latitude": -5.122765882614616,
        "longitude": 105.25384000697875
    },
    {
        "code": 1802052001,
        "district_code": 180205,
        "regency_code": 1802,
        "province_code": 18,
        "name": "Depok Rejo",
        "postal_code": "34172",
        "latitude": -5.169720402337069,
        "longitude": 105.26487904084664
    },
    {
        "code": 1802052002,
        "district_code": 180205,
        "regency_code": 1802,
        "province_code": 18,
        "name": "Liman Benawi",
        "postal_code": "34172",
        "latitude": -5.155921411518952,
        "longitude": 105.25468129360394
    },
    {
        "code": 1802052005,
        "district_code": 180205,
        "regency_code": 1802,
        "province_code": 18,
        "name": "Noto Harjo",
        "postal_code": "34172",
        "latitude": -5.109941927773441,
        "longitude": 105.2340138524968
    },
    {
        "code": 1802052006,
        "district_code": 180205,
        "regency_code": 1802,
        "province_code": 18,
        "name": "Purwo Dadi",
        "postal_code": "34172",
        "latitude": -5.112399935750949,
        "longitude": 105.27371661254523
    },
    {
        "code": 1802052008,
        "district_code": 180205,
        "regency_code": 1802,
        "province_code": 18,
        "name": "Tempuran",
        "postal_code": "34172",
        "latitude": -5.132695134389873,
        "longitude": 105.26788000935882
    },
    {
        "code": 1802052009,
        "district_code": 180205,
        "regency_code": 1802,
        "province_code": 18,
        "name": "Purwo Adi",
        "postal_code": "34172",
        "latitude": -5.105616340130665,
        "longitude": 105.25274807374215
    },
    {
        "code": 1802052010,
        "district_code": 180205,
        "regency_code": 1802,
        "province_code": 18,
        "name": "Pujo Dadi",
        "postal_code": "34172",
        "latitude": -5.085201209443321,
        "longitude": 105.27021819371987
    },
    {
        "code": 1802052011,
        "district_code": 180205,
        "regency_code": 1802,
        "province_code": 18,
        "name": "Pujo Kerto",
        "postal_code": "34172",
        "latitude": -5.079136516919888,
        "longitude": 105.2576542624205
    },
    {
        "code": 1802052012,
        "district_code": 180205,
        "regency_code": 1802,
        "province_code": 18,
        "name": "Untoro",
        "postal_code": "34172",
        "latitude": -5.092523314211954,
        "longitude": 105.24612725456537
    },
    {
        "code": 1802052013,
        "district_code": 180205,
        "regency_code": 1802,
        "province_code": 18,
        "name": "Pujo Asri",
        "postal_code": "34172",
        "latitude": -5.062696376150093,
        "longitude": 105.2459616251418
    },
    {
        "code": 1802052014,
        "district_code": 180205,
        "regency_code": 1802,
        "province_code": 18,
        "name": "Pujo Basuki",
        "postal_code": "34172",
        "latitude": -5.059027928619449,
        "longitude": 105.25571871553319
    },
    {
        "code": 1802062001,
        "district_code": 180206,
        "regency_code": 1802,
        "province_code": 18,
        "name": "Nunggal Rejo",
        "postal_code": "34152",
        "latitude": -5.070512347993342,
        "longitude": 105.2788437610411
    },
    {
        "code": 1802062002,
        "district_code": 180206,
        "regency_code": 1802,
        "province_code": 18,
        "name": "Badran Sari",
        "postal_code": "34152",
        "latitude": -5.055760582539463,
        "longitude": 105.30256370402284
    },
    {
        "code": 1802062003,
        "district_code": 180206,
        "regency_code": 1802,
        "province_code": 18,
        "name": "Sri Sawahan",
        "postal_code": "34152",
        "latitude": -5.043612940642386,
        "longitude": 105.3249733383157
    },
    {
        "code": 1802062004,
        "district_code": 180206,
        "regency_code": 1802,
        "province_code": 18,
        "name": "Toto Katon",
        "postal_code": "34152",
        "latitude": -5.056998820389086,
        "longitude": 105.27939793047298
    },
    {
        "code": 1802062005,
        "district_code": 180206,
        "regency_code": 1802,
        "province_code": 18,
        "name": "Tanggul Angin",
        "postal_code": "34152",
        "latitude": -5.0383789550227895,
        "longitude": 105.25928242760232
    },
    {
        "code": 1802062006,
        "district_code": 180206,
        "regency_code": 1802,
        "province_code": 18,
        "name": "Ngesti Rahayu",
        "postal_code": "34152",
        "latitude": -5.017141472626403,
        "longitude": 105.24908469761766
    },
    {
        "code": 1802062007,
        "district_code": 180206,
        "regency_code": 1802,
        "province_code": 18,
        "name": "Mojopahit",
        "postal_code": "34152",
        "latitude": -4.9923210788927355,
        "longitude": 105.24920158113592
    },
    {
        "code": 1802062008,
        "district_code": 180206,
        "regency_code": 1802,
        "province_code": 18,
        "name": "Asto Mulyo",
        "postal_code": "34152",
        "latitude": -5.009695047254861,
        "longitude": 105.2681962518016
    },
    {
        "code": 1802062009,
        "district_code": 180206,
        "regency_code": 1802,
        "province_code": 18,
        "name": "Sido Mulyo",
        "postal_code": "34152",
        "latitude": -5.0217420636099055,
        "longitude": 105.28536735473584
    },
    {
        "code": 1802071002,
        "district_code": 180207,
        "regency_code": 1802,
        "province_code": 18,
        "name": "Bandar Jaya Timur",
        "postal_code": "34163",
        "latitude": -4.946876179891,
        "longitude": 105.20715185706842
    },
    {
        "code": 1802071003,
        "district_code": 180207,
        "regency_code": 1802,
        "province_code": 18,
        "name": "Bandar Jaya Barat",
        "postal_code": "34163",
        "latitude": -4.944783381501979,
        "longitude": 105.2290151179976
    },
    {
        "code": 1802071004,
        "district_code": 180207,
        "regency_code": 1802,
        "province_code": 18,
        "name": "Yukum Jaya",
        "postal_code": "34163",
        "latitude": -4.915262560095518,
        "longitude": 105.211116943108
    },
    {
        "code": 1802072001,
        "district_code": 180207,
        "regency_code": 1802,
        "province_code": 18,
        "name": "Adi Jaya",
        "postal_code": "34163",
        "latitude": -4.937484750596229,
        "longitude": 105.19336405144234
    },
    {
        "code": 1802072005,
        "district_code": 180207,
        "regency_code": 1802,
        "province_code": 18,
        "name": "Indra Putra Subing",
        "postal_code": "34163",
        "latitude": -4.938728611059674,
        "longitude": 105.26100140168802
    },
    {
        "code": 1802072006,
        "district_code": 180207,
        "regency_code": 1802,
        "province_code": 18,
        "name": "Karang Endah",
        "postal_code": "34163",
        "latitude": -4.921615911085351,
        "longitude": 105.24540693929808
    },
    {
        "code": 1802072007,
        "district_code": 180207,
        "regency_code": 1802,
        "province_code": 18,
        "name": "Nambah Dadi",
        "postal_code": "34163",
        "latitude": -4.898459567660688,
        "longitude": 105.27895365540925
    },
    {
        "code": 1802072008,
        "district_code": 180207,
        "regency_code": 1802,
        "province_code": 18,
        "name": "Ono Harjo",
        "postal_code": "34163",
        "latitude": -4.872822500995174,
        "longitude": 105.29989711930246
    },
    {
        "code": 1802072009,
        "district_code": 180207,
        "regency_code": 1802,
        "province_code": 18,
        "name": "Terbanggi Besar",
        "postal_code": "34163",
        "latitude": -4.855104684106818,
        "longitude": 105.22107601490677
    },
    {
        "code": 1802072010,
        "district_code": 180207,
        "regency_code": 1802,
        "province_code": 18,
        "name": "Poncowati",
        "postal_code": "34163",
        "latitude": -4.8978165999776495,
        "longitude": 105.18136682942477
    },
    {
        "code": 1802082001,
        "district_code": 180208,
        "regency_code": 1802,
        "province_code": 18,
        "name": "Rejo Basuki",
        "postal_code": "34155",
        "latitude": -4.944520584752684,
        "longitude": 105.32637355264724
    },
    {
        "code": 1802082002,
        "district_code": 180208,
        "regency_code": 1802,
        "province_code": 18,
        "name": "Rejo Asri",
        "postal_code": "34155",
        "latitude": -4.95303557720772,
        "longitude": 105.36552975257815
    },
    {
        "code": 1802082003,
        "district_code": 180208,
        "regency_code": 1802,
        "province_code": 18,
        "name": "Rukti Endah",
        "postal_code": "34155",
        "latitude": -4.943459089901336,
        "longitude": 105.39859488973232
    },
    {
        "code": 1802082004,
        "district_code": 180208,
        "regency_code": 1802,
        "province_code": 18,
        "name": "Rama Dewa",
        "postal_code": "34155",
        "latitude": -4.933446132944837,
        "longitude": 105.36297147542479
    },
    {
        "code": 1802082005,
        "district_code": 180208,
        "regency_code": 1802,
        "province_code": 18,
        "name": "Ratna Chaton",
        "postal_code": "34155",
        "latitude": -4.924035650805456,
        "longitude": 105.32762906851089
    },
    {
        "code": 1802082006,
        "district_code": 180208,
        "regency_code": 1802,
        "province_code": 18,
        "name": "Rama Yana",
        "postal_code": "34155",
        "latitude": -4.887727293168567,
        "longitude": 105.33162358957499
    },