[
    {
        "code": 650101,
        "regency_code": 6501,
        "province_code": 65,
        "name": "Tanjung Palas",
        "latitude": 2.720771215958018,
        "longitude": 117.30973218776433
    },
    {
        "code": 650102,
        "regency_code": 6501,
        "province_code": 65,
        "name": "Tanjung Palas Barat",
        "latitude": 2.71061896708267,
        "longitude": 117.17597124490644
    },
    {
        "code": 650103,
        "regency_code": 6501,
        "province_code": 65,
        "name": "Tanjung Palas Utara",
        "latitude": 3.0171638588150995,
        "longitude": 117.1742603914528
    },
    {
        "code": 650104,
        "regency_code": 6501,
        "province_code": 65,
        "name": "Tanjung Palas Timur",
        "latitude": 2.5778270073995606,
        "longitude": 117.6990195093389
    },
    {
        "code": 650105,
        "regency_code": 6501,
        "province_code": 65,
        "name": "Tanjung Selor",
        "latitude": 2.721204648139079,
        "longitude": 117.43923220193956
    },
    {
        "code": 650106,
        "regency_code": 6501,
        "province_code": 65,
        "name": "Tanjung Palas Tengah",
        "latitude": 2.989859940061198,
        "longitude": 117.47892339148227
    },
    {
        "code": 650107,
        "regency_code": 6501,
        "province_code": 65,
        "name": "Peso",
        "latitude": 2.5654406972243313,
        "longitude": 116.50761952533513
    },
    {
        "code": 650108,
        "regency_code": 6501,
        "province_code": 65,
        "name": "Peso Hilir",
        "latitude": 2.795114004516233,
        "longitude": 116.96598166781115
    },
    {
        "code": 650109,
        "regency_code": 6501,
        "province_code": 65,
        "name": "Sekatak",
        "latitude": 3.238950396619094,
        "longitude": 117.05836668961761
    },
    {
        "code": 650110,
        "regency_code": 6501,
        "province_code": 65,
        "name": "Bunyu",
        "latitude": 3.528024529652138,
        "longitude": 117.66215388484078
    },
    {
        "code": 650201,
        "regency_code": 6502,
        "province_code": 65,
        "name": "Mentarang",
        "latitude": 3.5622002123566623,
        "longitude": 116.33673479271648
    },
    {
        "code": 650202,
        "regency_code": 6502,
        "province_code": 65,
        "name": "Malinau Kota",
        "latitude": 3.5723272621385163,
        "longitude": 116.6545742025901
    },
    {
        "code": 650203,
        "regency_code": 6502,
        "province_code": 65,
        "name": "Pujungan",
        "latitude": 2.617720125899447,
        "longitude": 115.63469399936238
    },
    {
        "code": 650204,
        "regency_code": 6502,
        "province_code": 65,
        "name": "Kayan Hilir",
        "latitude": 1.9518571619997398,
        "longitude": 115.56676813329163
    },
    {
        "code": 650205,
        "regency_code": 6502,
        "province_code": 65,
        "name": "Kayan Hulu",
        "latitude": 1.600625077834128,
        "longitude": 114.81671092641496
    },
    {
        "code": 650206,
        "regency_code": 6502,
        "province_code": 65,
        "name": "Malinau Selatan",
        "latitude": 3.0950892841184556,
        "longitude": 116.5372950241845
    },
    {
        "code": 650207,
        "regency_code": 6502,
        "province_code": 65,
        "name": "Malinau Utara",
        "latitude": 3.724025905344401,
        "longitude": 116.51109726048963
    },
    {
        "code": 650208,
        "regency_code": 6502,
        "province_code": 65,
        "name": "Malinau Barat",
        "latitude": 3.368105816690457,
        "longitude": 116.63809231345716
    },
    {
        "code": 650209,
        "regency_code": 6502,
        "province_code": 65,
        "name": "Sungai Boh",
        "latitude": 1.4331379341207255,
        "longitude": 115.33408928686409
    },
    {
        "code": 650210,
        "regency_code": 6502,
        "province_code": 65,
        "name": "Kayan Selatan",
        "latitude": 1.6456753237841704,
        "longitude": 115.07207936831988
    },
    {
        "code": 650211,
        "regency_code": 6502,
        "province_code": 65,
        "name": "Bahau Hulu",
        "latitude": 3.1364935585677136,
        "longitude": 115.76108076274187
    },
    {
        "code": 650212,
        "regency_code": 6502,
        "province_code": 65,
        "name": "Mentarang Hulu",
        "latitude": 3.817164583628056,
        "longitude": 116.15784291442509
    },
    {
        "code": 650213,
        "regency_code": 6502,
        "province_code": 65,
        "name": "Malinau Selatan Hilir",
        "latitude": 3.320246641480492,
        "longitude": 116.50036422248263
    },
    {
        "code": 650214,
        "regency_code": 6502,
        "province_code": 65,
        "name": "Malinau Selatan Hulu",
        "latitude": 2.892709057880038,
        "longitude": 116.23668733040584
    },
    {
        "code": 650215,
        "regency_code": 6502,
        "province_code": 65,
        "name": "Sungai Tubu",
        "latitude": 3.279321215453428,
        "longitude": 116.11248665870019
    },
    {
        "code": 650301,
        "regency_code": 6503,
        "province_code": 65,
        "name": "Sebatik",
        "latitude": 4.065785869101497,
        "longitude": 117.8819911752919
    },
    {
        "code": 650302,
        "regency_code": 6503,
        "province_code": 65,
        "name": "Nunukan",
        "latitude": 3.9725039388225887,
        "longitude": 117.52310834147868
    },
    {
        "code": 650303,
        "regency_code": 6503,
        "province_code": 65,
        "name": "Sembakung",
        "latitude": 3.807998301289446,
        "longitude": 117.2708982670986
    },
    {
        "code": 650304,
        "regency_code": 6503,
        "province_code": 65,
        "name": "Lumbis",
        "latitude": 4.079489610365572,
        "longitude": 116.34883558155502
    },
    {
        "code": 650305,
        "regency_code": 6503,
        "province_code": 65,
        "name": "Krayan",
        "latitude": 3.8868644303336564,
        "longitude": 115.70095659657173
    },
    {
        "code": 650306,
        "regency_code": 6503,
        "province_code": 65,
        "name": "Sebuku",
        "latitude": 3.97839492348311,
        "longitude": 117.07409172298028
    },
    {
        "code": 650307,
        "regency_code": 6503,
        "province_code": 65,
        "name": "Krayan Selatan",
        "latitude": 3.5863775899309265,
        "longitude": 115.70389354233126
    },
    {
        "code": 650308,
        "regency_code": 6503,
        "province_code": 65,
        "name": "Sebatik Barat",
        "latitude": 4.114671583434441,
        "longitude": 117.78028536687134
    },
    {
        "code": 650309,
        "regency_code": 6503,
        "province_code": 65,
        "name": "Nunukan Selatan",
        "latitude": 4.048648013127144,
        "longitude": 117.6962510881912
    },
    {
        "code": 650310,
        "regency_code": 6503,
        "province_code": 65,
        "name": "Sebatik Timur",
        "latitude": 4.116866808346047,
        "longitude": 117.88775079572085
    },
    {
        "code": 650311,
        "regency_code": 6503,
        "province_code": 65,
        "name": "Sebatik Utara",
        "latitude": 4.149460568910782,
        "longitude": 117.88048513595618
    },
    {
        "code": 650312,
        "regency_code": 6503,
        "province_code": 65,
        "name": "Sebatik Tengah",
        "latitude": 4.145835448388783,
        "longitude": 117.81845829076993
    },
    {
        "code": 650313,
        "regency_code": 6503,
        "province_code": 65,
        "name": "Sei Menggaris",
        "latitude": 4.215041450233553,
        "longitude": 117.29151179927948
    },
    {
        "code": 650314,
        "regency_code": 6503,
        "province_code": 65,
        "name": "Tulin Onsoi",
        "latitude": 4.194597244854058,
        "longitude": 116.91762405032219
    },
    {
        "code": 650315,
        "regency_code": 6503,
        "province_code": 65,
        "name": "Lumbis Ogong",
        "latitude": 4.069124392776521,
        "longitude": 116.5600644427187
    },
    {
        "code": 650316,
        "regency_code": 6503,
        "province_code": 65,
        "name": "Sembakung Atulai",
        "latitude": 3.8072173681150097,
        "longitude": 116.81512185936799
    },
    {
        "code": 650317,
        "regency_code": 6503,
        "province_code": 65,
        "name": "Krayan Tengah",
        "latitude": 3.6887091570699044,
        "longitude": 115.86641090820092
    },
    {
        "code": 650318,
        "regency_code": 6503,
        "province_code": 65,
        "name": "Krayan Timur",
        "latitude": 4.057459642895659,
        "longitude": 115.82800470957697
    },
    {
        "code": 650319,
        "regency_code": 6503,
        "province_code": 65,
        "name": "Krayan Barat",
        "latitude": 3.782594102752311,
        "longitude": 115.66180559959076
    },
    {
        "code": 650320,
        "regency_code": 6503,
        "province_code": 65,
        "name": "Lumbis Pansiangan",
        "latitude": 4.246153005676042,
        "longitude": 116.34489473926634
    },
    {
        "code": 650321,
        "regency_code": 6503,
        "province_code": 65,
        "name": "Lumbis Hulu",
        "latitude": 4.31151505353491,
        "longitude": 116.11021513794823
    },
    {
        "code": 650401,
        "regency_code": 6504,
        "province_code": 65,
        "name": "Sesayap",
        "latitude": 3.6212089805110095,
        "longitude": 116.90291509007189
    },
    {
        "code": 650402,
        "regency_code": 6504,
        "province_code": 65,
        "name": "Sesayap Hilir",
        "latitude": 3.5716477468210166,
        "longitude": 117.23729563159024
    },
    {
        "code": 650403,
        "regency_code": 6504,
        "province_code": 65,
        "name": "Tana Lia",
        "latitude": 3.7015705478846526,
        "longitude": 117.63127870868743
    },
    {
        "code": 650404,
        "regency_code": 6504,
        "province_code": 65,
        "name": "Betayau",
        "latitude": 3.4459326940683743,
        "longitude": 117.00821685538155
    },
    {
        "code": 650405,
        "regency_code": 6504,
        "province_code": 65,
        "name": "Muruk Rian",
        "latitude": 3.5295080852204257,
        "longitude": 116.76460863032774
    },
    {
        "code": 657101,
        "regency_code": 6571,
        "province_code": 65,
        "name": "Tarakan Barat",
        "latitude": 3.3339912649128602,
        "longitude": 117.5654445344981
    },
    {
        "code": 657102,
        "regency_code": 6571,
        "province_code": 65,
        "name": "Tarakan Tengah",
        "latitude": 3.3547845573181796,
        "longitude": 117.61595751926492
    },
    {
        "code": 657103,
        "regency_code": 6571,
        "province_code": 65,
        "name": "Tarakan Timur",
        "latitude": 3.299467390457587,
        "longitude": 117.6358751477364
    },
    {
        "code": 657104,
        "regency_code": 6571,
        "province_code": 65,
        "name": "Tarakan Utara",
        "latitude": 3.402166790902967,
        "longitude": 117.5798959255915
    }
]