[
    {
        "code": 210104,
        "regency_code": 2101,
        "province_code": 21,
        "name": "Gunung Kijang",
        "latitude": 1.03061199127586,
        "longitude": 104.60738038180264
    },
    {
        "code": 210106,
        "regency_code": 2101,
        "province_code": 21,
        "name": "Bintan Timur",
        "latitude": 0.8617033449364121,
        "longitude": 104.57022682785248
    },
    {
        "code": 210107,
        "regency_code": 2101,
        "province_code": 21,
        "name": "Bintan Utara",
        "latitude": 1.0834577698038808,
        "longitude": 104.2531480305674
    },
    {
        "code": 210108,
        "regency_code": 2101,
        "province_code": 21,
        "name": "Teluk Bintan",
        "latitude": 1.0425940887019045,
        "longitude": 104.45513712710888
    },
    {
        "code": 210109,
        "regency_code": 2101,
        "province_code": 21,
        "name": "Tambelan",
        "latitude": 0.8704217667763263,
        "longitude": 107.43486628516787
    },
    {
        "code": 210110,
        "regency_code": 2101,
        "province_code": 21,
        "name": "Telok Sebong",
        "latitude": 1.13921073702118,
        "longitude": 104.41938683935713
    },
    {
        "code": 210112,
        "regency_code": 2101,
        "province_code": 21,
        "name": "Toapaya",
        "latitude": 1.0227413397731127,
        "longitude": 104.54852745298692
    },
    {
        "code": 210113,
        "regency_code": 2101,
        "province_code": 21,
        "name": "Mantang",
        "latitude": 0.7763657171366262,
        "longitude": 104.59331720427308
    },
    {
        "code": 210114,
        "regency_code": 2101,
        "province_code": 21,
        "name": "Bintan Pesisir",
        "latitude": 0.8596016551073011,
        "longitude": 104.72638746209856
    },
    {
        "code": 210115,
        "regency_code": 2101,
        "province_code": 21,
        "name": "Seri Kuala Lobam",
        "latitude": 1.037897440996065,
        "longitude": 104.30223091237761
    },
    {
        "code": 210201,
        "regency_code": 2102,
        "province_code": 21,
        "name": "Moro",
        "latitude": 0.7563464337181257,
        "longitude": 103.70170698069106
    },
    {
        "code": 210202,
        "regency_code": 2102,
        "province_code": 21,
        "name": "Kundur",
        "latitude": 0.6900684868594049,
        "longitude": 103.44517856632532
    },
    {
        "code": 210203,
        "regency_code": 2102,
        "province_code": 21,
        "name": "Karimun",
        "latitude": 1.0001489309613465,
        "longitude": 103.42761098716633
    },
    {
        "code": 210204,
        "regency_code": 2102,
        "province_code": 21,
        "name": "Meral",
        "latitude": 1.0149252879201562,
        "longitude": 103.37703500388531
    },
    {
        "code": 210205,
        "regency_code": 2102,
        "province_code": 21,
        "name": "Tebing",
        "latitude": 1.0792622170645294,
        "longitude": 103.38940992763678
    },
    {
        "code": 210206,
        "regency_code": 2102,
        "province_code": 21,
        "name": "Buru",
        "latitude": 0.891231563533059,
        "longitude": 103.46724815586768
    },
    {
        "code": 210207,
        "regency_code": 2102,
        "province_code": 21,
        "name": "Kundur Utara",
        "latitude": 0.7880293084915073,
        "longitude": 103.4423574273159
    },
    {
        "code": 210208,
        "regency_code": 2102,
        "province_code": 21,
        "name": "Kundur Barat",
        "latitude": 0.7761159225206122,
        "longitude": 103.38106886512271
    },
    {
        "code": 210209,
        "regency_code": 2102,
        "province_code": 21,
        "name": "Durai",
        "latitude": 0.5594283242691178,
        "longitude": 103.6361826987594
    },
    {
        "code": 210210,
        "regency_code": 2102,
        "province_code": 21,
        "name": "Meral Barat",
        "latitude": 1.0746447738550429,
        "longitude": 103.33790282210757
    },
    {
        "code": 210211,
        "regency_code": 2102,
        "province_code": 21,
        "name": "Ungar",
        "latitude": 0.6627631581768081,
        "longitude": 103.5088169453881
    },
    {
        "code": 210212,
        "regency_code": 2102,
        "province_code": 21,
        "name": "Belat",
        "latitude": 0.8191040571713852,
        "longitude": 103.48615447767777
    },
    {
        "code": 210213,
        "regency_code": 2102,
        "province_code": 21,
        "name": "Selat Gelam",
        "latitude": 0.9351217298622474,
        "longitude": 103.43335923172933
    },
    {
        "code": 210214,
        "regency_code": 2102,
        "province_code": 21,
        "name": "Sugie Besar",
        "latitude": 0.8313602969109231,
        "longitude": 103.82413150726201
    },
    {
        "code": 210304,
        "regency_code": 2103,
        "province_code": 21,
        "name": "Midai",
        "latitude": 3.0547036524954216,
        "longitude": 107.75229220848134
    },
    {
        "code": 210305,
        "regency_code": 2103,
        "province_code": 21,
        "name": "Bunguran Barat",
        "latitude": 3.8242562023451843,
        "longitude": 108.14172710135742
    },
    {
        "code": 210306,
        "regency_code": 2103,
        "province_code": 21,
        "name": "Serasan",
        "latitude": 2.520615101417204,
        "longitude": 109.00875048175885
    },
    {
        "code": 210307,
        "regency_code": 2103,
        "province_code": 21,
        "name": "Bunguran Timur",
        "latitude": 3.9074669609424855,
        "longitude": 108.34470955473704
    },
    {
        "code": 210308,
        "regency_code": 2103,
        "province_code": 21,
        "name": "Bunguran Utara",
        "latitude": 4.03900867540628,
        "longitude": 108.10777652706942
    },
    {
        "code": 210309,
        "regency_code": 2103,
        "province_code": 21,
        "name": "Subi",
        "latitude": 2.928027650804643,
        "longitude": 108.84287654228514
    },
    {
        "code": 210310,
        "regency_code": 2103,
        "province_code": 21,
        "name": "Pulau Laut",
        "latitude": 4.710290697442561,
        "longitude": 107.96704831792167
    },
    {
        "code": 210311,
        "regency_code": 2103,
        "province_code": 21,
        "name": "Pulau Tiga",
        "latitude": 3.6346077086988458,
        "longitude": 108.11016078926066
    },
    {
        "code": 210315,
        "regency_code": 2103,
        "province_code": 21,
        "name": "Bunguran Timur Laut",
        "latitude": 4.027621493888916,
        "longitude": 108.2462957971466
    },
    {
        "code": 210316,
        "regency_code": 2103,
        "province_code": 21,
        "name": "Bunguran Tengah",
        "latitude": 3.8998196829652088,
        "longitude": 108.26943199826233
    },
    {
        "code": 210318,
        "regency_code": 2103,
        "province_code": 21,
        "name": "Bunguran Selatan",
        "latitude": 3.742891630126956,
        "longitude": 108.28273855080026
    },
    {
        "code": 210319,
        "regency_code": 2103,
        "province_code": 21,
        "name": "Serasan Timur",
        "latitude": 2.5133266904881957,
        "longitude": 109.08524872616239
    },
    {
        "code": 210320,
        "regency_code": 2103,
        "province_code": 21,
        "name": "Bunguran Batubi",
        "latitude": 3.870636722032042,
        "longitude": 108.16396276322628
    },
    {
        "code": 210321,
        "regency_code": 2103,
        "province_code": 21,
        "name": "Pulau Tiga Barat",
        "latitude": 3.668235703997728,
        "longitude": 108.08344072559339
    },
    {
        "code": 210322,
        "regency_code": 2103,
        "province_code": 21,
        "name": "Suak Midai",
        "latitude": 3.000470287617715,
        "longitude": 107.79262810326424
    },
    {
        "code": 210323,
        "regency_code": 2103,
        "province_code": 21,
        "name": "Pulau Panjang",
        "latitude": 2.7186981480086545,
        "longitude": 108.77626591663122
    },
    {
        "code": 210324,
        "regency_code": 2103,
        "province_code": 21,
        "name": "Pulau Seluan",
        "latitude": 4.135081325163725,
        "longitude": 107.85481363740531
    },
    {
        "code": 210401,
        "regency_code": 2104,
        "province_code": 21,
        "name": "Singkep",
        "latitude": -0.5228316434876233,
        "longitude": 104.51284239888237
    },
    {
        "code": 210402,
        "regency_code": 2104,
        "province_code": 21,
        "name": "Lingga",
        "latitude": -0.1887802097926783,
        "longitude": 104.56119981197465
    },
    {
        "code": 210403,
        "regency_code": 2104,
        "province_code": 21,
        "name": "Senayang",
        "latitude": 0.09204222308279184,
        "longitude": 104.61895928570631
    },
    {
        "code": 210404,
        "regency_code": 2104,
        "province_code": 21,
        "name": "Singkep Barat",
        "latitude": -0.46779800125967497,
        "longitude": 104.3734221308082
    },
    {
        "code": 210405,
        "regency_code": 2104,
        "province_code": 21,
        "name": "Lingga Utara",
        "latitude": -0.11522676253598411,
        "longitude": 104.66858790203466
    },
    {
        "code": 210406,
        "regency_code": 2104,
        "province_code": 21,
        "name": "Singkep Pesisir",
        "latitude": -0.4220389236731253,
        "longitude": 104.5258683906939
    },
    {
        "code": 210407,
        "regency_code": 2104,
        "province_code": 21,
        "name": "Lingga Timur",
        "latitude": -0.25959226477875585,
        "longitude": 104.84572280056594
    },
    {
        "code": 210408,
        "regency_code": 2104,
        "province_code": 21,
        "name": "Selayar",
        "latitude": -0.3022195460822444,
        "longitude": 104.4425393783233
    },
    {
        "code": 210409,
        "regency_code": 2104,
        "province_code": 21,
        "name": "Singkep Selatan",
        "latitude": -0.576706904953656,
        "longitude": 104.42668333116961
    },
    {
        "code": 210410,
        "regency_code": 2104,
        "province_code": 21,
        "name": "Kepulauan Posek",
        "latitude": -0.3805151300762059,
        "longitude": 104.19953839459303
    },
    {
        "code": 210411,
        "regency_code": 2104,
        "province_code": 21,
        "name": "Katang Bidare",
        "latitude": 0.4139961491615929,
        "longitude": 104.46005274215231
    },
    {
        "code": 210412,
        "regency_code": 2104,
        "province_code": 21,
        "name": "Temiang Pesisir",
        "latitude": 0.29907742521834,
        "longitude": 104.39209747192699
    },
    {
        "code": 210413,
        "regency_code": 2104,
        "province_code": 21,
        "name": "Bakung Serumpun",
        "latitude": 0.10919595808869281,
        "longitude": 104.40842141920436
    },
    {
        "code": 210501,
        "regency_code": 2105,
        "province_code": 21,
        "name": "Siantan",
        "latitude": 3.199619114974521,
        "longitude": 106.23513735417312
    },
    {
        "code": 210502,
        "regency_code": 2105,
        "province_code": 21,
        "name": "Palmatak",
        "latitude": 3.3430005851055467,
        "longitude": 106.31808238014412
    },
    {
        "code": 210503,
        "regency_code": 2105,
        "province_code": 21,
        "name": "Siantan Timur",
        "latitude": 3.138497477455519,
        "longitude": 106.33564088739271
    },
    {
        "code": 210504,
        "regency_code": 2105,
        "province_code": 21,
        "name": "Siantan Selatan",
        "latitude": 2.9729343674062463,
        "longitude": 106.16087285353689
    },
    {
        "code": 210505,
        "regency_code": 2105,
        "province_code": 21,
        "name": "Jemaja Timur",
        "latitude": 2.9193265680005562,
        "longitude": 105.76867840329156
    },
    {
        "code": 210506,
        "regency_code": 2105,
        "province_code": 21,
        "name": "Jemaja",
        "latitude": 2.9606281205846656,
        "longitude": 105.71145602012426
    },
    {
        "code": 210507,
        "regency_code": 2105,
        "province_code": 21,
        "name": "Siantan Tengah",
        "latitude": 3.258218094332738,
        "longitude": 106.27700567533957
    },
    {
        "code": 210508,
        "regency_code": 2105,
        "province_code": 21,
        "name": "Siantan Utara",
        "latitude": 3.3379336758659175,
        "longitude": 106.2029508661878
    },
    {
        "code": 210509,
        "regency_code": 2105,
        "province_code": 21,
        "name": "Jemaja Barat",
        "latitude": 3.0964985507153377,
        "longitude": 105.67314844954264
    },
    {
        "code": 210510,
        "regency_code": 2105,
        "province_code": 21,
        "name": "Kute Siantan",
        "latitude": 3.3223429297070832,
        "longitude": 106.25838465625547
    },
    {
        "code": 217101,
        "regency_code": 2171,
        "province_code": 21,
        "name": "Belakang Padang",
        "latitude": 1.044134792839632,
        "longitude": 103.81591181082027
    },
    {
        "code": 217102,
        "regency_code": 2171,
        "province_code": 21,
        "name": "Batu Ampar",
        "latitude": 1.1694098385282403,
        "longitude": 104.0108262302133
    },
    {
        "code": 217103,
        "regency_code": 2171,
        "province_code": 21,
        "name": "Sekupang",
        "latitude": 1.1015998001265586,
        "longitude": 103.96216456482777
    },
    {
        "code": 217104,
        "regency_code": 2171,
        "province_code": 21,
        "name": "Nongsa",
        "latitude": 1.105323438036192,
        "longitude": 104.12446560821593
    },
    {
        "code": 217105,
        "regency_code": 2171,
        "province_code": 21,
        "name": "Bulang",
        "latitude": 0.9704187169600472,
        "longitude": 103.93325060196474
    },
    {
        "code": 217106,
        "regency_code": 2171,
        "province_code": 21,
        "name": "Lubuk Baja",
        "latitude": 1.1338402568784107,
        "longitude": 104.00681192400013
    },
    {
        "code": 217107,
        "regency_code": 2171,
        "province_code": 21,
        "name": "Sei Beduk",
        "latitude": 1.0503726082259135,
        "longitude": 104.06028625759933
    },
    {
        "code": 217108,
        "regency_code": 2171,
        "province_code": 21,
        "name": "Galang",
        "latitude": 0.7903388893002709,
        "longitude": 104.20303494325628
    },
    {
        "code": 217109,
        "regency_code": 2171,
        "province_code": 21,
        "name": "Bengkong",
        "latitude": 1.1568128885591165,
        "longitude": 104.03619009670335
    },
    {
        "code": 217110,
        "regency_code": 2171,
        "province_code": 21,
        "name": "Batam Kota",
        "latitude": 1.1182948011917084,
        "longitude": 104.05832167803935
    },
    {
        "code": 217111,
        "regency_code": 2171,
        "province_code": 21,
        "name": "Sagulung",
        "latitude": 1.0219406045888269,
        "longitude": 103.98706049004969
    },
    {
        "code": 217112,
        "regency_code": 2171,
        "province_code": 21,
        "name": "Batu Aji",
        "latitude": 1.061265972820695,
        "longitude": 103.94578375025966
    },
    {
        "code": 217201,
        "regency_code": 2172,
        "province_code": 21,
        "name": "Tanjung Pinang Barat",
        "latitude": 0.9154395996470553,
        "longitude": 104.44680711558682
    },
    {
        "code": 217202,
        "regency_code": 2172,
        "province_code": 21,
        "name": "Tanjung Pinang Timur",
        "latitude": 0.9267008782969848,
        "longitude": 104.51047574416762
    },
    {
        "code": 217203,
        "regency_code": 2172,
        "province_code": 21,
        "name": "Tanjung Pinang Kota",
        "latitude": 0.9588109146114596,
        "longitude": 104.45608254056036
    },
    {
        "code": 217204,
        "regency_code": 2172,
        "province_code": 21,
        "name": "Bukit Bestari",
        "latitude": 0.8769829777490169,
        "longitude": 104.48711255670325
    }
]