code,province_code,name,latitude,longitude
2101,21,"Kab. Bintan",1.08670442936,104.5021450699
2102,21,"Kab. Karimun",1.0329781254577,103.37578135748
2103,21,"Kab. Natuna",3.923444039666,108.33693184535
2104,21,"Kab. Lingga",-0.2099928734471,104.60465899766
2105,21,"Kab. Kepulauan Anambas",3.2145458693401,106.24870240265
2171,21,"Kota Batam",1.1287452751793,104.0553332423
2172,21,"Kota Tanjung Pinang",0.96534296804913,104.44098650589
