[
    {
        "code": 5101,
        "province_code": 51,
        "name": "Kab. Jembrana",
        "latitude": -8.31312268804714,
        "longitude": 114.68288681224492
    },
    {
        "code": 5102,
        "province_code": 51,
        "name": "Kab. Tabanan",
        "latitude": -8.430231084613808,
        "longitude": 115.07827426552363
    },
    {
        "code": 5103,
        "province_code": 51,
        "name": "Kab. Badung",
        "latitude": -8.582846789330262,
        "longitude": 115.18838021912511
    },
    {
        "code": 5104,
        "province_code": 51,
        "name": "Kab. Gianyar",
        "latitude": -8.480973213474085,
        "longitude": 115.2874850845969
    },
    {
        "code": 5105,
        "province_code": 51,
        "name": "Kab. Klungkung",
        "latitude": -8.666950263790111,
        "longitude": 115.49365804125337
    },
    {
        "code": 5106,
        "province_code": 51,
        "name": "Kab. Bangli",
        "latitude": -8.293123651618542,
        "longitude": 115.34729260142302
    },
    {
        "code": 5107,
        "province_code": 51,
        "name": "Kab. Karangasem",
        "latitude": -8.374266195326205,
        "longitude": 115.52989196239412
    },
    {
        "code": 5108,
        "province_code": 51,
        "name": "Kab. Buleleng",
        "latitude": -8.200953233765482,
        "longitude": 114.96090883720582
    },
    {
        "code": 5171,
        "province_code": 51,
        "name": "Kota Denpasar",
        "latitude": -8.668356081702875,
        "longitude": 115.22081629211112
    }
]