code,district_code,regency_code,province_code,name,postal_code,latitude,longitude
3201011001,320101,3201,32,"Pondok Rajeg",16914,-6.4563001947962,106.8198784285
3201011002,320101,3201,32,Karadenan,16913,-6.5169465159927,106.81044882386
3201011003,320101,3201,32,Harapanjaya,16914,-6.4614419851651,106.83599587013
3201011004,320101,3201,32,Nanggewer,16912,-6.5121238791806,106.8293117675
3201011005,320101,3201,32,"Nanggewer Mekar",16912,-6.503328065391,106.83567889984
3201011006,320101,3201,32,Cibinong,16911,-6.4894796448652,106.85314415368
3201011007,320101,3201,32,Pakansari,16915,-6.4880619483643,106.83497863842
3201011008,320101,3201,32,Tengah,16914,-6.4765850214736,106.82597583387
3201011009,320101,3201,32,Sukahati,16913,-6.4930125581615,106.81281703635
3201011010,320101,3201,32,Ciriung,16918,-6.4654918158774,106.86606201126
3201011011,320101,3201,32,Cirimekar,16917,-6.4739445757537,106.8560664118
3201011012,320101,3201,32,Pabuaran,16916,-6.4625832262102,106.84895320002
3201011013,320101,3201,32,"Pabuaran Mekar",16916,-6.4447568591675,106.84808445092
3201022001,320102,3201,32,Wanaherang,16965,-6.4164816964092,106.94501392832
3201022002,320102,3201,32,"Bojong Kulur",16969,-6.3212031525867,106.96935171359
3201022003,320102,3201,32,Ciangsana,16968,-6.3560223568723,106.95875407147
3201022004,320102,3201,32,"Gunung Putri",16961,-6.4625471958545,106.8944365025
3201022005,320102,3201,32,"Bojong Nangka",16963,-6.4313267180262,106.9025330497
3201022006,320102,3201,32,"Tlajung Udik",16962,-6.4459869678453,106.91390332719
3201022007,320102,3201,32,Cicadas,16964,-6.4323925710528,106.92811793271
3201022008,320102,3201,32,"Cikeas Udik",16966,-6.4038783160153,106.92717446175
3201022009,320102,3201,32,Nagrak,16967,-6.3849916952546,106.94592534376
3201022010,320102,3201,32,Karanggan,16960,-6.4566475381176,106.88574464814
3201031006,320103,3201,32,Puspanegara,16811,-6.478748189644,106.88084216501
3201031007,320103,3201,32,"Karang Asem Barat",16811,-6.4907315193475,106.86994002012
3201032001,320103,3201,32,Puspasari,16811,-6.4761311753013,106.87450417785
3201032002,320103,3201,32,Citeureup,16811,-6.48060589195,106.89257467603
3201032003,320103,3201,32,Leuwinutug,16811,-6.5137562445972,106.86172320702
3201032004,320103,3201,32,Tajur,16811,-6.5397710550797,106.92057294648
3201032005,320103,3201,32,Sanja,16811,-6.5039055681051,106.86752730118
3201032008,320103,3201,32,"Karang Asem Timur",16811,-6.4965900225915,106.8797836789
3201032009,320103,3201,32,Tarikolot,16811,-6.4986074032635,106.89022352651
3201032010,320103,3201,32,Gunungsari,16811,-6.4934191859006,106.90274054524
3201032011,320103,3201,32,Tangkil,16811,-6.5346417940837,106.87137693094
3201032012,320103,3201,32,Sukahati,16811,-6.51616560064,106.88288312714
3201032013,320103,3201,32,Hambalang,16811,-6.5483725531382,106.8975991661
3201032014,320103,3201,32,Pasirmukti,16811,-6.508857015181,106.89843746216
3201042001,320104,3201,32,Gununggeulis,16711,-6.632569547273,106.88458725749
3201042002,320104,3201,32,"Cilebut Timur",16711,-6.5273911643711,106.80165088698
3201042003,320104,3201,32,"Cilebut Barat",16711,-6.5298811519095,106.79500588538
3201042004,320104,3201,32,Cibanon,16711,-6.6292594806483,106.84411214948
3201042005,320104,3201,32,Nagrak,16711,-6.6183344227028,106.85581560458
3201042006,320104,3201,32,Sukatani,16711,-6.608721258651,106.84103067441
3201042007,320104,3201,32,Sukaraja,16711,-6.6004293420352,106.83567740211
3201042008,320104,3201,32,Cikeas,16711,-6.5916172743506,106.84877298268
3201042009,320104,3201,32,"Pasir Jambu",16711,-6.535401218091,106.8104468625
3201042010,320104,3201,32,Cimandala,16711,-6.5297505921907,106.82442352172
3201042011,320104,3201,32,Cijujung,16711,-6.5309704516224,106.83671739043
3201042012,320104,3201,32,Cadasngampar,16711,-6.5734439423201,106.84099789344
3201042013,320104,3201,32,Pasirlaja,16711,-6.5510760015712,106.83655408268
3201052001,320105,3201,32,Cijayanti,16810,-6.6018931124147,106.87024074749
3201052002,320105,3201,32,Sumurbatu,16810,-6.5773359097493,106.87883944255
3201052003,320105,3201,32,Sentul,16810,-6.5209879904503,106.85133515904
3201052004,320105,3201,32,Karangtengah,16810,-6.5984100361471,106.93723017696
3201052005,320105,3201,32,Cipambuan,16810,-6.5575564585175,106.84574629009
3201052006,320105,3201,32,Kadumanggu,16810,-6.5448335314324,106.85484561675
3201052007,320105,3201,32,Citaringgul,16810,-6.5689389738414,106.85475499382
3201052008,320105,3201,32,"Babakan Madang",16810,-6.5651487843155,106.86693355579
3201052009,320105,3201,32,"Bojong Koneng",16810,-6.6103893563192,106.90618916944
3201062001,320106,3201,32,Sukamaju,16830,-6.4499171267645,107.04995681852
3201062002,320106,3201,32,Sirnagalih,16830,-6.4732125225937,107.09047564824
3201062003,320106,3201,32,Singajaya,16830,-6.4707973758343,107.04570857543
3201062004,320106,3201,32,Sukasirna,16830,-6.4964371202186,107.05586498513
3201062005,320106,3201,32,Sukanegara,16830,-6.5221797498245,107.0361175791
3201062006,320106,3201,32,Sukamanah,16830,-6.4432410272698,107.06591981444
3201062007,320106,3201,32,Weninggalih,16830,-6.4616187410037,107.10020673618
3201062008,320106,3201,32,Cibodas,16830,-6.5089034275247,107.01213673623
3201062009,320106,3201,32,Jonggol,16830,-6.4644074762654,107.07309307028
3201062010,320106,3201,32,Bendungan,16830,-6.4924627841754,107.08639962021
3201062011,320106,3201,32,Singasari,16830,-6.4737058722161,107.01648165944
3201062012,320106,3201,32,Balekambang,16830,-6.5117931836245,107.08620798712
3201062013,320106,3201,32,Sukajaya,16830,-6.5503772033469,107.01335298927
3201062014,320106,3201,32,Sukagalih,16830,-6.4827478838268,107.10871774734
3201072001,320107,3201,32,Pasirangin,16820,-6.3781750216348,106.98307198959
3201072002,320107,3201,32,Mekarsari,16820,-6.4058434903354,106.99607692364
3201072003,320107,3201,32,Mampir,16820,-6.4304769120535,106.99615686116
3201072004,320107,3201,32,Dayeuh,16820,-6.4305538979671,106.96765965053
3201072005,320107,3201,32,Gandoang,16820,-6.4131653170762,107.01449221495
3201072006,320107,3201,32,Jatisari,16820,-6.4127116960089,107.0505661452
3201072007,320107,3201,32,"Cileungsi Kidul",16820,-6.4107082699701,106.96938486411
3201072008,320107,3201,32,Cipeucang,16820,-6.4236851212312,107.04033881724
3201072009,320107,3201,32,Situsari,16820,-6.4316122815459,107.02288801234
3201072010,320107,3201,32,Cipenjo,16820,-6.3900169648512,106.99249472093
3201072011,320107,3201,32,Limusnunggal,16820,-6.375006406921,106.96920075071
3201072012,320107,3201,32,Cileungsi,16820,-6.3996946863942,106.96245363746
3201082001,320108,3201,32,Karyamekar,16840,-6.5476737974921,107.10440290512
3201082002,320108,3201,32,Babakanraden,16840,-6.4835995627268,107.14090326625
3201082003,320108,3201,32,Cikutamahi,16840,-6.5458610750742,107.16936113675
3201082004,320108,3201,32,Kutamekar,16840,-6.5115702564799,107.15224994761
3201082005,320108,3201,32,Cariu,16840,-6.5101739664432,107.12805265283
3201082006,320108,3201,32,Mekarwangi,16840,-6.525224044527,107.10816556589
3201082007,320108,3201,32,Bantarkuning,16840,-6.5616473211253,107.14713471786
3201082008,320108,3201,32,Sukajadi,16840,-6.49026317383,107.15972177257
3201082009,320108,3201,32,Tegalpanjang,16840,-6.4922320274807,107.11653808567
3201082010,320108,3201,32,Cibatutiga,16840,-6.5416903578615,107.14244920744
3201092001,320109,3201,32,Wargajaya,16831,-6.6256656158729,107.01338864042
3201092002,320109,3201,32,Pabuaran,16831,-6.546854819505,106.96027638774
3201092003,320109,3201,32,Sukadamai,16831,-6.5536120103654,107.06192157778
3201092004,320109,3201,32,Sukawangi,16831,-6.6511271429644,107.04180546395
3201092005,320109,3201,32,Cibadak,16831,-6.581900717738,106.96021729403
3201092006,320109,3201,32,Sukaresmi,16831,-6.5348542544959,107.051307276
3201092007,320109,3201,32,Sukamulya,16831,-6.5910828418492,106.99721754599
3201092008,320109,3201,32,Sukaharja,16831,-6.6036449347279,107.05494773585
3201092009,320109,3201,32,Sirnajaya,16831,-6.6186685938047,106.99750673846
3201092010,320109,3201,32,Sukamakmur,16831,-6.5727279456889,106.98568358177
3201102001,320110,3201,32,Parung,16330,-6.4266086355131,106.73155033066
3201102002,320110,3201,32,Iwul,16330,-6.4568121530358,106.71519189769
3201102003,320110,3201,32,Bojongsempu,16330,-6.4450595782833,106.70507468083
3201102004,320110,3201,32,Waru,16330,-6.4202941732903,106.7199175064
3201102005,320110,3201,32,Cogreg,16330,-6.4199719152899,106.69082291382
3201102006,320110,3201,32,Pamegarsari,16330,-6.4404795011383,106.72780593567
3201102007,320110,3201,32,Warujaya,16330,-6.4263378598468,106.70954779859
3201102008,320110,3201,32,Bojongindah,16330,-6.4326928354332,106.70179142443
3201102009,320110,3201,32,Jabonmekar,16330,-6.453707791963,106.72636580223
3201112001,320111,3201,32,Cidokom,16340,-6.405236722067,106.70691420953
3201112002,320111,3201,32,Padurenan,16340,-6.3910188086643,106.70482577067
3201112003,320111,3201,32,Pengasinan,16340,-6.3692035144931,106.6905565651
3201112004,320111,3201,32,Curug,16340,-6.3959909858616,106.71999474763
3201112005,320111,3201,32,Gunungsindur,16340,-6.3845510957829,106.6695669884
3201112006,320111,3201,32,Jampang,16340,-6.3988233678352,106.65506347974
3201112007,320111,3201,32,Cibadung,16340,-6.4035764181744,106.67794727025
3201112008,320111,3201,32,Cibinong,16340,-6.3947366587399,106.69071315726
3201112009,320111,3201,32,Rawakalong,16340,-6.3702280923491,106.71030307509
3201112010,320111,3201,32,Pabuaran,16340,-6.3693129994764,106.66833354051
3201121006,320112,3201,32,"Atang Senjaya",16310,-6.5407208804507,106.75868298384
3201122001,320112,3201,32,Bojong,16310,-6.5274009244074,106.75226736129
3201122002,320112,3201,32,Parakanjaya,16310,-6.5210590566978,106.76235869924
3201122003,320112,3201,32,Kemang,16310,-6.5078448527457,106.74859077791
3201122004,320112,3201,32,Pabuaran,16310,-6.5038798037081,106.72536197805
3201122005,320112,3201,32,"Semplak Barat",16310,-6.5435756708918,106.74859961373
3201122007,320112,3201,32,Jampang,16310,-6.4747638345924,106.72656669583
3201122008,320112,3201,32,"Pondok Udik",16310,-6.4910070813368,106.73711979954
3201122009,320112,3201,32,Tegal,16310,-6.4836363880897,106.7095295206
3201131007,320113,3201,32,Pabuaran,16921,-6.4607785379204,106.79855021814
3201132001,320113,3201,32,Bojongbaru,16920,-6.4768496672981,106.80958210187
3201132002,320113,3201,32,Cimanggis,16920,-6.503860308712,106.77632005154
3201132003,320113,3201,32,Susukan,16920,-6.4693349104207,106.79018800029
3201132004,320113,3201,32,Ragajaya,16920,-6.4455090562116,106.7822390863
3201132005,320113,3201,32,Kedungwaringin,16923,-6.4964941848633,106.79384394143
3201132006,320113,3201,32,Waringinjaya,16920,-6.508538103237,106.79111425277
3201132008,320113,3201,32,Rawapanjang,16920,-6.4582175505204,106.80953052527
3201132009,320113,3201,32,Bojonggede,16922,-6.4866215623237,106.80003475754
3201142001,320114,3201,32,Leuwiliang,16640,-6.5662582253308,106.63029030601
3201142002,320114,3201,32,Purasari,16640,-6.6993665693938,106.60137251536
3201142003,320114,3201,32,Karyasari,16640,-6.6382294681991,106.62021017992
3201142004,320114,3201,32,Pabangbon,16640,-6.6273523697915,106.59020278799
3201142005,320114,3201,32,Karacak,16640,-6.6203180783466,106.62919787973
3201142006,320114,3201,32,Barengkok,16640,-6.5980586668171,106.6355075952
3201142007,320114,3201,32,Leuwimekar,16640,-6.5830127474746,106.63308629933
3201142008,320114,3201,32,Puraseda,16640,-6.6672000437135,106.59726095235
3201142009,320114,3201,32,"Cibeber I",16640,-6.5758947620108,106.61932529367
3201142010,320114,3201,32,"Cibeber II",16640,-6.6013995350085,106.61612595046
3201142011,320114,3201,32,Karehkel,16640,-6.5494174169871,106.63469742513
3201152001,320115,3201,32,Ciampea,16620,-6.5428167887742,106.68917402836
3201152002,320115,3201,32,Cinangka,16620,-6.591855159,106.70013811847
3201152003,320115,3201,32,Cihideungudik,16620,-6.5816504732288,106.71561830268
3201152004,320115,3201,32,Bojongjengkol,16620,-6.5747991593672,106.70976574039
3201152005,320115,3201,32,Tegalwaru,16620,-6.572905996483,106.69860951336
3201152006,320115,3201,32,Cibuntu,16620,-6.5942140972367,106.68509387071
3201152007,320115,3201,32,Cicadas,16620,-6.5785630608562,106.68304994486
3201152008,320115,3201,32,Cibadak,16620,-6.5598076550735,106.68737007998
3201152009,320115,3201,32,Bojongrangkas,16620,-6.5601215851468,106.69507825941
3201152010,320115,3201,32,Cihideunghilir,16620,-6.5700466732414,106.72200936841
3201152011,320115,3201,32,Cibanteng,16620,-6.5566241179207,106.71125964264
3201152012,320115,3201,32,Benteng,16620,-6.5461959602395,106.70290279812
3201152013,320115,3201,32,"Ciampea Udik",16620,-6.6119352241045,106.68299220652
3201162001,320116,3201,32,"Situ Udik",16630,-6.6189563423087,106.65197242559
3201162002,320116,3201,32,"Situ Ilir",16630,-6.6026323772257,106.65341812266
3201162003,320116,3201,32,Cemplang,16630,-6.5789988286896,106.64842026548
3201162004,320116,3201,32,"Cibatok I",16630,-6.5816278281213,106.66588455907
3201162005,320116,3201,32,"Ciaruteun Udik",16630,-6.6041913901049,106.67400207009
3201162006,320116,3201,32,Leuweungkolot,16630,-6.5592046275615,106.67475439068
3201162007,320116,3201,32,"Cimanggu I",16630,-6.5621688890424,106.66555104491
3201162008,320116,3201,32,"Cimanggu II",16630,-6.569591888389,106.66173760144
3201162009,320116,3201,32,Dukuh,16630,-6.5656707438552,106.6529042898
3201162010,320116,3201,32,Cijujung,16630,-6.550903811843,106.6538828857
3201162011,320116,3201,32,"Ciaruteun Ilir",16630,-6.5403214362533,106.67529072674
3201162012,320116,3201,32,"Cibatok II",16630,-6.592655840656,106.66727442279
3201162013,320116,3201,32,Sukamaju,16630,-6.5888061030219,106.65331799158
3201162014,320116,3201,32,Galuga,16630,-6.5654597030433,106.64224130487
3201162015,320116,3201,32,Girimulya,16630,-6.5705325728046,106.67667536031
3201172001,320117,3201,32,Purwabakti,16812,-6.7274290127819,106.63490312878
3201172002,320117,3201,32,Cibunian,16812,-6.6964577689642,106.62614496119
3201172003,320117,3201,32,Cibitungwetan,16812,-6.6492181432806,106.63861620112
3201172004,320117,3201,32,Gunungmenyan,16812,-6.628298218458,106.66736540509
3201172005,320117,3201,32,"Gunungbunder II",16812,-6.6883825686518,106.70119029194
3201172006,320117,3201,32,Pasarean,16812,-6.6383834005973,106.66003067551
3201172007,320117,3201,32,Cimayang,16812,-6.610100858133,106.66625651599
3201172008,320117,3201,32,Pamijahan,16812,-6.6442043177971,106.65034276106
3201172009,320117,3201,32,Cibening,16812,-6.6320431877527,106.67689663361
3201172010,320117,3201,32,"Gunungbunder I",16812,-6.6483658852142,106.68165137143
3201172011,320117,3201,32,"Cibitung Kulon",16812,-6.6643745455316,106.6405806127
3201172012,320117,3201,32,"Gunung Picung",16812,-6.6782604759635,106.68165837506
3201172013,320117,3201,32,Ciasihan,16812,-6.7128754301691,106.67616706551
3201172014,320117,3201,32,Gunungsari,16812,-6.6994218540734,106.68482617114
3201172015,320117,3201,32,Ciasmara,16812,-6.7059921379108,106.66176980776
3201182001,320118,3201,32,Rumpin,16350,-6.440003649762,106.64428306795
3201182002,320118,3201,32,Leuwibatu,16350,-6.5281707832808,106.61990824549
3201182003,320118,3201,32,Cidokom,16350,-6.5187200393353,106.67452544059
3201182004,320118,3201,32,Gobang,16350,-6.5143685128526,106.64794379024
3201182005,320118,3201,32,Cibodas,16350,-6.4894542674541,106.66263426788
3201182006,320118,3201,32,Rabak,16350,-6.4872959860084,106.62961625709
3201182007,320118,3201,32,Kampungsawah,16350,-6.4593264771616,106.63240069709
3201182008,320118,3201,32,Cipinang,16350,-6.4432632403212,106.61438888296
3201182009,320118,3201,32,Sukasari,16350,-6.4189456846946,106.62237842294
3201182010,320118,3201,32,Tamansari,16350,-6.3980108611399,106.62872052793
3201182011,320118,3201,32,Kertajaya,16350,-6.3963496864318,106.60274977679
3201182012,320118,3201,32,Sukamulya,16350,-6.3721400251983,106.63228615601
3201182013,320118,3201,32,Mekarsari,16350,-6.3759747119599,106.60353013278
3201182014,320118,3201,32,Mekarjaya,16350,-6.5313235547894,106.65967593967
3201192001,320119,3201,32,Curug,16670,-6.4973206219137,106.42528296552
3201192002,320119,3201,32,Pangradin,16670,-6.5249863372229,106.47887391494
3201192003,320119,3201,32,Kalongsawah,16670,-6.5032719571419,106.49456306497
3201192004,320119,3201,32,Sipak,16670,-6.4868217951782,106.48335864833
3201192005,320119,3201,32,Jasinga,16670,-6.4836836209274,106.45032113667
3201192006,320119,3201,32,Koleang,16670,-6.4653138344245,106.43842380862
3201192007,320119,3201,32,Cikopomayak,16670,-6.4492170478515,106.46511608428
3201192008,320119,3201,32,Setu,16670,-6.4673825609174,106.4687613107
3201192009,320119,3201,32,Barengkok,16670,-6.4301684637523,106.48717317932
3201192010,320119,3201,32,Bagoang,16670,-6.4292515170517,106.45579790503
3201192011,320119,3201,32,Pangaur,16670,-6.3968114935876,106.46167501238
3201192012,320119,3201,32,Pamagersari,16670,-6.487679448201,106.4654033984
3201192013,320119,3201,32,"Jugala Jaya",16670,-6.5268674369071,106.45601020778
3201192014,320119,3201,32,Tegalwangi,16670,-6.4649307288869,106.41851051849
3201192015,320119,3201,32,Neglasari,16670,-6.4494105003002,106.44929138506
3201192016,320119,3201,32,Wirajaya,16670,-6.5257538088053,106.42164059824
3201202001,320120,3201,32,Jagabaya,16360,-6.3937910926545,106.53299506914
3201202002,320120,3201,32,Gorowong,16360,-6.3992264984491,106.55819987503
3201202003,320120,3201,32,Dago,16360,-6.4064830911842,106.58489735925
3201202004,320120,3201,32,Pingku,16360,-6.3758114595849,106.56906280802
3201202005,320120,3201,32,Cikuda,16360,-6.3775418625406,106.58397337985
3201202006,320120,3201,32,Parungpanjang,16360,-6.3496152483504,106.56729752584
3201202007,320120,3201,32,Lumpang,16360,-6.3621240472196,106.54542590246
3201202008,320120,3201,32,Cibunar,16360,-6.3422016808119,106.55165105322
3201202009,320120,3201,32,Jagabita,16360,-6.334589066331,106.52909133017
3201202010,320120,3201,32,Gintungcilejet,16360,-6.3686070862382,106.52492490103
3201202011,320120,3201,32,Kabasiran,16360,-6.3536016025823,106.57828164082
3201212001,320121,3201,32,Malasari,16650,-6.7174751263852,106.51661021548
3201212002,320121,3201,32,Curugbitung,16650,-6.6366544821509,106.52417696511
3201212003,320121,3201,32,Cisarua,16650,-6.6540849030571,106.54592642296
3201212004,320121,3201,32,Bantarkaret,16650,-6.6791795104551,106.56484602592
3201212005,320121,3201,32,Hambaro,16650,-6.5860571684211,106.56156786381
3201212006,320121,3201,32,Kalongliud,16650,-6.5814550175165,106.5566962909
3201212007,320121,3201,32,Nanggung,16650,-6.6162561730081,106.52477090178
3201212008,320121,3201,32,Parakanmuncang,16650,-6.5898660155094,106.53864534883
3201212009,320121,3201,32,Pangkaljaya,16650,-6.6040600900318,106.54861018192
3201212010,320121,3201,32,Sukaluyu,16650,-6.5982474982162,106.56761813814
3201212011,320121,3201,32,"Batu Tulis",16650,-6.5678753124351,106.55093981457
3201222001,320122,3201,32,Sukamaju,16660,-6.5477343909105,106.51141609903
3201222002,320122,3201,32,Cigudeg,16660,-6.5540621458381,106.53829815602
3201222003,320122,3201,32,Bunar,16660,-6.5304160785981,106.50024778193
3201222004,320122,3201,32,Banyuresmi,16660,-6.5268105558542,106.58187610601
3201222005,320122,3201,32,Cintamanik,16660,-6.4923166822167,106.53153637329
3201222006,320122,3201,32,Argapura,16660,-6.4639032183926,106.50327820058
3201222007,320122,3201,32,Bangunjaya,16660,-6.4511132087881,106.53853417481
3201222008,320122,3201,32,Rengasjajar,16660,-6.4462901829533,106.56275745166
3201222009,320122,3201,32,Batujajar,16660,-6.4332808215552,106.58207105539
3201222010,320122,3201,32,Wargajaya,16660,-6.5290480519832,106.53444548674
3201222011,320122,3201,32,Sukaraksa,16660,-6.5834012650591,106.52488225946
3201222012,320122,3201,32,Banyuwangi,16660,-6.5058312006758,106.55775982901
3201222013,320122,3201,32,Banyuasih,16660,-6.4906593017106,106.58987419353
3201222014,320122,3201,32,Mekarjaya,16660,-6.5145285908718,106.51125844538
3201222015,320122,3201,32,Tegallega,16660,-6.4625053212187,106.58894563583
3201232001,320123,3201,32,Tapos,16370,-6.4003529006643,106.49539417088
3201232002,320123,3201,32,Ciomas,16370,-6.419481179896,106.52507265495
3201232003,320123,3201,32,Batok,16370,-6.3657604414176,106.50371568532
3201232004,320123,3201,32,Babakan,16370,-6.3645158130758,106.47077259316
3201232005,320123,3201,32,Tenjo,16370,-6.3309694895353,106.45427685467
3201232006,320123,3201,32,Cilaku,16370,-6.3373299058773,106.47412228504
3201232007,320123,3201,32,Singabraja,16370,-6.3518912456884,106.44053489945
3201232008,320123,3201,32,Singabangsa,16370,-6.3148300749765,106.4680796916
3201232009,320123,3201,32,Bojong,16370,-6.380994145713,106.44197511954
3201242001,320124,3201,32,Cileungsi,16720,-6.7237925479425,106.89435126823
3201242002,320124,3201,32,Citapen,16720,-6.6991092536223,106.87096118555
3201242003,320124,3201,32,Cibedug,16720,-6.709824815496,106.8935533522
3201242004,320124,3201,32,Jambuluwuk,16720,-6.6899793150355,106.87953331193
3201242005,320124,3201,32,Banjarsari,16720,-6.6837520158288,106.87042375715
3201242006,320124,3201,32,"Teluk Pinang",16720,-6.6819229387825,106.85157251063
3201242007,320124,3201,32,"Banjar Waru",16720,-6.6696184680977,106.85503918439
3201242008,320124,3201,32,Bendungan,16720,-6.6659488902097,106.86238333334
3201242009,320124,3201,32,"Pandan Sari",16720,-6.6486588074809,106.8546992726
3201242010,320124,3201,32,"Bojong Murni",16720,-6.7350325256193,106.92875532669
3201242011,320124,3201,32,"Banjar Wangi",16720,-6.6816415290401,106.85986668999
3201242012,320124,3201,32,Ciawi,16720,-6.6590562102801,106.84912975571
3201242013,320124,3201,32,Bitungsari,16720,-6.6827081931052,106.8418626
3201251010,320125,3201,32,Cisarua,16750,-6.678049326796,106.93643255514
3201252001,320125,3201,32,Batulayang,16750,-6.67562659113,106.94767458927
3201252002,320125,3201,32,Jogjogan,16750,-6.6624379991069,106.93525316334
3201252003,320125,3201,32,Cibeureum,16750,-6.7193504161453,106.94949857101
3201252004,320125,3201,32,Cilember,16750,-6.6523107996194,106.92069840571
3201252005,320125,3201,32,Citeko,16750,-6.7011203915218,106.93376612515
3201252006,320125,3201,32,"Tugu Selatan",16750,-6.7206462022141,106.97070859107
3201252007,320125,3201,32,Leuwimalang,16750,-6.6655242901238,106.92507966022
3201252008,320125,3201,32,Kopo,16750,-6.6675022980392,106.91166770732
3201252009,320125,3201,32,"Tugu Utara",16750,-6.6850758480578,106.97932825459
3201262001,320126,3201,32,Sukamaju,16770,-6.6806243703264,106.8863390761
3201262002,320126,3201,32,Kuta,16770,-6.6982880290389,106.92208126238
3201262003,320126,3201,32,Gadog,16770,-6.6610962243334,106.87362157933
3201262004,320126,3201,32,Sukakarya,16770,-6.6694741616945,106.89296240399
3201262005,320126,3201,32,Megamendung,16770,-6.6492403070425,106.95168539328
3201262006,320126,3201,32,Cipayung,16770,-6.6497704654921,106.88572708465
3201262007,320126,3201,32,Sukamanah,16770,-6.6881077373132,106.89474720348
3201262008,320126,3201,32,Sukagalih,16770,-6.6987689855896,106.91406979791
3201262009,320126,3201,32,"Cipayung Girang",16770,-6.645929918102,106.90169217224
3201262010,320126,3201,32,Sukamahi,16770,-6.6706506305009,106.87169229214
3201262011,320126,3201,32,Sukaresmi,16770,-6.7020321576199,106.90720835651
3201262012,320126,3201,32,"Pasir Angin",16770,-6.642812915651,106.86757364495
3201272001,320127,3201,32,"Pasir Muncang",16730,-6.7236646428193,106.83183927329
3201272002,320127,3201,32,"Cimande Hilir",16730,-6.6998471615643,106.82517549404
3201272003,320127,3201,32,Ciderum,16730,-6.6980315861065,106.84947850331
3201272004,320127,3201,32,Caringin,16730,-6.7108953596381,106.82667413926
3201272005,320127,3201,32,"Ciherang Pondok",16730,-6.688041798583,106.82996778817
3201272006,320127,3201,32,Cinagara,16730,-6.7473493266806,106.85453392945
3201272007,320127,3201,32,Cimande,16730,-6.7462895829492,106.89483545853
3201272008,320127,3201,32,Pancawati,16730,-6.7275344007183,106.88118302608
3201272009,320127,3201,32,"Muara Jaya",16730,-6.7223617666453,106.81759419605
3201272010,320127,3201,32,Pasirbuncir,16730,-6.7564495325101,106.85091196489
3201272011,320127,3201,32,"Lemah Duhur",16730,-6.7232958484374,106.84842286993
3201272012,320127,3201,32,Tangkil,16730,-6.7548899594037,106.88305608215
3201282001,320128,3201,32,Cijeruk,16740,-6.709439812134,106.77242748776
3201282002,320128,3201,32,Cipelang,16740,-6.6970834210454,106.77609089533
3201282003,320128,3201,32,"Warung Menteng",16740,-6.7039709150696,106.80716506401
3201282004,320128,3201,32,"Tajur Halang",16740,-6.6803972592921,106.77342453542
3201282005,320128,3201,32,Cipicung,16740,-6.6746034517693,106.80503719902
3201282006,320128,3201,32,Cibalung,16740,-6.6863433047081,106.81137064182
3201282007,320128,3201,32,Sukaharja,16740,-6.6718570997664,106.76704806636
3201282008,320128,3201,32,Palasari,16740,-6.659067447193,106.79934697121
3201282009,320128,3201,32,Tanjungsari,16740,-6.6787459659459,106.78681368814
3201291003,320129,3201,32,Padasuka,16610,-6.5954348648272,106.75973059949
3201292001,320129,3201,32,Mekarjaya,16610,-6.6115215306146,106.77705842972
3201292002,320129,3201,32,Sukaharja,16610,-6.6127765622752,106.74368507257
3201292004,320129,3201,32,Parakan,16610,-6.6209697168129,106.76909209906
3201292005,320129,3201,32,Ciomas,16610,-6.6071607195998,106.76945551754
3201292006,320129,3201,32,Pagelaran,16610,-6.611826071879,106.76166825158
3201292007,320129,3201,32,Sukamakmur,16610,-6.6130619371603,106.75175000067
3201292008,320129,3201,32,Ciapus,16610,-6.5984155308255,106.74886783916
3201292009,320129,3201,32,"Kota Batu",16610,-6.6272420525927,106.7816841502
3201292010,320129,3201,32,Laladon,16610,-6.584175898061,106.75449725912
3201292011,320129,3201,32,"Ciomas Rahayu",16610,-6.5931899005473,106.7648522256
3201302001,320130,3201,32,Sukadamai,16680,-6.6201757193851,106.73253931493
3201302002,320130,3201,32,Ciherang,16680,-6.584241359484,106.74492106206
3201302003,320130,3201,32,Sinarsari,16680,-6.5822409108157,106.73307297124
3201302004,320130,3201,32,Sukawening,16680,-6.6013635207308,106.73564643306
3201302005,320130,3201,32,Petir,16680,-6.6093410725636,106.72318989291
3201302006,320130,3201,32,Purwasari,16680,-6.621490934666,106.71603847955
3201302007,320130,3201,32,Cikarawang,16680,-6.5459096351508,106.73042663929
3201302008,320130,3201,32,Babakan,16680,-6.5567756382435,106.72562565675
3201302009,320130,3201,32,Dramaga,16680,-6.5725450020643,106.73576035124
3201302010,320130,3201,32,Neglasari,16680,-6.5873884638065,106.72592392514
3201312001,320131,3201,32,Sukamantri,16611,-6.6486046191517,106.77160675845
3201312002,320131,3201,32,Sirnagalih,16611,-6.6358862532589,106.77099458918
3201312003,320131,3201,32,Pasireurih,16611,-6.6375774633126,106.76153787594
3201312004,320131,3201,32,Tamansari,16611,-6.6779815879975,106.74352706696
3201312005,320131,3201,32,Sukaluyu,16611,-6.6396111387544,106.74340769337
3201312006,320131,3201,32,Sukaresmi,16611,-6.6323334149552,106.75321510843
3201312007,320131,3201,32,Sukajaya,16611,-6.6446450607391,106.73401275164
3201312008,320131,3201,32,Sukajadi,16611,-6.6481012916586,106.72408116968
3201322001,320132,3201,32,Klapanunggal,16710,-6.4667272928383,106.95908723376
3201322002,320132,3201,32,Bojong,16710,-6.4520014863842,106.99851911031
3201322003,320132,3201,32,Nambo,16710,-6.4765695847092,106.93048262551
3201322004,320132,3201,32,Lulut,16710,-6.4920310220545,106.9154280097
3201322005,320132,3201,32,Cikahuripan,16710,-6.4546036682076,106.97603276513
3201322006,320132,3201,32,"Kembang Kuning",16710,-6.4494979000778,106.93887375762
3201322007,320132,3201,32,"Bantar Jati",16710,-6.4688959877281,106.90445156411
3201322008,320132,3201,32,Leuwikaret,16710,-6.516222007844,106.94315301827
3201322009,320132,3201,32,Ligarmukti,16710,-6.4954012410253,106.97939620718
3201332001,320133,3201,32,"Putat Nutug",16120,-6.464886308118,106.66928673991
3201332002,320133,3201,32,Ciseeng,16120,-6.449566664705,106.68711893205
3201332003,320133,3201,32,"Parigi Mekar",16120,-6.4504070085695,106.69762460779
3201332004,320133,3201,32,Cibentang,16120,-6.4404715302693,106.67595223817
3201332005,320133,3201,32,"Cibeuteung Udik",16120,-6.486804177043,106.69097512621
3201332006,320133,3201,32,Karihkil,16120,-6.4902197077523,106.67922116436
3201332007,320133,3201,32,Babakan,16120,-6.4656624545997,106.69789019736
3201332008,320133,3201,32,Cihoe,16120,-6.4315139194319,106.68353067543
3201332009,320133,3201,32,"Cibeuteung Muara",16120,-6.4455286374458,106.66394294589
3201332010,320133,3201,32,Kuripan,16120,-6.4219051869576,106.6632503882
3201342001,320134,3201,32,Bantarjaya,16311,-6.5327818774628,106.73187766827
3201342002,320134,3201,32,Bantarsari,16311,-6.5239452033707,106.73755027938
3201342003,320134,3201,32,Pasirgaok,16311,-6.5360806664457,106.71851423528
3201342004,320134,3201,32,Rancabungur,16311,-6.5325274797326,106.70388502928
3201342005,320134,3201,32,Mekarsari,16311,-6.513259865355,106.69042169169
3201342006,320134,3201,32,Candali,16311,-6.5043678220617,106.70182807611
3201342007,320134,3201,32,Cimulang,16311,-6.5209065547211,106.71325054645
3201352001,320135,3201,32,Cisarua,16661,-6.6669653125889,106.45642394709
3201352002,320135,3201,32,Kiarasari,16661,-6.6881994370148,106.4877381837
3201352003,320135,3201,32,Sukajaya,16661,-6.5894910457826,106.51154040979
3201352004,320135,3201,32,Sipayung,16661,-6.5751330806011,106.50315079769
3201352005,320135,3201,32,Cileuksa,16661,-6.5929802639093,106.44130396418
3201352006,320135,3201,32,Kiarapandak,16661,-6.6215829874904,106.49064968497
3201352007,320135,3201,32,Harkatjaya,16661,-6.6057991207984,106.50905463652
3201352008,320135,3201,32,Sukamulih,16661,-6.5675087409483,106.4845497064
3201352009,320135,3201,32,"Pasir Madang",16661,-6.5948843310742,106.46695976999
3201352010,320135,3201,32,Urug,16661,-6.6257996888072,106.50278072931
3201352011,320135,3201,32,Jayaraharja,16661,-6.5963401490793,106.49579490935
3201362001,320136,3201,32,Tanjungsari,16841,-6.6260228790421,107.14033066261
3201362002,320136,3201,32,Selawangi,16841,-6.5774429791994,107.09012568337
3201362003,320136,3201,32,Tanjungrasa,16841,-6.5765016507756,107.13475919668
3201362004,320136,3201,32,Antajaya,16841,-6.5847143429859,107.17391103091
3201362005,320136,3201,32,"Pasir Tanjung",16841,-6.600755757488,107.14651417078
3201362006,320136,3201,32,Cibadak,16841,-6.6238709310083,107.1062811213
3201362007,320136,3201,32,Sukarasa,16841,-6.5920097115653,107.10609895839
3201362008,320136,3201,32,Sirnasari,16841,-6.6305393544382,107.15195325302
3201362009,320136,3201,32,Buanajaya,16841,-6.6163528299872,107.19503950187
3201362010,320136,3201,32,Sirnarasa,16841,-6.6478245411078,107.13370557138
3201372001,320137,3201,32,Tajurhalang,16320,-6.4766595987069,106.7607942999
3201372002,320137,3201,32,Citayam,16320,-6.4440034304638,106.75161970771
3201372003,320137,3201,32,"Sasak Panjang",16320,-6.4569942640734,106.76246786631
3201372004,320137,3201,32,Nanggerang,16320,-6.4650285348675,106.77852300919
3201372005,320137,3201,32,Sukmajaya,16320,-6.4831235234768,106.7811413839
3201372006,320137,3201,32,Tonjong,16320,-6.4911563764682,106.75609491529
3201372007,320137,3201,32,Kalisuren,16320,-6.4660287078739,106.74013626084
3201382001,320138,3201,32,Cigombong,16110,-6.7459705278986,106.80128019473
3201382002,320138,3201,32,Watesjaya,16110,-6.7675615046969,106.84995325027
3201382003,320138,3201,32,Ciburuy,16110,-6.7339886515501,106.81057902101
3201382004,320138,3201,32,Srogol,16110,-6.7452658680389,106.82154694603
3201382005,320138,3201,32,Cisalada,16110,-6.7364827941014,106.79421677639
3201382006,320138,3201,32,Tugujaya,16110,-6.7397427795297,106.77378693392
3201382007,320138,3201,32,Pasirjaya,16110,-6.7244352292337,106.77300022633
3201382008,320138,3201,32,Ciburayut,16110,-6.7195642271599,106.79215257982
3201382009,320138,3201,32,Ciadeg,16110,-6.7171909997132,106.80877329326
3201392001,320139,3201,32,Leuwisadeng,16641,-6.589375438787,106.60149362976
3201392002,320139,3201,32,"Babakan Sadeng",16641,-6.5717653424094,106.58056464591
3201392003,320139,3201,32,"Sadeng Kolot",16641,-6.5904578079326,106.58789059668
3201392004,320139,3201,32,Wangunjaya,16641,-6.5920899508364,106.57765758166
3201392005,320139,3201,32,"Kalong I",16641,-6.5547128871688,106.55996296559
3201392006,320139,3201,32,"Kalong II",16641,-6.5540763618034,106.5704765303
3201392007,320139,3201,32,Sadeng,16641,-6.5569274856878,106.58539097555
3201392008,320139,3201,32,Sibanteng,16641,-6.5548482500035,106.59974369479
3201402001,320140,3201,32,"Tapos I",16371,-6.6769942740263,106.70653750481
3201402002,320140,3201,32,"Tapos II",16371,-6.6348675144564,106.69294369095
3201402003,320140,3201,32,"Cibitung Tengah",16371,-6.6176644431856,106.69279670359
3201402004,320140,3201,32,Situdaun,16371,-6.621026158265,106.7073278648
3201402005,320140,3201,32,Cinangneng,16371,-6.6026402840377,106.70511993077
3201402006,320140,3201,32,"Gunung Malang",16371,-6.6738211168419,106.71956091029
3201402007,320140,3201,32,"Gunung Mulya",16371,-6.6407773236093,106.70637554783
3202011001,320201,3202,32,Palabuhanratu,43364,-6.9964172306779,106.55434120289
3202012002,320201,3202,32,Tonjong,43364,-7.006426131583,106.61041226976
3202012003,320201,3202,32,Citepus,43364,-6.9744725979507,106.54721103172
3202012004,320201,3202,32,Buniwangi,43364,-6.9534901860661,106.5786647508
3202012005,320201,3202,32,Cibodas,43364,-6.9459128727416,106.54050611547
3202012006,320201,3202,32,Pasirsuren,43364,-6.974944878611,106.6195156709
3202012007,320201,3202,32,Cikadu,43364,-6.9705924050317,106.60198345801
3202012008,320201,3202,32,Citarik,43364,-6.9942422013312,106.58479205308
3202012009,320201,3202,32,Cimanggu,43364,-6.9507329166747,106.55981408942
3202012010,320201,3202,32,Jayanti,43364,-7.0145865353499,106.55447949752
3202022001,320202,3202,32,Cidadap,43361,-7.026513493089,106.57775208275
3202022002,320202,3202,32,Loji,43361,-7.0569652723143,106.58021412026
3202022003,320202,3202,32,Kertajaya,43361,-7.1091998992315,106.60431887165
3202022004,320202,3202,32,Cihaur,43361,-7.1100641455407,106.55768825442
3202022005,320202,3202,32,Cibuntu,43361,-7.0310940108903,106.61865226474
3202022006,320202,3202,32,Mekarasih,43361,-7.0416359496763,106.65438497421
3202022007,320202,3202,32,Sangrawayang,43361,-7.0841138592387,106.52870755292
3202032001,320203,3202,32,Cikakak,43365,-6.9547194171981,106.50057358927
3202032002,320203,3202,32,Cimaja,43365,-6.9313508343479,106.48885258424
3202032003,320203,3202,32,Ridogalih,43365,-6.923714997704,106.50667017283
3202032004,320203,3202,32,Sukamaju,43365,-6.9422516726088,106.51655634927
3202032005,320203,3202,32,Cileungsing,43365,-6.9227526325636,106.53284068025
3202032006,320203,3202,32,Margalaksana,43365,-6.9049544105538,106.51604729595
3202032007,320203,3202,32,Sirnarasa,43365,-6.857396180334,106.52135231994
3202032008,320203,3202,32,Gandasoli,43365,-6.9071660050815,106.56724292353
3202032009,320203,3202,32,Cirendang,43365,-6.8924470304828,106.54623925233
3202042001,320204,3202,32,Bantargadung,43363,-6.9843873985105,106.67216064249
3202042002,320204,3202,32,Mangunjaya,43363,-6.9631825091924,106.68913982747
3202042003,320204,3202,32,Bojonggaling,43363,-6.9930810607179,106.63944577127
3202042004,320204,3202,32,Limusnunggal,43363,-6.9548636681814,106.63842309996
3202042005,320204,3202,32,Bantargebang,43363,-7.0132726087419,106.66193606063
3202042006,320204,3202,32,Buanajaya,43363,-6.9485510944173,106.66576183435
3202042007,320204,3202,32,"Boyong Sari",43363,-6.9503139050495,106.70469484771
3202052001,320205,3202,32,Cisolok,43366,-6.9457498200222,106.45721834446
3202052002,320205,3202,32,"Pasir Baru",43366,-6.9556152395855,106.41048310425
3202052003,320205,3202,32,Cikahuripan,43366,-6.9428208347415,106.43808970626
3202052004,320205,3202,32,Cikelat,43366,-6.900375804911,106.46205264389
3202052005,320205,3202,32,Caringin,43366,-6.9188183369334,106.40697382252
3202052006,320205,3202,32,Gunungkaramat,43366,-6.8851623150387,106.43455726836
3202052007,320205,3202,32,Gunungtanjung,43366,-6.917492392154,106.4324584395
3202052008,320205,3202,32,Karangpapak,43366,-6.9337547641189,106.47496227301
3202052009,320205,3202,32,Sirnaresmi,43366,-6.8086105410904,106.49805957006
3202052010,320205,3202,32,Cicadas,43366,-6.8483549948253,106.46608773693
3202052011,320205,3202,32,Wanajaya,43366,-6.876972143815,106.4577598146
3202052012,320205,3202,32,Wangunsari,43366,-6.9280215418895,106.46065383002
3202052013,320205,3202,32,Sukarame,43366,-6.8897487115852,106.48661255626
3202062001,320206,3202,32,Cikidang,43367,-6.9037556991269,106.64279393958
3202062002,320206,3202,32,Cikiray,43367,-6.875053493436,106.59446824652
3202062003,320206,3202,32,Gunungmalang,43367,-6.8603643880857,106.62532052708
3202062004,320206,3202,32,Pangkalan,43367,-6.8810128154417,106.66904901801
3202062005,320206,3202,32,Cicareuh,43367,-6.893514699238,106.68974772181
3202062006,320206,3202,32,"Taman Sari",43367,-6.9032021566014,106.70604828541
3202062007,320206,3202,32,"Bumi Sari",43367,-6.9266877297899,106.6716222199
3202062008,320206,3202,32,Sampora,43367,-6.9265370800071,106.5995318949
3202062009,320206,3202,32,Nangkakoneng,43367,-6.8594676509614,106.65588714713
3202062010,320206,3202,32,Mekarnangka,43367,-6.8710321713617,106.60815092361
3202062011,320206,3202,32,Cijambe,43367,-6.9255364690421,106.62140770767
3202062012,320206,3202,32,"Cikarae Thoyyibah",43367,-6.8783727213737,106.57839216744
3202072001,320207,3202,32,Lengkong,43174,-7.1367220633858,106.68307281735
3202072002,320207,3202,32,Cilangkap,43174,-7.086221969969,106.67797262847
3202072003,320207,3202,32,Tegallega,43174,-7.1504557168275,106.7129726205
3202072004,320207,3202,32,Neglasari,43174,-7.1366902746404,106.74659517046
3202072005,320207,3202,32,Langkapjaya,43174,-7.0875810453967,106.63788675949
3202082001,320208,3202,32,Jampangtengah,43171,-7.0508823229069,106.78558985352
3202082002,320208,3202,32,Padabeunghar,43171,-7.0169370467874,106.78217391893
3202082003,320208,3202,32,Bantarpanjang,43171,-7.1277018065546,106.78020711341
3202082004,320208,3202,32,Bojongjengkol,43171,-7.0718743967088,106.7604777544
3202082005,320208,3202,32,Nangerang,43171,-7.119950101358,106.81155051017
3202082006,320208,3202,32,Tanjungsari,43171,-7.0171034305327,106.85255378514
3202082007,320208,3202,32,Sindangresmi,43171,-7.0282635570975,106.80534037258
3202082008,320208,3202,32,Panumbangan,43171,-7.0479243215527,106.82325591746
3202082009,320208,3202,32,Cijulang,43171,-7.0801744840405,106.81542376778
3202082010,320208,3202,32,Bantaragung,43171,-7.0941330322745,106.72508771637
3202082011,320208,3202,32,Bojongtipar,43171,-7.0617773513638,106.86255340075
3202092001,320209,3202,32,Warungkiara,43362,-6.9827998991897,106.71061195777
3202092002,320209,3202,32,Bojongkerta,43362,-6.9843318673936,106.7430639648
3202092003,320209,3202,32,Girijaya,43362,-6.9330420253616,106.73088056421
3202092004,320209,3202,32,Bantarkalong,43362,-7.0353848533548,106.71439408451
3202092005,320209,3202,32,Hegarmanah,43362,-7.0121730721007,106.68632187978
3202092006,320209,3202,32,Ubrug,43362,-6.9474427384187,106.7542641552
3202092007,320209,3202,32,Sirnajaya,43362,-6.999791153577,106.71856809008
3202092008,320209,3202,32,Sukaharja,43362,-6.9685980709484,106.73663271353
3202092009,320209,3202,32,Kertamukti,43362,-6.9992240276418,106.74311797922
3202092010,320209,3202,32,Mekarjaya,43362,-7.0317623395746,106.68276316373
3202092011,320209,3202,32,Damarraja,43362,-6.9550679807157,106.72758103585
3202092012,320209,3202,32,Tarisi,43362,-7.0021030612815,106.694818006
3202102001,320210,3202,32,Cikembar,43157,-6.9684197284268,106.79071256777
3202102002,320210,3202,32,Parakanlima,43157,-6.9980477576032,106.82784943844
3202102003,320210,3202,32,Bojong,43157,-6.9569661796524,106.83468039884
3202102004,320210,3202,32,Cimanggu,43157,-6.9670327903138,106.76541244525
3202102005,320210,3202,32,Bojongkembar,43157,-6.9647250727299,106.81331629205
3202102006,320210,3202,32,Sukamaju,43157,-7.003002746318,106.7546554388
3202102007,320210,3202,32,Cibatu,43157,-6.9974427909725,106.79218256136
3202102008,320210,3202,32,Kertaraharja,43157,-6.9840973780735,106.83711329598
3202102009,320210,3202,32,Sukamulya,43157,-6.9398106488031,106.77686320921
3202102010,320210,3202,32,Bojongraharja,43157,-6.9699536102137,106.83829294734
3202111001,320211,3202,32,Cibadak,43351,-6.8952012019092,106.78801929969
3202112002,320211,3202,32,Sekarwangi,43351,-6.9109713440589,106.78784830552
3202112003,320211,3202,32,Pamuruyan,43351,-6.8757897680048,106.75662651778
3202112004,320211,3202,32,Karangtengah,43351,-6.8968340851335,106.80840823913
3202112005,320211,3202,32,Neglasari,43351,-6.9052404709545,106.73288977708
3202112006,320211,3202,32,Warnajati,43351,-6.8934860264626,106.75985732617
3202112007,320211,3202,32,Tenjojaya,43351,-6.9156785065896,106.76628364102
3202112008,320211,3202,32,"Ciheulang Tonggoh",43351,-6.8862508592756,106.8253457425
3202112009,320211,3202,32,Sukasirna,43351,-6.8747480563532,106.72560029214
3202112010,320211,3202,32,Batununggal,43351,-6.904060175882,106.82661102854
3202122001,320212,3202,32,Kalaparea,43352,-6.8348198387158,106.86273190086
3202122002,320212,3202,32,Pawenang,43352,-6.8185904565568,106.86687680351
3202122003,320212,3202,32,"Nagrak Utara",43352,-6.8496593894171,106.80376094888
3202122004,320212,3202,32,Cisarua,43352,-6.8742975152445,106.78803987509
3202122009,320212,3202,32,Balekambang,43352,-6.8829113711729,106.80307723496
3202122010,320212,3202,32,"Babakan Panjang",43352,-6.8485159796522,106.83069505207
3202122011,320212,3202,32,Darmareja,43352,-6.8651049110584,106.83448547484
3202122012,320212,3202,32,Cihanyawar,43352,-6.8233150157027,106.83397750892
3202122013,320212,3202,32,"Nagrak Selatan",43352,-6.8669488745461,106.80614614311
3202122014,320212,3202,32,Girijaya,43352,-6.8602335695525,106.85087447678
3202132001,320213,3202,32,Parungkuda,43357,-6.8438219682597,106.75622024168
3202132002,320213,3202,32,"Palasari Hilir",43357,-6.8567233522616,106.73575246343
3202132003,320213,3202,32,Kompa,43357,-6.8153246220522,106.75656850658
3202132004,320213,3202,32,"Pondokkaso Landeuh",43357,-6.8141262675867,106.7695997837
3202132005,320213,3202,32,Sundawenang,43357,-6.8549999845912,106.75809806198
3202132006,320213,3202,32,Bojongkokosan,43357,-6.830702794894,106.76111934573
3202132007,320213,3202,32,Langesari,43357,-6.8298913084109,106.75015965972
3202132008,320213,3202,32,Babakanjaya,43357,-6.8055377909642,106.76112420884
3202142001,320214,3202,32,Bojonggenteng,43353,-6.8404819957375,106.72923804247
3202142002,320214,3202,32,Cibodas,43353,-6.8224584068235,106.74242404408
3202142003,320214,3202,32,Berekah,43353,-6.848354429962,106.70448254773
3202142004,320214,3202,32,Cipanengah,43353,-6.8080618669198,106.73929876059
3202142005,320214,3202,32,Bojonggaling,43353,-6.8318398849762,106.71221346648
3202152001,320215,3202,32,"Parakan Salak",43355,-6.7733629060559,106.70299760699
3202152002,320215,3202,32,"Bojong Longok",43355,-6.8214422282802,106.73106656211
3202152003,320215,3202,32,Sukakersa,43355,-6.7939666227168,106.69678651108
3202152004,320215,3202,32,Sukatani,43355,-6.8066218501832,106.69406337699
3202152005,320215,3202,32,Bojongasih,43355,-6.8115677942645,106.72206393679
3202152006,320215,3202,32,Lebaksari,43355,-6.7997349898775,106.72143468138
3202161001,320216,3202,32,Cicurug,43359,-6.7830018599227,106.78169093018
3202162002,320216,3202,32,Nyangkowek,43359,-6.8045739073566,106.77791248416
3202162003,320216,3202,32,Tenjolaya,43359,-6.7570153100989,106.76025223878
3202162004,320216,3202,32,Benda,43359,-6.7676917821892,106.8096414115
3202162005,320216,3202,32,Pasawahan,43359,-6.7463247281636,106.75977857551
3202162006,320216,3202,32,Cisaat,43359,-6.7493279305861,106.74544087339
3202162007,320216,3202,32,Purwasari,43359,-6.7920532677751,106.78670499569
3202162008,320216,3202,32,Caringin,43359,-6.782740803051,106.76817013423
3202162009,320216,3202,32,Tenjoayu,43359,-6.773991166124,106.79758384288
3202162010,320216,3202,32,Kutajaya,43359,-6.7507978559374,106.77377078858
3202162011,320216,3202,32,Mekarsari,43359,-6.7953884313014,106.77230507442
3202162012,320216,3202,32,Bangbayang,43359,-6.7809625195602,106.77508081783
3202162013,320216,3202,32,Nanggerang,43359,-6.7794818237027,106.82259483489
3202172001,320217,3202,32,"Pondokaso Tonggoh",43358,-6.794939961765,106.75556216247
3202172002,320217,3202,32,Babakanpari,43358,-6.789125343295,106.76113177315
3202172003,320217,3202,32,"Pondokaso Tengah",43358,-6.8017379373629,106.74439369438
3202172004,320217,3202,32,Cidahu,43358,-6.7513555426735,106.7175642339
3202172005,320217,3202,32,Tangkil,43358,-6.7766212704089,106.75037572089
3202172006,320217,3202,32,Jayabakti,43358,-6.7865200737799,106.73696268464
3202172007,320217,3202,32,Girijaya,43358,-6.7566491574703,106.73691013248
3202172008,320217,3202,32,Pasirdoton,43358,-6.7905374123061,106.74551610117
3202182001,320218,3202,32,Kalapanunggal,43354,-6.8351946460091,106.65690199354
3202182002,320218,3202,32,"Palasari Girang",43354,-6.8144175014553,106.66157845327
3202182003,320218,3202,32,Pulosari,43354,-6.7835690088357,106.66200710609
3202182004,320218,3202,32,Makasari,43354,-6.8311371820553,106.68186616237
3202182005,320218,3202,32,Kadununggal,43354,-6.8463655543697,106.67906127766
3202182006,320218,3202,32,"Walang Sari",43354,-6.8273294898455,106.64500884674
3202182007,320218,3202,32,Gunungendut,43354,-6.8148908172728,106.68443542001
3202192001,320219,3202,32,Kabandungan,43368,-6.7686397563042,106.64576666523
3202192002,320219,3202,32,Cipeuteuy,43368,-6.7585568691229,106.58086830617
3202192003,320219,3202,32,Cihamerang,43368,-6.7931016277592,106.56357974276
3202192004,320219,3202,32,Tugubandung,43368,-6.8114618408725,106.62645340294
3202192005,320219,3202,32,Mekarjaya,43368,-6.8100533863123,106.59063139291
3202192006,320219,3202,32,Cianaga,43368,-6.8321231311309,106.59628695098
3202202001,320220,3202,32,Waluran,43175,-7.227166133682,106.59679927025
3202202002,320220,3202,32,Sukamukti,43175,-7.2181522108787,106.62161488982
3202202003,320220,3202,32,Caringinnunggal,43175,-7.2666681708066,106.54495263892
3202202004,320220,3202,32,Mekarmukti,43175,-7.2389332939663,106.56490570938
3202202005,320220,3202,32,Mangunjaya,43175,-7.1810684877079,106.64245626312
3202202006,320220,3202,32,"Waluran Mandiri",43175,-7.1746391774854,106.61474752037
3202211001,320221,3202,32,"Jampangkulon ",43170,-7.2625013787749,106.62578549009
3202212002,320221,3202,32,Bojonggenteng,43170,-7.2954241438466,106.62165432546
3202212003,320221,3202,32,Cikarang,43170,-7.2323659146592,106.63607348233
3202212005,320221,3202,32,Bojongsari,43170,-7.3022359253815,106.6418514039
3202212007,320221,3202,32,Nagraksari,43170,-7.2769423827751,106.62148364543
3202212008,320221,3202,32,Mekarjaya,43170,-7.2812459811452,106.6498709976
3202212009,320221,3202,32,Tanjung,43170,-7.2494155415278,106.61411783158
3202212011,320221,3202,32,Ciparay,43170,-7.2934496237659,106.60851579707
3202212013,320221,3202,32,Padajaya,43170,-7.2591813201907,106.63796967145
3202212014,320221,3202,32,Karanganyar,43170,-7.1941411454658,106.65602334052
3202212016,320221,3202,32,Cikaranggeusan,43170,-7.2094376094238,106.66563675293
3202222001,320222,3202,32,Ciemas,43177,-7.1558733512484,106.5337435189
3202222002,320222,3202,32,Cibenda,43177,-7.2685670899014,106.50459020114
3202222003,320222,3202,32,Ciwaru,43177,-7.1917880544242,106.47819536184
3202222004,320222,3202,32,Mekarjaya,43177,-7.1885980772219,106.5522101993
3202222005,320222,3202,32,Girimukti,43177,-7.1366905118206,106.4898970233
3202222006,320222,3202,32,Tamanjaya,43177,-7.2272617028767,106.51709271258
3202222007,320222,3202,32,Mandrajaya,43177,-7.2231826031546,106.42904952495
3202222008,320222,3202,32,Sidamulya,43177,-7.2757640343107,106.42349645164
3202222009,320222,3202,32,Mekarsakti,43177,-7.2287752161097,106.48512142329
3202232001,320223,3202,32,Kalibunder,43185,-7.2382123393884,106.71793784285
3202232002,320223,3202,32,Bojong,43185,-7.2617062889428,106.75721050251
3202232003,320223,3202,32,Cimahpar,43185,-7.3057296392549,106.68714144324
3202232004,320223,3202,32,Sekarsari,43185,-7.2859899097673,106.71515568457
3202232005,320223,3202,32,Sukaluyu,43185,-7.2651908690008,106.73693481528
3202232006,320223,3202,32,Balekambang,43185,-7.2139852950187,106.73639309023
3202232007,320223,3202,32,Mekarwangi,43185,-7.2818247189431,106.68239631135
3202241013,320224,3202,32,"Surade ",43179,-7.336622622859,106.55850827919
3202242001,320224,3202,32,Jagamukti,43179,-7.3472301848761,106.5777102508
3202242002,320224,3202,32,Citanglar,43179,-7.3200515771046,106.57423442052
3202242003,320224,3202,32,Wanasari,43179,-7.2943538855539,106.58021755172
3202242005,320224,3202,32,Sirnasari,43179,-7.2688017487702,106.59087794842
3202242006,320224,3202,32,Kadaleman,43179,-7.3015830099801,106.55242903208
3202242007,320224,3202,32,Gunungsungging,43179,-7.3634512056488,106.57705733821
3202242008,320224,3202,32,Cipeundeuy,43179,-7.3927220123101,106.55364439081
3202242009,320224,3202,32,Pasiripis,43179,-7.3697601862685,106.52511155877
3202242010,320224,3202,32,Buniwangi,43179,-7.3806653539934,106.54114521886
3202242011,320224,3202,32,Sukatani,43179,-7.3933535850161,106.57411130485
3202242012,320224,3202,32,Kademangan,43179,-7.3396145994776,106.59315841689
3202252001,320225,3202,32,Talagamurni,43172,-7.3125612296251,106.60035639086
3202252002,320225,3202,32,Banyumurni,43172,-7.3173677033999,106.6152519773
3202252003,320225,3202,32,Cibitung,43172,-7.382113194076,106.6381798178
3202252004,320225,3202,32,Cidahu,43172,-7.3800219833974,106.60451510246
3202252005,320225,3202,32,Cibodas,43172,-7.3205745773921,106.63057254709
3202252006,320225,3202,32,Banyuwangi,43172,-7.3282130636071,106.66023876662
3202262001,320226,3202,32,Ciracap,43176,-7.3273215163397,106.51849922463
3202262002,320226,3202,32,Cikangkung,43176,-7.3471098742495,106.46153195746
3202262003,320226,3202,32,Gunungbatu,43176,-7.3118447677664,106.43098018107
3202262004,320226,3202,32,Purwasedar,43176,-7.3526058523415,106.49942496331
3202262005,320226,3202,32,Pasirpanjang,43176,-7.2993100199428,106.52671836796
3202262006,320226,3202,32,Mekarsari,43176,-7.3081769106394,106.47657976547
3202262007,320226,3202,32,"Ujung Genteng",43176,-7.3538141911839,106.42569139748
3202262008,320226,3202,32,Pangumbahan,43176,-7.3289224865922,106.41084337879
3202272001,320227,3202,32,Cikujang,43156,-6.9424060769493,106.89397563911
3202272002,320227,3202,32,Gunungguruh,43156,-6.9534217765284,106.8909861048
3202272003,320227,3202,32,Cibentang,43156,-6.9335926202968,106.89280147077
3202272004,320227,3202,32,Sirnaresmi,43156,-6.9693714590254,106.85824720417
3202272005,320227,3202,32,Kebonmanggu,43156,-6.9583188475342,106.86855222805
3202272006,320227,3202,32,Cibolang,43156,-6.9377997549179,106.87012599327
3202272007,320227,3202,32,Mangkalaya,43156,-6.9236758271253,106.88085577873
3202282001,320228,3202,32,Cicantayan,43155,-6.9261145558982,106.84668752056
3202282002,320228,3202,32,Lembursawah,43155,-6.9027735974265,106.83649137749
3202282003,320228,3202,32,Cijalingan,43155,-6.9003980253723,106.85105150022
3202282004,320228,3202,32,Cisande,43155,-6.9037715096349,106.8580302164
3202282005,320228,3202,32,Cimahi,43155,-6.9112389719466,106.85959586191
3202282006,320228,3202,32,Hegarmanah,43155,-6.924405458504,106.81954147489
3202282007,320228,3202,32,Sikadamai,43155,-6.9411195643896,106.84406013463
3202282008,320228,3202,32,Cimanggis,43155,-6.9289645965811,106.7983262969
3202292001,320229,3202,32,Gunungjaya,43152,-6.881995571179,106.9016904142
3202292002,320229,3202,32,Sukasari,43134,-6.892109200997,106.89595857727
3202292003,320229,3202,32,Sukamanah,43152,-6.9049789401429,106.89733027907
3202292004,320229,3202,32,Cisaat,43152,-6.9129311443562,106.8887977348
3202292005,320229,3202,32,Nagrak,43132,-6.9013557405215,106.88951227109
3202292006,320229,3202,32,Babakan,43152,-6.9240376344246,106.89275095104
3202292007,320229,3202,32,Sukamantri,43152,-6.9172904861773,106.8983272843
3202292008,320229,3202,32,Cibatu,43152,-6.9096293889991,106.88029884595
3202292009,320229,3202,32,Selajambe,43152,-6.8900177957173,106.88629247564
3202292010,320229,3202,32,Padaasih,43152,-6.9199506591055,106.86772755082
3202292011,320229,3202,32,"Cibolang Kaler",43152,-6.9015775317912,106.87346681007
3202292012,320229,3202,32,Kutasirna,43152,-6.8863776230675,106.87985122429
3202292013,320229,3202,32,Sukaresmi,43152,-6.8960645893603,106.90789021084
3202302001,320230,3202,32,Kadudampit,43153,-6.8694507326021,106.90951284299
3202302002,320230,3202,32,Citamiang,43153,-6.8738156777321,106.89377423386
3202302003,320230,3202,32,Muaradua,43153,-6.8692841255691,106.88558694319
3202302004,320230,3202,32,Gedepangrango,43153,-6.8085859881941,106.94186560038
3202302005,320230,3202,32,Sukamanis,43153,-6.8458995475481,106.91530996078
3202302006,320230,3202,32,Undrusbinangun,43153,-6.8406541819185,106.95014553578
3202302007,320230,3202,32,Cipetir,43153,-6.8301076505489,106.94883268511
3202302008,320230,3202,32,Sukamaju,43153,-6.8262623528925,106.94205979041
3202302009,320230,3202,32,Cikahuripan,43153,-6.8100211664578,106.92610290234
3202312001,320231,3202,32,"Caringin Wetan",43154,-6.8762211833919,106.87447632476
3202312002,320231,3202,32,Sukamulya,43154,-6.8280765286318,106.89904293777
3202312003,320231,3202,32,"Caringin Kulon",43154,-6.8779873392607,106.86414572865
3202312004,320231,3202,32,Seuseupan,43154,-6.8554364433484,106.8659085687
3202312005,320231,3202,32,Cijengkol,43154,-6.8864718228957,106.84331088634
3202312006,320231,3202,32,Mekarjaya,43154,-6.8887353194486,106.85467808268
3202312007,320231,3202,32,Talaga,43154,-6.8909725484975,106.86834109672
3202312008,320231,3202,32,Cikembang,43154,-6.8502283015573,106.87682792371
3202312009,320231,3202,32,"Pasir Datar Indah",43154,-6.8206122527301,106.91105247501
3202322001,320232,3202,32,Parungseah,43151,-6.8965954748506,106.92675600316
3202322002,320232,3202,32,Sundajayagirang,43151,-6.8449936463672,106.96835951093
3202322003,320232,3202,32,Karawang,43151,-6.8824090718367,106.93564197007
3202322004,320232,3202,32,Warnasari,43151,-6.8948453404636,106.93841111592
3202322005,320232,3202,32,Sukajaya,43151,-6.899538668512,106.94847768048
3202322006,320232,3202,32,Perbawati,43151,-6.8389773499272,106.96098395724
3202332001,320233,3202,32,Pasirhalang,43192,-6.9171288467998,106.97358632673
3202332002,320233,3202,32,Selaawi,43192,-6.8968929635009,106.98881071917
3202332003,320233,3202,32,Langensari,43192,-6.8654480103584,106.98360183722
3202332004,320233,3202,32,Sukaraja,43192,-6.9100498350635,106.96219126467
3202332005,320233,3202,32,Limbangan,43192,-6.8946065098439,106.97098366247
3202332006,320233,3202,32,Cisarua,43192,-6.8501785361876,106.97613225164
3202332007,320233,3202,32,Sukamekar,43192,-6.8815292876732,106.96149162865
3202332008,320233,3202,32,Selawangi,43192,-6.9239284171051,106.98368089785
3202332009,320233,3202,32,Margaluyu,43192,-6.8742881842157,106.99341184232
3202342001,320234,3202,32,Kebonpedes,43194,-6.9348417696161,106.97262133403
3202342002,320234,3202,32,Cikaret,43194,-6.9331741299671,106.96299691147
3202342003,320234,3202,32,Bojongsawah,43194,-6.9439560947488,106.98165265095
3202342004,320234,3202,32,Sasagaran,43194,-6.956436806343,106.95935824941
3202342005,320234,3202,32,Jambenenggang,43194,-6.9496295449136,106.9702548276
3202352001,320235,3202,32,Cireunghas,43193,-6.9445447784429,107.02131653374
3202352002,320235,3202,32,Cipurut,43193,-6.9378431354052,106.99487787291
3202352003,320235,3202,32,Bencoy,43193,-6.9424734988792,107.04448414154
3202352004,320235,3202,32,Cikurutug,43193,-6.92740917246,107.02513923325
3202352005,320235,3202,32,Tegalpanjang,43193,-6.9237756752631,107.00239505294
3202362001,320236,3202,32,Sukalarang,43191,-6.8645447111178,107.00413942683
3202362002,320236,3202,32,Sukamaju,43191,-6.8732333144167,106.99960879172
3202362003,320236,3202,32,Cimangkok,43191,-6.8850961277404,107.01770624059
3202362004,320236,3202,32,Titisan,43191,-6.8698569503391,107.02098999207
3202362005,320236,3202,32,Semplak,43191,-6.9121833889808,107.01609077568
3202362006,320236,3202,32,Prianganjaya,43191,-6.9023704851459,107.01761904819
3202372001,320237,3202,32,Pabuaran,43173,-7.2138352309975,106.82916361117
3202372002,320237,3202,32,Ciwalat,43173,-7.2153805676419,106.79089965146
3202372003,320237,3202,32,Sirnasari,43173,-7.1614180461569,106.79302478199
3202372004,320237,3202,32,Bantarsari,43173,-7.1689564924771,106.75001910228
3202372005,320237,3202,32,Sukajaya,43173,-7.2303913727335,106.7676927019
3202372006,320237,3202,32,Cibadak,43173,-7.1808501004486,106.82147645938
3202372007,320237,3202,32,"Lembur Sawah",43173,-7.1980472631483,106.80289940116
3202382001,320238,3202,32,Purabaya,43187,-7.0946966148349,106.87514706409
3202382002,320238,3202,32,Neglasari,43187,-7.1292151895324,106.85348981329
3202382003,320238,3202,32,Pagelaran,43187,-7.0925781847326,106.84828003662
3202382004,320238,3202,32,Cimerang,43187,-7.0487942178525,106.89137139754
3202382005,320238,3202,32,Citamiang,43187,-7.0772289233832,106.89923454702
3202382006,320238,3202,32,Margaluyu,43187,-7.0952238380347,106.91829926622
3202382007,320238,3202,32,Cicukang,43187,-7.1266112332332,106.91410994297
3202392001,320239,3202,32,Nyalindung,43196,-7.0365892809793,106.94697405275
3202392002,320239,3202,32,Neglasari,43196,-6.9782868459733,106.95721905859
3202392003,320239,3202,32,Sukamaju,43196,-7.0112462872473,106.88289549436
3202392004,320239,3202,32,Bojongkalong,43196,-6.9967886787006,106.93535579012
3202392005,320239,3202,32,Cijangkar,43196,-6.9994054227972,106.96111160951
3202392006,320239,3202,32,Mekarsari,43196,-7.0145272517969,106.95488584983
3202392007,320239,3202,32,Wangunreja,43196,-6.9832657038133,106.89646864593
3202392008,320239,3202,32,Cisitu,43196,-7.0642925726174,106.93003102606
3202392009,320239,3202,32,Bojongsari,43196,-7.0031754036605,106.91188701013
3202392010,320239,3202,32,Kertaangsana,43196,-7.0287753503053,106.9134308544
3202402001,320240,3202,32,Gegerbitung,43197,-6.9881245904276,107.02521477202
3202402002,320240,3202,32,Cijurey,43197,-6.9892616953817,106.99707402381
3202402003,320240,3202,32,Ciengang,43197,-7.0121673731019,106.99982545994
3202402004,320240,3202,32,Karangjaya,43197,-6.973306134567,106.98655085178
3202402005,320240,3202,32,Caringin,43154,-6.9653289927213,107.02588225849
3202402006,320240,3202,32,Sukamanah,43197,-7.0210940063571,107.0356018332
3202402007,320240,3202,32,Buniwangi,43197,-6.9582406971992,106.99136133109
3202412001,320241,3202,32,Sagaranten,43181,-7.2044169616023,106.88018118377
3202412002,320241,3202,32,Curugluhur,43181,-7.2297241807552,106.85485024788
3202412003,320241,3202,32,Cibaregbeg,43181,-7.1596429790075,106.88542656897
3202412004,320241,3202,32,Pasanggrahan,43181,-7.2304937360696,106.88739808123
3202412005,320241,3202,32,Datarnangka,43181,-7.2002074705178,106.84996076385
3202412006,320241,3202,32,Puncakmanggis,43181,-7.1468332073797,106.86294481549
3202412007,320241,3202,32,Hegarmanah,43181,-7.1774045161156,106.87622470945
3202412008,320241,3202,32,Gunungbentang,43181,-7.2307079191317,106.91023376833
3202412009,320241,3202,32,Sinarbentang,43181,-7.2370903892986,106.9266354677
3202412010,320241,3202,32,Cibitung,43181,-7.2015444686683,106.91056958522
3202412011,320241,3202,32,Margaluyu,43181,-7.1942591098557,106.89936890899
3202412012,320241,3202,32,Mekarsari,43181,-7.2481927910245,106.81917031471
3202422001,320242,3202,32,Curugkembar,43182,-7.2184111945729,106.94058912762
3202422002,320242,3202,32,Cimenteng,43182,-7.2091690988815,106.92351418407
3202422003,320242,3202,32,Tanjungsari,43182,-7.2099797241283,106.96540947583
3202422004,320242,3202,32,Sindangraja,43182,-7.1584123154263,106.94698109529
3202422005,320242,3202,32,Mekartanjung,43182,-7.2320099574104,106.96512027565
3202422006,320242,3202,32,Nagrakjaya,43182,-7.1798761326347,106.92190675384
3202422007,320242,3202,32,"Bojong Tugu",43182,-7.1905216542704,106.94464049658
3202432001,320243,3202,32,Cidolog,43184,-7.321044194595,106.82608962277
3202432002,320243,3202,32,Cipamingkis,43184,-7.2708440878031,106.85775398079
3202432003,320243,3202,32,Cikarang,43184,-7.2768144496337,106.89134045653
3202432004,320243,3202,32,Tegallega,43184,-7.2752454354027,106.83103751768
3202432005,320243,3202,32,Mekarjaya,43184,-7.3018573616875,106.85199797868
3202442001,320244,3202,32,Padasenang,43183,-7.2677389243122,106.94504317776
3202442002,320244,3202,32,Cidadap,43183,-7.2927449628995,106.94285367172
3202442003,320244,3202,32,Banjarsari,43183,-7.2467547697388,106.95116481944
3202442004,320244,3202,32,Hegarmulya,43183,-7.3223505460234,106.90273685443
3202442005,320244,3202,32,Tenjolaut,43183,-7.3392695894617,106.86739739135
3202442006,320244,3202,32,Mekartani,43183,-7.3089773623294,106.92889401277
3202452001,320245,3202,32,Tegalbuleud,43186,-7.4013345274998,106.75349151131
3202452002,320245,3202,32,Bangbayang,43186,-7.2849600637355,106.78177914877
3202452003,320245,3202,32,Sumberjaya,43186,-7.3806235239064,106.67597350748
3202452004,320245,3202,32,Calingcing,43186,-7.3851878755298,106.77485472966
3202452005,320245,3202,32,Nangela,43186,-7.3375259033336,106.70432814312
3202452006,320245,3202,32,Rambay,43186,-7.3441530997644,106.78766403787
3202452007,320245,3202,32,Buniasih,43186,-7.3993780071887,106.71553147716
3202452008,320245,3202,32,Sirnamekar,43186,-7.2919823772763,106.74759819334
3202462001,320246,3202,32,Cimanggu,43178,-7.250052112763,106.67146660001
3202462002,320246,3202,32,Sukamaju,43178,-7.2493425366042,106.68414779727
3202462003,320246,3202,32,Sukajadi,43178,-7.2073042560933,106.67744447644
3202462004,320246,3202,32,Karangmekar,43178,-7.239328120043,106.65091316429
3202462005,320246,3202,32,Boregahindah,43178,-7.2622805626734,106.65915019919
3202462006,320246,3202,32,Sukamanah,43178,-7.2344607190825,106.69773678295
3202472001,320247,3202,32,Ciambar,43356,-6.8203680264701,106.7831333931
3202472002,320247,3202,32,Ginanjar,43356,-6.8108872900287,106.82808945813
3202472003,320247,3202,32,Wangunjaya,43356,-6.7923469167774,106.85616976882
3202472004,320247,3202,32,Munjul,43356,-6.8449437932145,106.78629794185
3202472005,320247,3202,32,Ambarjaya,43356,-6.8032112895006,106.81057801477
3202472006,320247,3202,32,Cibunarjaya,43356,-6.8390735436158,106.76955528016
3203011006,320301,3203,32,Pamoyanan,43211,-6.8200883078103,107.13461772359
3203011007,320301,3203,32,Sawahgede,43212,-6.8278531659786,107.1302131232
3203011008,320301,3203,32,Bojongherang,43216,-6.8095145305629,107.13716145292
3203011009,320301,3203,32,Sayang,43213,-6.8291757696735,107.14381163054
3203011010,320301,3203,32,Solokpandan,43214,-6.818757694751,107.14558966296
3203011011,320301,3203,32,Muka,43215,-6.8100467271463,107.14691220208
3203012001,320301,3203,32,"Babakan Karet",43211,-6.7961655101571,107.13386818293
3203012002,320301,3203,32,Nagrak,43215,-6.833058430247,107.11215004751
3203012003,320301,3203,32,Sukamaju,43211,-6.8392902141783,107.14455163296
3203012004,320301,3203,32,Mekarsari,43211,-6.8125682439029,107.11885585089
3203012005,320301,3203,32,Limbangansari,43211,-6.8215824374254,107.12025110538
3203022002,320302,3203,32,Jambudipa,43260,-6.8688451479106,107.08545271446
3203022006,320302,3203,32,Cisarandi,43260,-6.8953053120785,107.096925967
3203022007,320302,3203,32,Cikaroya,43260,-6.8767953441294,107.10214397491
3203022008,320302,3203,32,Bunikasih,43260,-6.8253231715786,107.03710999521
3203022009,320302,3203,32,Ciwalen,43260,-6.8577580315057,107.09859008132
3203022010,320302,3203,32,Tegallega,43260,-6.8281657805836,107.02809121704
3203022011,320302,3203,32,Sukawangi,43260,-6.8467380332845,107.09208433207
3203022014,320302,3203,32,Bunisari,43260,-6.8595626997911,107.08299734637
3203022016,320302,3203,32,Sukamulya,43260,-6.8996446351057,107.10677154642
3203022017,320302,3203,32,Cieundeur,43260,-6.8716583358284,107.11119007219
3203022018,320302,3203,32,Mekarwangi,43260,-6.8465980951587,107.04528433895
3203032001,320303,3203,32,Cipetir,43262,-6.9322265853003,107.11249208781
3203032002,320303,3203,32,Cihaur,43262,-6.9371095419011,107.13547564387
3203032003,320303,3203,32,Cimanggu,43262,-6.9346568300879,107.15813847659
3203032004,320303,3203,32,Cibaregbeg,43262,-6.908405539724,107.17725476304
3203032005,320303,3203,32,Sukaraharja,43262,-6.9102773568912,107.14435058808
3203032006,320303,3203,32,Peuteuycondong,43262,-6.9026045703413,107.12309757145
3203032007,320303,3203,32,Mayak,43262,-6.9188247899587,107.12074829049
3203032008,320303,3203,32,Cikondang,43262,-6.943115309621,107.11491561294
3203032009,320303,3203,32,Cibokor,43262,-6.9528435374969,107.0757750726
3203032010,320303,3203,32,Selagedang,43262,-6.9765537077201,107.1459143244
3203032011,320303,3203,32,Karangnunggal,43262,-6.9332038522331,107.19897708861
3203032012,320303,3203,32,Kanoman,43262,-6.9253474628869,107.07733565642
3203032013,320303,3203,32,Sukamaju,43262,-6.9148247993657,107.15740095975
3203032014,320303,3203,32,Girimulya,43262,-6.9453812369266,107.18162927515
3203032015,320303,3203,32,Cisalak,43262,-6.9266416866902,107.13621047152
3203032016,320303,3203,32,Cibadak,43262,-6.952307573708,107.15730313453
3203032017,320303,3203,32,Sukamanah,43262,-6.9586519147931,107.13406002393
3203032018,320303,3203,32,Salamnunggal,43262,-6.8976194206055,107.20506249247
3203042001,320304,3203,32,Rancagoong,43285,-6.8435819788293,107.10978165248
3203042002,320304,3203,32,Sukasari,43285,-6.8795260201221,107.12621495683
3203042003,320304,3203,32,Sirnagalih,43285,-6.8566902842431,107.127430852
3203042004,320304,3203,32,Sukakerta,43285,-6.884979037231,107.1434646937
3203042005,320304,3203,32,Cibinonghilir,43285,-6.8620531248194,107.14872351568
3203042006,320304,3203,32,Rahong,43285,-6.8541885074194,107.17102552104
3203042007,320304,3203,32,Munjul,43285,-6.8441493089002,107.17620643503
3203042008,320304,3203,32,Sindangsari,43285,-6.8931591196374,107.16631730883
3203042009,320304,3203,32,Ciharashas,43285,-6.8620533467856,107.1642920266
3203042010,320304,3203,32,Mulyasari,43285,-6.8856109248408,107.18134105366
3203052001,320305,3203,32,Ciranjang,43282,-6.8175957924664,107.24887420792
3203052002,320305,3203,32,Sindangjaya,43282,-6.7841885314828,107.27195703704
3203052004,320305,3203,32,Cibiuk,43282,-6.8107054681223,107.26205414987
3203052005,320305,3203,32,Gunungsari,43282,-6.7965176196898,107.28926754015
3203052006,320305,3203,32,Karangwangi,43282,-6.8151581379238,107.27860714892
3203052007,320305,3203,32,Nanggalamekar,43282,-6.8393930160556,107.24710413206
3203052008,320305,3203,32,Kertajaya,43282,-6.787958686084,107.27864265893
3203052009,320305,3203,32,Sindangsari,43282,-6.7884267870321,107.26002350008
3203052012,320305,3203,32,Mekargalih,43282,-6.8271268018481,107.26058057636
3203062001,320306,3203,32,Hegarmanah,43283,-6.8317499082708,107.27350690126
3203062002,320306,3203,32,Bojongpicung,43283,-6.8545142785872,107.26324788735
3203062004,320306,3203,32,Cibarengkok,43283,-6.8735906217656,107.25432804794
3203062006,320306,3203,32,Kemang,43283,-6.9021382286221,107.27514905374
3203062007,320306,3203,32,Sukajaya,43283,-6.8916024136833,107.22302662113
3203062008,320306,3203,32,Jati,43283,-6.8572604348561,107.24492910988
3203062009,320306,3203,32,Cikondang,43283,-6.8773709258927,107.22313727852
3203062010,320306,3203,32,Sukarama,43283,-6.9210164511882,107.22668479176
3203062012,320306,3203,32,Sukaratu,43283,-6.8655138657165,107.27898964784
3203062013,320306,3203,32,Neglasari,43283,-6.8447089030841,107.27983170881
3203062014,320306,3203,32,Jatisari,43283,-6.8862696974435,107.24039919039
3203072001,320307,3203,32,Sukamanah,43281,-6.830121549025,107.15938532005
3203072002,320307,3203,32,Bojong,43281,-6.8024451141258,107.16807589717
3203072003,320307,3203,32,Sindanglaka,43281,-6.7841496010385,107.17222968779
3203072004,320307,3203,32,Maleber,43281,-6.8218913853568,107.1754618529
3203072005,320307,3203,32,Ciherang,43281,-6.7920873733347,107.21395111747
3203072006,320307,3203,32,Sukamantri,43281,-6.7873362463452,107.19137031757
3203072007,320307,3203,32,Sukasarana,43281,-6.7848377896302,107.21006989331
3203072008,320307,3203,32,Sukasari,43281,-6.8241422081068,107.1899393653
3203072009,320307,3203,32,Babakancaringin,43281,-6.8091590402685,107.20614401049
3203072010,320307,3203,32,Sabandar,43281,-6.8131996957476,107.16049526957
3203072011,320307,3203,32,Sindangasih,43281,-6.8314388726516,107.1735353124
3203072012,320307,3203,32,Sukataris,43281,-6.7973337203334,107.15563542058
3203072013,320307,3203,32,Langensari,43281,-6.8404832697069,107.19433440222
3203072014,320307,3203,32,Hegarmanah,43281,-6.8076883462701,107.18499132861
3203072015,320307,3203,32,Sukajadi,43281,-6.7690640584595,107.23673313956
3203072016,320307,3203,32,Sukamulya,43281,-6.7914445666984,107.1798430762
3203082001,320308,3203,32,Kademangan,43292,-6.773293847967,107.19632241018
3203082002,320308,3203,32,Bobojong,43292,-6.7597150372274,107.24455466643
3203082003,320308,3203,32,Jamali,43292,-6.7517810793543,107.19902205687
3203082004,320308,3203,32,Cikidangbayabang,43292,-6.7612943960557,107.26849144158
3203082005,320308,3203,32,Mande,43292,-6.7335044134772,107.26355241518
3203082006,320308,3203,32,Mulyasari,43292,-6.754521919258,107.21963448163
3203082007,320308,3203,32,Ciandam,43292,-6.7449180774015,107.17167755458
3203082008,320308,3203,32,Sukamanah,43292,-6.7669592550693,107.17001685127
3203082009,320308,3203,32,Leuwikoja,43292,-6.7761050257011,107.15151234439
3203082010,320308,3203,32,Mekarjaya,43292,-6.7735494149128,107.12538262173
3203082011,320308,3203,32,Kutawaringin,43292,-6.7540504770925,107.13030893832
3203082012,320308,3203,32,Murnisari,43292,-6.7494206770442,107.24240774026
3203092001,320309,3203,32,Selajambe,43287,-6.8085891011915,107.22038066655
3203092002,320309,3203,32,Sukamulya,43287,-6.8411888166688,107.22952094967
3203092003,320309,3203,32,Panyusuhan,43287,-6.871129539367,107.20268710224
3203092004,320309,3203,32,Tanjungsari,43287,-6.8225519342895,107.21485185239
3203092005,320309,3203,32,Sindangraja,43287,-6.778806346407,107.24611216782
3203092006,320309,3203,32,Mekarjaya,43287,-6.8697221829653,107.18595048314
3203092007,320309,3203,32,Sukasirna,43287,-6.7965076184833,107.23152419499
3203092008,320309,3203,32,Sukaluyu,43287,-6.8569572539458,107.21055045325
3203092009,320309,3203,32,Babakansari,43287,-6.8371572503443,107.21269464994
3203092010,320309,3203,32,Hegarmanah,43287,-6.8037486384349,107.24227525647
3203102001,320310,3203,32,Ciherang,43253,-6.7660237883261,107.03087165593
3203102003,320310,3203,32,Cibodas,43253,-6.729473540091,107.06242608622
3203102005,320310,3203,32,Sukanagalih,43253,-6.7006932337375,107.05238839647
3203102007,320310,3203,32,Cipendawa,43253,-6.7552188685528,107.03204190717
3203102010,320310,3203,32,Ciputri,43281,-6.7721672241776,107.04240652054
3203102012,320310,3203,32,Gadog,43253,-6.7325456489783,107.04977774449
3203102013,320310,3203,32,Sukatani,43253,-6.7487688315738,107.02295159779
3203112001,320311,3203,32,Sukamanah,43252,-6.805485795314,107.11116615063
3203112002,320311,3203,32,Gasol,43252,-6.8114739592574,107.09778628325
3203112003,320311,3203,32,Cijedil,43252,-6.7899107636015,107.08865901558
3203112004,320311,3203,32,Cibeureum,43252,-6.78438811772,107.06692097986
3203112005,320311,3203,32,Nyalindung,43252,-6.7924121557795,107.06150819463
3203112006,320311,3203,32,Mangunkerta,43252,-6.800103554563,107.06914752468
3203112007,320311,3203,32,Sarampad,43252,-6.8075338067423,107.05973957089
3203112008,320311,3203,32,Talaga,43252,-6.8175133809393,107.06796804581
3203112009,320311,3203,32,Sukajaya,43252,-6.8389435937744,107.08300226626
3203112010,320311,3203,32,Cibulakan,43252,-6.8245594896029,107.09658934947
3203112011,320311,3203,32,Benjot,43252,-6.8177518277621,107.08856955669
3203112012,320311,3203,32,Sukamulya,43252,-6.7929101029893,107.02610535375
3203112013,320311,3203,32,Wangunjaya,43252,-6.7802553997851,107.10386901128
3203112014,320311,3203,32,Cirumput,43252,-6.8199028914161,107.05697243234
3203112015,320311,3203,32,Padaluyu,43252,-6.8209708408578,107.04338551667
3203112016,320311,3203,32,Galudra,43252,-6.780466766331,107.03155568601
3203122001,320312,3203,32,Sukagalih,43291,-6.7168643283453,107.21269688509
3203122002,320312,3203,32,Gudang,43291,-6.7211174521833,107.23544797137
3203122003,320312,3203,32,Cinangsi,43291,-6.7298006916602,107.20271131113
3203122004,320312,3203,32,Cijagang,43291,-6.6895949635393,107.17487768002
3203122005,320312,3203,32,Majalaya,43291,-6.7056667066946,107.16507321873
3203122006,320312,3203,32,Kamurang,43291,-6.7133172388081,107.26932029684
3203122007,320312,3203,32,Warudoyong,43291,-6.7024802099189,107.23678285957
3203122008,320312,3203,32,Ciramagirang,43291,-6.6717740111505,107.24355065057
3203122009,320312,3203,32,Mekarjaya,43291,-6.674865023227,107.15825872324
3203122010,320312,3203,32,Sukamulya,43291,-6.6857430715841,107.1930586692
3203122011,320312,3203,32,Padajaya,43291,-6.7243240754126,107.17620980391
3203122012,320312,3203,32,Cigunungherang,43291,-6.634491575747,107.24047781367
3203122013,320312,3203,32,Neglasari,43291,-6.6963429599003,107.21925653162
3203122014,320312,3203,32,Mekargalih,43291,-6.6734773250421,107.20484391475
3203122015,320312,3203,32,Lembahsari,43291,-6.6969883620942,107.22908937525
3203122016,320312,3203,32,Mentengsari,43291,-6.7312563865313,107.22200481217
3203122017,320312,3203,32,Mekarsari,43291,-6.6574576489784,107.17384206917
3203122018,320312,3203,32,Mekarmulya,43291,-6.6597424380102,107.22446905237
3203132001,320313,3203,32,Cikanyere,43254,-6.7386723130533,107.09516123882
3203132002,320313,3203,32,Cikancana,43254,-6.708550072366,107.13944567118
3203132003,320313,3203,32,Ciwalen,43254,-6.7103535946471,107.08420530851
3203132004,320313,3203,32,Kawungluwuk,43254,-6.7234163352779,107.07984699958
3203132005,320313,3203,32,Cibadak,43254,-6.7052614314409,107.06308273406
3203132006,320313,3203,32,Sukamahi,43254,-6.6880983802434,107.12746330292
3203132007,320313,3203,32,Sukaresmi,43254,-6.7319838032741,107.12700541604
3203132008,320313,3203,32,Cibanteng,43254,-6.6816318255511,107.08302689519
3203132009,320313,3203,32,Kubang,43254,-6.6877373214352,107.10815726731
3203132010,320313,3203,32,Pakuon,43254,-6.75024392496,107.07639303873
3203132011,320313,3203,32,Rawabelut,43254,-6.6763855423693,107.05966577268
3203142001,320314,3203,32,Sukanagara,43264,-7.0922726377271,107.12599881246
3203142002,320314,3203,32,Sukajembar,43264,-7.0595555721388,107.06165303344
3203142003,320314,3203,32,Sukakarya,43264,-7.1490187627295,107.08232146542
3203142004,320314,3203,32,Ciguha,43264,-7.1150344663988,107.05342652899
3203142005,320314,3203,32,Sukamekar,43264,-7.0694607962287,107.13264046667
3203142006,320314,3203,32,Gunungsari,43264,-7.1021299415178,107.08497331044
3203142007,320314,3203,32,Sukalaksana,43264,-7.113073536486,107.13727251766
3203142008,320314,3203,32,Sukarame,43264,-7.1378987209427,107.11718704166
3203142009,320314,3203,32,Sindangsari,43264,-7.0676360752706,107.03775246379
3203142010,320314,3203,32,Jayagiri,43264,-7.1276840947706,107.03166071012
3203152001,320315,3203,32,Cidadap,43263,-7.0145651389519,107.15349808954
3203152002,320315,3203,32,Cimenteng,43263,-6.9728900390273,107.05550480748
3203152003,320315,3203,32,Susukan,43263,-6.961743583764,107.12054486712
3203152004,320315,3203,32,Sukajadi,43263,-6.9969170882186,107.15163657996
3203152005,320315,3203,32,Sukadana,43263,-7.0017948485996,107.10740649826
3203152006,320315,3203,32,Margaluyu,43263,-6.9803933931555,107.175390907
3203152007,320315,3203,32,Karyamukti,43263,-6.9980149119364,107.07080788645
3203152008,320315,3203,32,Campaka,43263,-7.0320964809852,107.12221449209
3203152009,320315,3203,32,Wangunjaya,43263,-7.0351906084975,107.08416782242
3203152010,320315,3203,32,Girimukti,43263,-6.9696851351801,107.10788732212
3203152011,320315,3203,32,Mekarjaya,43263,-7.027199472462,107.17298300213
3203162001,320316,3203,32,Pasawahan,43265,-7.0526668994112,107.00726315843
3203162002,320316,3203,32,Sindangresmi,43265,-7.0878740337508,106.96332042128
3203162003,320316,3203,32,Sindanghayu,43265,-7.1225712059536,106.9630188108
3203162004,320316,3203,32,Simpang,43265,-7.1361701305083,107.00470188709
3203162005,320316,3203,32,Sukagalih,43265,-7.1619873216022,106.98245964515
3203162006,320316,3203,32,Bungbangsari,43265,-7.0746003951434,106.98345661611
3203162007,320316,3203,32,Cisujen,43265,-7.0981915430418,107.01869816571
3203162008,320316,3203,32,Hegarmanah,43265,-7.0337187003121,106.97872054057
3203162009,320316,3203,32,Waringinsari,43265,-7.1944664008647,106.98388586171
3203172003,320317,3203,32,Sukasari,43268,-7.1969222035423,107.04099509373
3203172006,320317,3203,32,Pasirdalem,43268,-7.2370268250041,107.06894580871
3203172008,320317,3203,32,Talagasari,43268,-7.2464617602656,107.02431078023
3203172009,320317,3203,32,Bojongkasih,43268,-7.2276235820088,107.0335675621
3203172010,320317,3203,32,Wargaasih,43268,-7.1834201871827,107.02062674533
3203172011,320317,3203,32,Sukaraharja,43268,-7.2306491067639,106.988748172
3203172014,320317,3203,32,Sukakerta,43268,-7.2578853913613,106.98108420134
3203172016,320317,3203,32,Neglasari,43268,-7.2338712653541,107.01155286892
3203172017,320317,3203,32,Sukaresmi,43268,-7.1622281185933,107.04051824204
3203172019,320317,3203,32,Wargasari,43268,-7.2042603734406,107.01082963455
3203172020,320317,3203,32,Sukaraja,43268,-7.2442078487339,107.04984625517
3203172021,320317,3203,32,Kadupandak,43268,-7.2579930494057,107.04779863952
3203172022,320317,3203,32,Gandasari,43268,-7.2130334588426,107.05477193698
3203172023,320317,3203,32,Sindangsari,43268,-7.2303299975099,107.04717173169
3203182001,320318,3203,32,Pagelaran,43266,-7.2112549785789,107.15023125743
3203182002,320318,3203,32,Pangadegan,43266,-7.1590135257564,107.15964199989
3203182004,320318,3203,32,Gelaranyar,43266,-7.1892959569491,107.09377109224
3203182005,320318,3203,32,Buniwangi,43266,-7.1625143084033,107.21538675834
3203182007,320318,3203,32,Sindangkerta,43266,-7.182577451774,107.13782182995
3203182008,320318,3203,32,Pasirbaru,43266,-7.1559316265982,107.14017493775
3203182009,320318,3203,32,Bunijaya,43266,-7.1321031193383,107.24996719005
3203182010,320318,3203,32,Situhiang,43266,-7.120598895046,107.21252827941
3203182011,320318,3203,32,Mekarsari,43266,-7.1869734034232,107.06991358422
3203182012,320318,3203,32,Kertaraharja,43266,-7.2051343756454,107.12888373256
3203182013,320318,3203,32,Selagedang,43266,-7.1784141008506,107.10821656692
3203182014,320318,3203,32,Padamaju,43266,-7.1967439062514,107.16437505172
3203182015,320318,3203,32,Karangharja,43266,-7.1823126855741,107.12168248713
3203182018,320318,3203,32,Sukamaju,43266,-7.2166537250138,107.09406902865
3203192001,320319,3203,32,Tanggeung,43267,-7.2715706096102,107.12140272801
3203192002,320319,3203,32,Rawagede,43267,-7.2729466458077,107.09279941254
3203192003,320319,3203,32,Cilongsong,43267,-7.2538145034062,107.1321344477
3203192004,320319,3203,32,Margaluyu,43267,-7.2624432571036,107.10870467101
3203192005,320319,3203,32,Karangtengah,43267,-7.2723133481249,107.08189171399
3203192006,320319,3203,32,Pagermaneuh,43267,-7.2455182637239,107.09009706498
3203192007,320319,3203,32,Bojongpetir,43267,-7.2301612724655,107.1171850446
3203192009,320319,3203,32,Pasirjambu,43267,-7.2509393853519,107.16336197074
3203192010,320319,3203,32,Sirnajaya,43267,-7.275245601104,107.14981238882
3203192013,320319,3203,32,Kertajaya,43267,-7.2836691340341,107.13373470147
3203192014,320319,3203,32,Sukajaya,43267,-7.2800765974254,107.10675556469
3203192015,320319,3203,32,Padaluyu,43267,-7.2334556082967,107.13451822611
3203202001,320320,3203,32,Pananggapan,43271,-7.3128810469057,107.08805036688
3203202002,320320,3203,32,Cikangkareng,43271,-7.3427576757615,107.17638145173
3203202003,320320,3203,32,Sukajadi,43271,-7.3242216312003,107.12830479336
3203202004,320320,3203,32,Panyindangan,43271,-7.4010632163228,107.1034643041
3203202005,320320,3203,32,Padasuka,43271,-7.2441077661048,107.23287523802
3203202006,320320,3203,32,Cimaskara,43271,-7.2730795812681,107.2037718978
3203202007,320320,3203,32,Pamoyanan,43271,-7.3046105570282,107.18700811219
3203202008,320320,3203,32,Batulawang,43271,-7.3751303413036,107.14458895775
3203202009,320320,3203,32,Sukamekar,43271,-7.3186959864887,107.15437636055
3203202010,320320,3203,32,Hamerang,43271,-7.3567725827234,107.07321726085
3203202011,320320,3203,32,Girijaya,43271,-7.3239058420907,107.10785429775
3203202012,320320,3203,32,Wargaluyu,43271,-7.3817359085908,107.07229901091
3203202013,320320,3203,32,Mekarmukti,43271,-7.2251563728056,107.27089317229
3203202014,320320,3203,32,Ciburial,43271,-7.3488011601569,107.09393257
3203212001,320321,3203,32,Saganten,43272,-7.4510380635123,107.14590548822
3203212002,320321,3203,32,Muaracikadu,43272,-7.4222827379827,107.18016399443
3203212003,320321,3203,32,Jatisari,43272,-7.4104818265896,107.02186785601
3203212004,320321,3203,32,Sirnagalih,43272,-7.4287458407412,107.12615430759
3203212005,320321,3203,32,Jayagiri,43272,-7.4604152411033,107.19425400129
3203212006,320321,3203,32,Kertasari,43272,-7.4165498308522,107.06709555291
3203212007,320321,3203,32,Girimukti,43272,-7.3956030712127,107.16696602763
3203212008,320321,3203,32,Talagasari,43272,-7.44599273686,107.08955394926
3203212009,320321,3203,32,Hegarsari,43272,-7.4408496737008,107.01769410925
3203212010,320321,3203,32,Mekarlaksana,43272,-7.4539688305133,107.16745563748
3203212011,320321,3203,32,Kertamukti,43272,-7.4396388973847,107.05365631074
3203222004,320322,3203,32,Sukamanah,43276,-7.3817151821362,106.90511015164
3203222005,320322,3203,32,Bojongkaso,43276,-7.377157591082,106.84294587473
3203222006,320322,3203,32,Bunisari,43276,-7.3391055515174,106.94321341084
3203222007,320322,3203,32,Wanasari,43276,-7.4151512321541,106.96939583809
3203222010,320322,3203,32,Sinarlaut,43276,-7.4161217335344,106.83586521846
3203222014,320322,3203,32,Neglasari,43276,-7.3614080630198,106.95142273899
3203222016,320322,3203,32,Karangsari,43276,-7.3884430491024,106.94947247348
3203222017,320322,3203,32,Mulyasari,43276,-7.350766973521,106.91030828747
3203222018,320322,3203,32,"Tanjung Sari",43276,-7.4289202950643,106.95396275808
3203222019,320322,3203,32,Mekarsari,43276,-7.4137054563949,106.89380933654
3203222022,320322,3203,32,Wangunjaya,43276,-7.4109924720652,106.79844749696
3203232001,320323,3203,32,Cidamar,43275,-7.4843579857911,107.37183490681
3203232002,320323,3203,32,Cibuluh,43275,-7.3572803970878,107.45504486253
3203232003,320323,3203,32,Cisalak,43275,-7.471900081546,107.26155776586
3203232004,320323,3203,32,Cimaragang,43275,-7.4281551275927,107.41335274008
3203232005,320323,3203,32,Mekarjaya,43275,-7.2896060522016,107.43216911409
3203232006,320323,3203,32,Kertajadi,43275,-7.4683878688752,107.32406198881
3203232007,320323,3203,32,Sukapura,43275,-7.4705629135699,107.22973891042
3203232008,320323,3203,32,Gelarpawitan,43275,-7.3756116281143,107.40557656815
3203232009,320323,3203,32,Karangwangi,43275,-7.4733430753027,107.40452520069
3203232010,320323,3203,32,Karyabakti,43275,-7.446482117846,107.2365598887
3203232011,320323,3203,32,Jayapura,43275,-7.4693904117168,107.28178870778
3203232012,320323,3203,32,Neglasari,43275,-7.3935716926993,107.45309900918
3203232013,320323,3203,32,Puncakbaru,43275,-7.3303111303233,107.446521158
3203232014,320323,3203,32,Gelarwangi,43275,-7.2655279693092,107.45326023849
3203242001,320324,3203,32,Naringgul,43274,-7.3432880258721,107.32776211252
3203242002,320324,3203,32,Balegede,43274,-7.2600079854486,107.35719450922
3203242003,320324,3203,32,Wangunjaya,43274,-7.4223626104111,107.32270284447
3203242004,320324,3203,32,Mekarsari,43274,-7.3784657165478,107.37466015541
3203242005,320324,3203,32,Cinerang,43274,-7.4108732082621,107.27288963143
3203242006,320324,3203,32,Wanasari,43274,-7.30488161112,107.3260664258
3203242007,320324,3203,32,Sukabakti,43274,-7.2891866980275,107.36552932824
3203242008,320324,3203,32,Malati,43274,-7.3821490274539,107.3152118328
3203242009,320324,3203,32,Wangunsari,43274,-7.3250319137055,107.37067220674
3203242010,320324,3203,32,Sukamulya,43274,-7.3423542150248,107.29242138618
3203242011,320324,3203,32,Margasari,43274,-7.4305780067102,107.25025103523
3203252001,320325,3203,32,Cibanggala,43269,-7.0838741632249,107.21306265073
3203252002,320325,3203,32,Campakawarna,43269,-7.0510570878745,107.1647162915
3203252003,320325,3203,32,Sukasirna,43269,-7.0766558576003,107.24744552399
3203252004,320325,3203,32,Campakamulya,43269,-7.081025950096,107.17538636083
3203252005,320325,3203,32,Sukabungah,43269,-7.0890447166178,107.19623484384
3203262001,320326,3203,32,Kalapanunggal,43286,-7.3411243998219,107.20990031247
3203262002,320326,3203,32,Cikadu,43286,-7.3431945377013,107.24375727541
3203262003,320326,3203,32,Mekarwangi,43286,-7.2909596837055,107.22008490308
3203262004,320326,3203,32,Padaluyu,43286,-7.379693489816,107.20584407726
3203262005,320326,3203,32,Sukamulya,43286,-7.2565145034647,107.29402010691
3203262006,320326,3203,32,Cisaranten,43286,-7.294378381698,107.26693481629
3203262007,320326,3203,32,Mekarlaksana,43286,-7.3429323647829,107.26770162201
3203262008,320326,3203,32,Sukaluyu,43286,-7.4058057352317,107.22046160575
3203262009,320326,3203,32,Mekarjaya,43286,-7.312201674835,107.2110995361
3203262010,320326,3203,32,Sukamanah,43286,-7.2297743644674,107.30051352125
3203272001,320327,3203,32,Bangbayang,43261,-6.8735536765438,107.07403512619
3203272002,320327,3203,32,Songgom,43261,-6.8656567130994,107.06266515389
3203272003,320327,3203,32,Sukaratu,43261,-6.8832972112017,107.05605399615
3203272004,320327,3203,32,Cikancana,43261,-6.8864669377383,107.08304966119
3203272005,320327,3203,32,Kebonpeuteuy,43261,-6.8399602820215,107.02419412955
3203272006,320327,3203,32,Gekbrong,43261,-6.8484508911242,107.01745833281
3203272007,320327,3203,32,Cikahuripan,43261,-6.8815123519117,107.03807210834
3203272008,320327,3203,32,Cintaasih,43261,-6.901739230569,107.06882939373
3203282001,320328,3203,32,Cipanas,43253,-6.736469724454,107.03786229292
3203282002,320328,3203,32,Cimacan,43253,-6.744238833893,106.9943315066
3203282003,320328,3203,32,Ciloto,43253,-6.7125567008655,107.00370950678
3203282004,320328,3203,32,Sindanglaya,43253,-6.7242835827246,107.0428532297
3203282005,320328,3203,32,Batulawang,43253,-6.6809309097495,107.02498868029
3203282006,320328,3203,32,Palasari,43253,-6.7112785988353,107.03327473329
3203282007,320328,3203,32,Sindangjaya,43253,-6.7548813382157,107.00323920894
3203292001,320329,3203,32,Parakantugu,43284,-7.2632696172066,107.06111293446
3203292002,320329,3203,32,Cijati,43284,-7.2662186126588,107.03005535187
3203292003,320329,3203,32,Bojonglarang,43284,-7.2650284194496,107.0017329402
3203292004,320329,3203,32,Padaasih,43284,-7.2946727162439,106.9910425163
3203292005,320329,3203,32,Cibodas,43284,-7.277291526353,107.04060980245
3203292006,320329,3203,32,Sukamahi,43284,-7.2756563278812,107.02133001786
3203292007,320329,3203,32,Sukaluyu,43284,-7.2828393855875,107.00814804499
3203292008,320329,3203,32,Caringin,43284,-7.2761798063283,107.06614356458
3203292009,320329,3203,32,Sinarbakti,43284,-7.2793924805465,106.98370774698
3203292010,320329,3203,32,Sukamaju,43284,-7.312309929182,106.97743234298
3203302001,320330,3203,32,Pusakasari,43273,-7.3670186614078,106.97896983158
3203302002,320330,3203,32,Walahir,43273,-7.3162353229498,107.04542079586
3203302003,320330,3203,32,Purabaya,43273,-7.3449769261949,107.01345018724
3203302004,320330,3203,32,Puncakwangi,43273,-7.2988772968887,107.06659788026
3203302005,320330,3203,32,Sukajaya,43273,-7.333866935487,106.9795145947
3203302006,320330,3203,32,Nagasari,43273,-7.3775492064499,106.96711529074
3203302007,320330,3203,32,Sukasirna,43273,-7.3576127674152,107.03894820258
3203302008,320330,3203,32,Sukamulya,43273,-7.3589506330424,106.99728820554
3203302009,320330,3203,32,Sirnasari,43273,-7.3127903848423,107.01876589965
3203302010,320330,3203,32,Karyamukti,43273,-7.382990908387,107.00957256769
3203302011,320330,3203,32,Mandalawangi,43273,-7.3298744675131,107.06418992186
3203302012,320330,3203,32,Sindangsari,43273,-7.393194142363,106.97458255101
3203312001,320331,3203,32,Haurwangi,43280,-6.8323875454301,107.3129871839
3203312002,320331,3203,32,Cihea,43280,-6.8703131407328,107.31900283699
3203312003,320331,3203,32,Ramasari,43280,-6.8344304872246,107.29537434788
3203312004,320331,3203,32,Mekarwangi/Sukatani,43280,-6.8476235338277,107.3027803892
3203312005,320331,3203,32,Mekarwangi,43280,-6.8227408327297,107.29003858096
3203312006,320331,3203,32,Kertasari,43280,-6.8183672150334,107.30796119119
3203312007,320331,3203,32,Cipeuyeum,43280,-6.8114239971052,107.29184223094
3203312008,320331,3203,32,Kertamukti,43280,-6.8052340549188,107.30406167858
3203322001,320332,3203,32,Simpang,43266,-7.2041476514965,107.18093023533
3203322002,320332,3203,32,Kalibaru,43266,-7.2210702291334,107.18817405431
3203322003,320332,3203,32,Pusakajaya,43266,-7.1990727543133,107.20842040225
3203322004,320332,3203,32,Kubang,43267,-7.2384627772276,107.16025487407
3203322005,320332,3203,32,Girimukti,43267,-7.2095673163003,107.24435573233
3203322006,320332,3203,32,Karangjaya,43266,-7.1671159252026,107.26306547945
3203322007,320332,3203,32,Mekarmulya,43267,-7.2265217457133,107.15517859471
3203322008,320332,3203,32,Girijaya,43267,-7.2616091769949,107.18157090415
3203322009,320332,3203,32,Padamulya,43267,-7.2317824263855,107.20846730746
3204052001,320405,3204,32,"Cileunyi Kulon",40621,-6.9442249590462,107.73996053117
3204052002,320405,3204,32,"Cileunyi Wetan",40622,-6.9326660983727,107.74947436698
3204052003,320405,3204,32,Cimekar,40623,-6.9361507163333,107.73807406465
3204052004,320405,3204,32,Cinunuk,40624,-6.931951972523,107.73288572403
3204052005,320405,3204,32,"Cibiru Hilir",40626,-6.9552820592956,107.71605576323
3204052006,320405,3204,32,"Cibiru Wetan",40625,-6.90834947082,107.73725613051
3204061001,320406,3204,32,Padasuka,40191,-6.8871723672818,107.65557827391
3204061002,320406,3204,32,Cibeunying,40191,-6.8805553950796,107.64192346419
3204062003,320406,3204,32,Cimenyan,40197,-6.8586906437202,107.66931596027
3204062004,320406,3204,32,Mandalamekar,40193,-6.8738119703386,107.67352139529
3204062005,320406,3204,32,Cikadut,40191,-6.8816171768109,107.67960513217
3204062006,320406,3204,32,Ciburial,40198,-6.8495763473971,107.64959345274
3204062007,320406,3204,32,Sindanglaya,40195,-6.8843577222531,107.68950596
3204062008,320406,3204,32,Mekarsaluyu,40198,-6.8614263161433,107.65027548508
3204062009,320406,3204,32,Mekarmanik,40196,-6.8534678773462,107.69465311399
3204072001,320407,3204,32,Jatiendah,40616,-6.9011541901484,107.69828687452
3204072002,320407,3204,32,Cilengkrang,40615,-6.8907098611582,107.73384400768
3204072003,320407,3204,32,Cipanjalu,40618,-6.8498068429858,107.72836023157
3204072004,320407,3204,32,Melatiwangi,40618,-6.8819901252651,107.70636816083
3204072005,320407,3204,32,Ciporeat,40617,-6.87838912807,107.72757342313
3204072006,320407,3204,32,Girimekar,40619,-6.8712552427349,107.70453036078
3204082001,320408,3204,32,Lengkong,40287,-6.9802710979722,107.65155224541
3204082002,320408,3204,32,Bojongsoang,40288,-6.9880902593484,107.64293453591
3204082003,320408,3204,32,Buahbatu,40287,-6.9808627146794,107.67041277834
3204082004,320408,3204,32,Cipagalo,40287,-6.9703959129667,107.65279895828
3204082005,320408,3204,32,Bojongsari,40288,-6.9999100310268,107.65162114999
3204082006,320408,3204,32,Tegalluar,40287,-6.9796525885797,107.68993032816
3204091004,320409,3204,32,Sulaiman,40229,-6.9852130575081,107.57358909905
3204092001,320409,3204,32,"Margahayu Tengah",40225,-6.960345674856,107.57176216933
3204092002,320409,3204,32,"Margahayu Selatan",40226,-6.9708202534732,107.56640761888
3204092003,320409,3204,32,Sukamenak,40227,-6.9713834086693,107.58421512815
3204092005,320409,3204,32,Sayati,40228,-6.9713688672646,107.57587817146
3204102001,320410,3204,32,Margaasih,40215,-6.9391350658495,107.54623849379
3204102002,320410,3204,32,Lagadar,40216,-6.9276947066555,107.53281648192
3204102003,320410,3204,32,Nanjung,40217,-6.9539530261682,107.53834328903
3204102004,320410,3204,32,Mekarrahayu,40218,-6.9711981032283,107.55207090054
3204102005,320410,3204,32,Rahayu,40218,-6.958120103545,107.55647438126
3204102006,320410,3204,32,"Cigondewah Hilir",40214,-6.9520338227877,107.5511735887
3204112001,320411,3204,32,Sangkanhurip,40921,-6.9985648710503,107.56692697071
3204112002,320411,3204,32,Katapang,40921,-7.0050486358844,107.5463802022
3204112004,320411,3204,32,Gandasari,40921,-7.0247617469501,107.55076300728
3204112006,320411,3204,32,Sukamukti,40921,-7.0025601784202,107.58028761601
3204112007,320411,3204,32,Cilampeni,40921,-6.989316352448,107.55198417116
3204112008,320411,3204,32,Pangauban,40921,-7.002510721554,107.55559195816
3204112009,320411,3204,32,Banyusari,40921,-7.0177504517192,107.5588737578
3204121001,320412,3204,32,Pasawahan,40256,-6.9687359200726,107.61457101115
3204122002,320412,3204,32,Dayeuhkolot,40258,-6.9847741816591,107.62195351077
3204122003,320412,3204,32,"Cangkuang Wetan",40238,-6.9710190660173,107.60461965781
3204122004,320412,3204,32,"Cangkuang Kulon",40239,-6.9704870167225,107.59408080251
3204122005,320412,3204,32,Sukapura,40267,-6.9687720790218,107.62833012659
3204122006,320412,3204,32,Citeureup,40257,-6.9796942841644,107.62597938716
3204132001,320413,3204,32,Kamasan,40377,-7.0478227118384,107.5782704689
3204132002,320413,3204,32,"Banjaran Wetan",40377,-7.082090031962,107.61115037989
3204132003,320413,3204,32,Banjaran,40377,-7.0472031019788,107.5886720397
3204132005,320413,3204,32,Ciapus,40377,-7.0671779810096,107.59184553105
3204132006,320413,3204,32,Sindangpanon,40377,-7.0631828039627,107.58161535409
3204132007,320413,3204,32,Kiangroke,40377,-7.0504843272721,107.56747446971
3204132008,320413,3204,32,Tarajusari,40377,-7.0369211069107,107.58439798613
3204132012,320413,3204,32,Mekarjaya,40377,-7.0903871756341,107.60149403216
3204132013,320413,3204,32,Margahurip,40377,-7.0611714119117,107.56192257237
3204132016,320413,3204,32,Neglasari,40377,-7.0635338971883,107.57231728025
3204132018,320413,3204,32,Pasirmulya,40377,-7.1004354727343,107.60076018458
3204142001,320414,3204,32,Sukasari,40376,-7.0229416287294,107.59155593254
3204142002,320414,3204,32,Bojongmanggu,40376,-7.0282286248566,107.60263997956
3204142003,320414,3204,32,Rancatungku,40376,-7.0227507018548,107.57871643058
3204142004,320414,3204,32,Bojongkunci,40376,-7.0189996046047,107.56805175506
3204142005,320414,3204,32,Rancamulya,40376,-7.0092175537105,107.59240721232
3204142006,320414,3204,32,Langonsari,40376,-7.0204824133434,107.60764121916
3204152001,320415,3204,32,Pangalengan,40378,-7.176201055896,107.58609272991
3204152002,320415,3204,32,Margaluyu,40378,-7.2285037050729,107.55561474569
3204152003,320415,3204,32,Warnasari,40378,-7.1907847687329,107.51610748398
3204152004,320415,3204,32,Sukamanah,40378,-7.2039228817577,107.60437096578
3204152005,320415,3204,32,Lamajang,40378,-7.1333865906264,107.53957946099
3204152006,320415,3204,32,Margamukti,40378,-7.1819641479716,107.62050714369
3204152007,320415,3204,32,Margamulya,40378,-7.1595606942891,107.59032037535
3204152008,320415,3204,32,Banjarsari,40378,-7.2305908707325,107.59275107179
3204152009,320415,3204,32,Sukaluyu,40378,-7.23315564305,107.52169707094
3204152010,320415,3204,32,Tribaktimulya,40378,-7.143901105513,107.56400986426
3204152011,320415,3204,32,Pulosari,40378,-7.1744430498161,107.54446013417
3204152012,320415,3204,32,Wanasuka,40378,-7.2650824210073,107.60895594173
3204152013,320415,3204,32,Margamekar,40378,-7.2019007955439,107.57157207566
3204162001,320416,3204,32,Arjasari,40379,-7.0609034276482,107.64205123889
3204162002,320416,3204,32,Lebakwangi,40379,-7.0423439241639,107.60859878836
3204162003,320416,3204,32,Batukarut,40379,-7.0463015404903,107.60064000518
3204162004,320416,3204,32,Ancolmekar,40379,-7.090721495383,107.66796855727
3204162005,320416,3204,32,Baros,40379,-7.0657722641639,107.63017400571
3204162006,320416,3204,32,Mangunjaya,40379,-7.0817216671346,107.61951841046
3204162007,320416,3204,32,Mekarjaya,40379,-7.0830359014005,107.63094962229
3204162008,320416,3204,32,Pinggirsari,40379,-7.0816253166172,107.65182237046
3204162009,320416,3204,32,Patrolsari,40379,-7.0559806222615,107.66980582933
3204162010,320416,3204,32,Rancakole,40379,-7.071271490277,107.67780678454
3204162011,320416,3204,32,Wargaluyu,40379,-7.0355393419757,107.62356189734
3204172001,320417,3204,32,Cimaung,40374,-7.09186061217,107.56359037888
3204172002,320417,3204,32,Jagabaya,40374,-7.0773351645762,107.5634952151
3204172003,320417,3204,32,Pasirhuni,40374,-7.0910918371979,107.57671875106
3204172004,320417,3204,32,Campakamulya,40374,-7.1173652017042,107.60629999952
3204172005,320417,3204,32,Cipinang,40374,-7.1019364826818,107.56038892733
3204172006,320417,3204,32,Mekarsari,40375,-7.1250598690054,107.59289631971
3204172007,320417,3204,32,Sukamaju,40374,-7.1076728213746,107.5329219793
3204172008,320417,3204,32,Cikalong,40374,-7.1194633741761,107.55776308013
3204172009,320417,3204,32,Malasari,40374,-7.0875286610781,107.53895712977
3204172010,320417,3204,32,Warjabakti,40374,-7.1384638030575,107.58961179374
3204252001,320425,3204,32,"Cicalengka Kulon",40395,-6.9867671307149,107.8395661177
3204252002,320425,3204,32,"Cicalengka Wetan",40395,-6.9913601636147,107.84702401427
3204252003,320425,3204,32,"Babakan Peuteuy",40395,-6.986415508906,107.85926816943
3204252004,320425,3204,32,Cikuya,40395,-6.9828538265102,107.82338253898
3204252005,320425,3204,32,Dampit,40395,-6.9750405809119,107.86278950186
3204252006,320425,3204,32,Margaasih,40395,-7.0102948284027,107.84628424226
3204252007,320425,3204,32,Narawita,40395,-7.0227257841911,107.85251872665
3204252008,320425,3204,32,Panenjoan,40395,-6.9737486435447,107.82335700051
3204252009,320425,3204,32,Tanjungwangi,40395,-6.9673341554831,107.89329336122
3204252010,320425,3204,32,Tenjolaya,40395,-6.9775472126898,107.84047631612
3204252011,320425,3204,32,Waluya,40395,-6.9951003262392,107.83900036172
3204252012,320425,3204,32,Nagrog,40395,-6.9990628669328,107.86834922728
3204262001,320426,3204,32,Nagreg,40215,-7.0252512163688,107.88671508559
3204262002,320426,3204,32,Bojong,40215,-7.0397057131027,107.87521946956
3204262003,320426,3204,32,Ciaro,40215,-7.0434463948081,107.92248163947
3204262004,320426,3204,32,Ciherang,40215,-7.0384547082769,107.900779536
3204262005,320426,3204,32,Citaman,40215,-7.0046910367335,107.88430679486
3204262006,320426,3204,32,Mandalawangi,40215,-7.0336732512706,107.86069673896
3204262007,320426,3204,32,"Nagreg Kendan",40215,-7.0034909893001,107.89787037271
3204262008,320426,3204,32,"Ganjar Sabar",40215,-7.0172319203334,107.87488943763
3204272001,320427,3204,32,Mandalasari,40396,-7.0342529156934,107.84036461694
3204272002,320427,3204,32,Cikancung,40396,-7.0281035939877,107.83101524475
3204272003,320427,3204,32,Cikasungka,40396,-7.0047575025234,107.81884075418
3204272004,320427,3204,32,Cihanyir,40396,-7.0266316250098,107.81919390991
3204272005,320427,3204,32,Ciluluk,40396,-7.0342066535739,107.81320443797
3204272006,320427,3204,32,Hegarmanah,40396,-7.0021431837982,107.8318198072
3204272007,320427,3204,32,Mekarlaksana,40396,-7.0539351144085,107.83339477913
3204272008,320427,3204,32,Tanjunglaya,40396,-6.9985319450647,107.81047223079
3204272009,320427,3204,32,Srirahayu,40396,-7.0456730085127,107.81289926944
3204281014,320428,3204,32,"Rancaekek Kencana",40394,-6.9735061737361,107.75728535946
3204282001,320428,3204,32,"Rancaekek Wetan",40394,-6.9678629897687,107.75497295101
3204282002,320428,3204,32,"Rancaekek Kulon",40394,-6.971019965937,107.74299951972
3204282003,320428,3204,32,Bojongsalam,40394,-6.9887593328548,107.80968003574
3204282004,320428,3204,32,Bojongloa,40394,-6.9768961688688,107.76078164668
3204282005,320428,3204,32,Jelegong,40394,-6.9734814859359,107.77210597798
3204282006,320428,3204,32,Linggar,40394,-6.9729883857712,107.78286807224
3204282007,320428,3204,32,Cangkuang,40394,-6.9760618467342,107.7977166347
3204282008,320428,3204,32,Haurpugur,40394,-6.9930673442165,107.78820506152
3204282009,320428,3204,32,Sukamanah,40394,-6.9884132180005,107.73167883258
3204282010,320428,3204,32,Sukamulya,40394,-6.9847086375938,107.78077904908
3204282011,320428,3204,32,"Tegal Sumedang",40394,-6.9771207489797,107.72262419347
3204282012,320428,3204,32,Sangiang,40394,-7.0014498484594,107.79280037086
3204282013,320428,3204,32,"Nanjung Mekar",40394,-6.9705048155139,107.81370293809
3204292001,320429,3204,32,Ciparay,40381,-7.0253714030922,107.72006893903
