[
    {
        "code": 3201011001,
        "district_code": 320101,
        "regency_code": 3201,
        "province_code": 32,
        "name": "Pondok Rajeg",
        "postal_code": "16914",
        "latitude": -6.456300194796226,
        "longitude": 106.8198784285002
    },
    {
        "code": 3201011002,
        "district_code": 320101,
        "regency_code": 3201,
        "province_code": 32,
        "name": "Karadenan",
        "postal_code": "16913",
        "latitude": -6.516946515992691,
        "longitude": 106.81044882386264
    },
    {
        "code": 3201011003,
        "district_code": 320101,
        "regency_code": 3201,
        "province_code": 32,
        "name": "Harapanjaya",
        "postal_code": "16914",
        "latitude": -6.4614419851651155,
        "longitude": 106.8359958701302
    },
    {
        "code": 3201011004,
        "district_code": 320101,
        "regency_code": 3201,
        "province_code": 32,
        "name": "Nanggewer",
        "postal_code": "16912",
        "latitude": -6.512123879180585,
        "longitude": 106.82931176749534
    },
    {
        "code": 3201011005,
        "district_code": 320101,
        "regency_code": 3201,
        "province_code": 32,
        "name": "Nanggewer Mekar",
        "postal_code": "16912",
        "latitude": -6.503328065391033,
        "longitude": 106.83567889983937
    },
    {
        "code": 3201011006,
        "district_code": 320101,
        "regency_code": 3201,
        "province_code": 32,
        "name": "Cibinong",
        "postal_code": "16911",
        "latitude": -6.489479644865213,
        "longitude": 106.8531441536824
    },
    {
        "code": 3201011007,
        "district_code": 320101,
        "regency_code": 3201,
        "province_code": 32,
        "name": "Pakansari",
        "postal_code": "16915",
        "latitude": -6.488061948364338,
        "longitude": 106.83497863841919
    },
    {
        "code": 3201011008,
        "district_code": 320101,
        "regency_code": 3201,
        "province_code": 32,
        "name": "Tengah",
        "postal_code": "16914",
        "latitude": -6.476585021473568,
        "longitude": 106.82597583386767
    },
    {
        "code": 3201011009,
        "district_code": 320101,
        "regency_code": 3201,
        "province_code": 32,
        "name": "Sukahati",
        "postal_code": "16913",
        "latitude": -6.49301255816152,
        "longitude": 106.81281703635311
    },
    {
        "code": 3201011010,
        "district_code": 320101,
        "regency_code": 3201,
        "province_code": 32,
        "name": "Ciriung",
        "postal_code": "16918",
        "latitude": -6.465491815877445,
        "longitude": 106.86606201126234
    },
    {
        "code": 3201011011,
        "district_code": 320101,
        "regency_code": 3201,
        "province_code": 32,
        "name": "Cirimekar",
        "postal_code": "16917",
        "latitude": -6.473944575753678,
        "longitude": 106.8560664118026
    },
    {
        "code": 3201011012,
        "district_code": 320101,
        "regency_code": 3201,
        "province_code": 32,
        "name": "Pabuaran",
        "postal_code": "16916",
        "latitude": -6.462583226210156,
        "longitude": 106.84895320001765
    },
    {
        "code": 3201011013,
        "district_code": 320101,
        "regency_code": 3201,
        "province_code": 32,
        "name": "Pabuaran Mekar",
        "postal_code": "16916",
        "latitude": -6.444756859167504,
        "longitude": 106.84808445091554
    },
    {
        "code": 3201022001,
        "district_code": 320102,
        "regency_code": 3201,
        "province_code": 32,
        "name": "Wanaherang",
        "postal_code": "16965",
        "latitude": -6.416481696409231,
        "longitude": 106.94501392831737
    },
    {
        "code": 3201022002,
        "district_code": 320102,
        "regency_code": 3201,
        "province_code": 32,
        "name": "Bojong Kulur",
        "postal_code": "16969",
        "latitude": -6.321203152586718,
        "longitude": 106.96935171359284
    },
    {
        "code": 3201022003,
        "district_code": 320102,
        "regency_code": 3201,
        "province_code": 32,
        "name": "Ciangsana",
        "postal_code": "16968",
        "latitude": -6.356022356872345,
        "longitude": 106.95875407146708
    },
    {
        "code": 3201022004,
        "district_code": 320102,
        "regency_code": 3201,
        "province_code": 32,
        "name": "Gunung Putri",
        "postal_code": "16961",
        "latitude": -6.462547195854538,
        "longitude": 106.89443650249865
    },
    {
        "code": 3201022005,
        "district_code": 320102,
        "regency_code": 3201,
        "province_code": 32,
        "name": "Bojong Nangka",
        "postal_code": "16963",
        "latitude": -6.431326718026216,
        "longitude": 106.90253304969988
    },
    {
        "code": 3201022006,
        "district_code": 320102,
        "regency_code": 3201,
        "province_code": 32,
        "name": "Tlajung Udik",
        "postal_code": "16962",
        "latitude": -6.445986967845283,
        "longitude": 106.9139033271882
    },
    {
        "code": 3201022007,
        "district_code": 320102,
        "regency_code": 3201,
        "province_code": 32,
        "name": "Cicadas",
        "postal_code": "16964",
        "latitude": -6.432392571052786,
        "longitude": 106.92811793270532
    },
    {
        "code": 3201022008,
        "district_code": 320102,
        "regency_code": 3201,
        "province_code": 32,
        "name": "Cikeas Udik",
        "postal_code": "16966",
        "latitude": -6.403878316015329,
        "longitude": 106.92717446174984
    },
    {
        "code": 3201022009,
        "district_code": 320102,
        "regency_code": 3201,
        "province_code": 32,
        "name": "Nagrak",
        "postal_code": "16967",
        "latitude": -6.384991695254616,
        "longitude": 106.94592534376073
    },
    {
        "code": 3201022010,
        "district_code": 320102,
        "regency_code": 3201,
        "province_code": 32,
        "name": "Karanggan",
        "postal_code": "16960",
        "latitude": -6.45664753811761,
        "longitude": 106.88574464813989
    },
    {
        "code": 3201031006,
        "district_code": 320103,
        "regency_code": 3201,
        "province_code": 32,
        "name": "Puspanegara",
        "postal_code": "16811",
        "latitude": -6.478748189644017,
        "longitude": 106.88084216500667
    },
    {
        "code": 3201031007,
        "district_code": 320103,
        "regency_code": 3201,
        "province_code": 32,
        "name": "Karang Asem Barat",
        "postal_code": "16811",
        "latitude": -6.49073151934753,
        "longitude": 106.86994002011834
    },
    {
        "code": 3201032001,
        "district_code": 320103,
        "regency_code": 3201,
        "province_code": 32,
        "name": "Puspasari",
        "postal_code": "16811",
        "latitude": -6.476131175301295,
        "longitude": 106.87450417785342
    },
    {
        "code": 3201032002,
        "district_code": 320103,
        "regency_code": 3201,
        "province_code": 32,
        "name": "Citeureup",
        "postal_code": "16811",
        "latitude": -6.480605891950021,
        "longitude": 106.89257467602562
    },
    {
        "code": 3201032003,
        "district_code": 320103,
        "regency_code": 3201,
        "province_code": 32,
        "name": "Leuwinutug",
        "postal_code": "16811",
        "latitude": -6.51375624459723,
        "longitude": 106.86172320702289
    },
    {
        "code": 3201032004,
        "district_code": 320103,
        "regency_code": 3201,
        "province_code": 32,
        "name": "Tajur",
        "postal_code": "16811",
        "latitude": -6.539771055079676,
        "longitude": 106.92057294647898
    },
    {
        "code": 3201032005,
        "district_code": 320103,
        "regency_code": 3201,
        "province_code": 32,
        "name": "Sanja",
        "postal_code": "16811",
        "latitude": -6.5039055681050995,
        "longitude": 106.86752730117995
    },
    {
        "code": 3201032008,
        "district_code": 320103,
        "regency_code": 3201,
        "province_code": 32,
        "name": "Karang Asem Timur",
        "postal_code": "16811",
        "latitude": -6.496590022591497,
        "longitude": 106.8797836789026
    },
    {
        "code": 3201032009,
        "district_code": 320103,
        "regency_code": 3201,
        "province_code": 32,
        "name": "Tarikolot",
        "postal_code": "16811",
        "latitude": -6.498607403263511,
        "longitude": 106.8902235265118
    },
    {
        "code": 3201032010,
        "district_code": 320103,
        "regency_code": 3201,
        "province_code": 32,
        "name": "Gunungsari",
        "postal_code": "16811",
        "latitude": -6.4934191859006,
        "longitude": 106.90274054524309
    },
    {
        "code": 3201032011,
        "district_code": 320103,
        "regency_code": 3201,
        "province_code": 32,
        "name": "Tangkil",
        "postal_code": "16811",
        "latitude": -6.534641794083693,
        "longitude": 106.87137693093933
    },
    {
        "code": 3201032012,
        "district_code": 320103,
        "regency_code": 3201,
        "province_code": 32,
        "name": "Sukahati",
        "postal_code": "16811",
        "latitude": -6.516165600639952,
        "longitude": 106.88288312713748
    },
    {
        "code": 3201032013,
        "district_code": 320103,
        "regency_code": 3201,
        "province_code": 32,
        "name": "Hambalang",
        "postal_code": "16811",
        "latitude": -6.548372553138207,
        "longitude": 106.89759916610444
    },
    {
        "code": 3201032014,
        "district_code": 320103,
        "regency_code": 3201,
        "province_code": 32,
        "name": "Pasirmukti",
        "postal_code": "16811",
        "latitude": -6.508857015180956,
        "longitude": 106.89843746215895
    },
    {
        "code": 3201042001,
        "district_code": 320104,
        "regency_code": 3201,
        "province_code": 32,
        "name": "Gununggeulis",
        "postal_code": "16711",
        "latitude": -6.632569547273031,
        "longitude": 106.884587257486
    },
    {
        "code": 3201042002,
        "district_code": 320104,
        "regency_code": 3201,
        "province_code": 32,
        "name": "Cilebut Timur",
        "postal_code": "16711",
        "latitude": -6.527391164371065,
        "longitude": 106.80165088698053
    },
    {
        "code": 3201042003,
        "district_code": 320104,
        "regency_code": 3201,
        "province_code": 32,
        "name": "Cilebut Barat",
        "postal_code": "16711",
        "latitude": -6.5298811519095,
        "longitude": 106.79500588538076
    },
    {
        "code": 3201042004,
        "district_code": 320104,
        "regency_code": 3201,
        "province_code": 32,
        "name": "Cibanon",
        "postal_code": "16711",
        "latitude": -6.629259480648337,
        "longitude": 106.84411214947941
    },
    {
        "code": 3201042005,
        "district_code": 320104,
        "regency_code": 3201,
        "province_code": 32,
        "name": "Nagrak",
        "postal_code": "16711",
        "latitude": -6.618334422702773,
        "longitude": 106.85581560457524
    },
    {
        "code": 3201042006,
        "district_code": 320104,
        "regency_code": 3201,
        "province_code": 32,
        "name": "Sukatani",
        "postal_code": "16711",
        "latitude": -6.608721258651038,
        "longitude": 106.84103067440608
    },
    {
        "code": 3201042007,
        "district_code": 320104,
        "regency_code": 3201,
        "province_code": 32,
        "name": "Sukaraja",
        "postal_code": "16711",
        "latitude": -6.600429342035239,
        "longitude": 106.83567740210896
    },
    {
        "code": 3201042008,
        "district_code": 320104,
        "regency_code": 3201,
        "province_code": 32,
        "name": "Cikeas",
        "postal_code": "16711",
        "latitude": -6.591617274350551,
        "longitude": 106.84877298267754
    },
    {
        "code": 3201042009,
        "district_code": 320104,
        "regency_code": 3201,
        "province_code": 32,
        "name": "Pasir Jambu",
        "postal_code": "16711",
        "latitude": -6.535401218090981,
        "longitude": 106.81044686250259
    },
    {
        "code": 3201042010,
        "district_code": 320104,
        "regency_code": 3201,
        "province_code": 32,
        "name": "Cimandala",
        "postal_code": "16711",
        "latitude": -6.5297505921906795,
        "longitude": 106.82442352171951
    },
    {
        "code": 3201042011,
        "district_code": 320104,
        "regency_code": 3201,
        "province_code": 32,
        "name": "Cijujung",
        "postal_code": "16711",
        "latitude": -6.530970451622447,
        "longitude": 106.83671739042559
    },
    {
        "code": 3201042012,
        "district_code": 320104,
        "regency_code": 3201,
        "province_code": 32,
        "name": "Cadasngampar",
        "postal_code": "16711",
        "latitude": -6.573443942320073,
        "longitude": 106.84099789343675
    },
    {
        "code": 3201042013,
        "district_code": 320104,
        "regency_code": 3201,
        "province_code": 32,
        "name": "Pasirlaja",
        "postal_code": "16711",
        "latitude": -6.551076001571188,
        "longitude": 106.83655408267654
    },
    {
        "code": 3201052001,
        "district_code": 320105,
        "regency_code": 3201,
        "province_code": 32,
        "name": "Cijayanti",
        "postal_code": "16810",
        "latitude": -6.601893112414665,
        "longitude": 106.8702407474934
    },
    {
        "code": 3201052002,
        "district_code": 320105,
        "regency_code": 3201,
        "province_code": 32,
        "name": "Sumurbatu",
        "postal_code": "16810",
        "latitude": -6.577335909749264,
        "longitude": 106.87883944254712
    },
    {
        "code": 3201052003,
        "district_code": 320105,
        "regency_code": 3201,
        "province_code": 32,
        "name": "Sentul",
        "postal_code": "16810",
        "latitude": -6.520987990450348,
        "longitude": 106.85133515903786
    },
    {
        "code": 3201052004,
        "district_code": 320105,
        "regency_code": 3201,
        "province_code": 32,
        "name": "Karangtengah",
        "postal_code": "16810",
        "latitude": -6.598410036147126,
        "longitude": 106.93723017695666
    },
    {
        "code": 3201052005,
        "district_code": 320105,
        "regency_code": 3201,
        "province_code": 32,
        "name": "Cipambuan",
        "postal_code": "16810",
        "latitude": -6.557556458517455,
        "longitude": 106.8457462900854
    },
    {
        "code": 3201052006,
        "district_code": 320105,
        "regency_code": 3201,
        "province_code": 32,
        "name": "Kadumanggu",
        "postal_code": "16810",
        "latitude": -6.544833531432427,
        "longitude": 106.85484561674556
    },
    {
        "code": 3201052007,
        "district_code": 320105,
        "regency_code": 3201,
        "province_code": 32,
        "name": "Citaringgul",
        "postal_code": "16810",
        "latitude": -6.568938973841423,
        "longitude": 106.85475499381687
    },
    {
        "code": 3201052008,
        "district_code": 320105,
        "regency_code": 3201,
        "province_code": 32,
        "name": "Babakan Madang",
        "postal_code": "16810",
        "latitude": -6.565148784315477,
        "longitude": 106.86693355579308
    },
    {
        "code": 3201052009,
        "district_code": 320105,
        "regency_code": 3201,
        "province_code": 32,
        "name": "Bojong Koneng",
        "postal_code": "16810",
        "latitude": -6.610389356319176,
        "longitude": 106.90618916944447
    },
    {
        "code": 3201062001,
        "district_code": 320106,
        "regency_code": 3201,
        "province_code": 32,
        "name": "Sukamaju",
        "postal_code": "16830",
        "latitude": -6.449917126764524,
        "longitude": 107.04995681852317
    },
    {
        "code": 3201062002,
        "district_code": 320106,
        "regency_code": 3201,
        "province_code": 32,
        "name": "Sirnagalih",
        "postal_code": "16830",
        "latitude": -6.473212522593658,
        "longitude": 107.09047564824188
    },
    {
        "code": 3201062003,
        "district_code": 320106,
        "regency_code": 3201,
        "province_code": 32,
        "name": "Singajaya",
        "postal_code": "16830",
        "latitude": -6.47079737583425,
        "longitude": 107.04570857543138
    },
    {
        "code": 3201062004,
        "district_code": 320106,
        "regency_code": 3201,
        "province_code": 32,
        "name": "Sukasirna",
        "postal_code": "16830",
        "latitude": -6.496437120218581,
        "longitude": 107.05586498512659
    },
    {
        "code": 3201062005,
        "district_code": 320106,
        "regency_code": 3201,
        "province_code": 32,
        "name": "Sukanegara",
        "postal_code": "16830",
        "latitude": -6.522179749824539,
        "longitude": 107.03611757910288
    },
    {
        "code": 3201062006,
        "district_code": 320106,
        "regency_code": 3201,
        "province_code": 32,
        "name": "Sukamanah",
        "postal_code": "16830",
        "latitude": -6.443241027269803,
        "longitude": 107.06591981444302
    },
    {
        "code": 3201062007,
        "district_code": 320106,
        "regency_code": 3201,
        "province_code": 32,
        "name": "Weninggalih",
        "postal_code": "16830",
        "latitude": -6.461618741003708,
        "longitude": 107.1002067361777
    },
    {
        "code": 3201062008,
        "district_code": 320106,
        "regency_code": 3201,
        "province_code": 32,
        "name": "Cibodas",
        "postal_code": "16830",
        "latitude": -6.508903427524739,
        "longitude": 107.01213673622794
    },
    {
        "code": 3201062009,
        "district_code": 320106,
        "regency_code": 3201,
        "province_code": 32,
        "name": "Jonggol",
        "postal_code": "16830",
        "latitude": -6.464407476265405,
        "longitude": 107.07309307027704
    },
    {
        "code": 3201062010,
        "district_code": 320106,
        "regency_code": 3201,
        "province_code": 32,
        "name": "Bendungan",
        "postal_code": "16830",
        "latitude": -6.492462784175433,
        "longitude": 107.08639962021365
    },
    {
        "code": 3201062011,
        "district_code": 320106,
        "regency_code": 3201,
        "province_code": 32,
        "name": "Singasari",
        "postal_code": "16830",
        "latitude": -6.473705872216146,
        "longitude": 107.01648165943698
    },
    {
        "code": 3201062012,
        "district_code": 320106,
        "regency_code": 3201,
        "province_code": 32,
        "name": "Balekambang",
        "postal_code": "16830",
        "latitude": -6.511793183624541,
        "longitude": 107.08620798712343
    },
    {
        "code": 3201062013,
        "district_code": 320106,
        "regency_code": 3201,
        "province_code": 32,
        "name": "Sukajaya",
        "postal_code": "16830",
        "latitude": -6.550377203346898,
        "longitude": 107.01335298926894
    },
    {
        "code": 3201062014,
        "district_code": 320106,
        "regency_code": 3201,
        "province_code": 32,
        "name": "Sukagalih",
        "postal_code": "16830",
        "latitude": -6.482747883826814,
        "longitude": 107.10871774734048
    },
    {
        "code": 3201072001,
        "district_code": 320107,
        "regency_code": 3201,
        "province_code": 32,
        "name": "Pasirangin",
        "postal_code": "16820",
        "latitude": -6.37817502163481,
        "longitude": 106.98307198959155
    },
    {
        "code": 3201072002,
        "district_code": 320107,
        "regency_code": 3201,
        "province_code": 32,
        "name": "Mekarsari",
        "postal_code": "16820",
        "latitude": -6.405843490335382,
        "longitude": 106.99607692363674
    },
    {
        "code": 3201072003,
        "district_code": 320107,
        "regency_code": 3201,
        "province_code": 32,
        "name": "Mampir",
        "postal_code": "16820",
        "latitude": -6.430476912053484,
        "longitude": 106.99615686116276
    },
    {
        "code": 3201072004,
        "district_code": 320107,
        "regency_code": 3201,
        "province_code": 32,
        "name": "Dayeuh",
        "postal_code": "16820",
        "latitude": -6.430553897967051,
        "longitude": 106.96765965052799
    },
    {
        "code": 3201072005,
        "district_code": 320107,
        "regency_code": 3201,
        "province_code": 32,
        "name": "Gandoang",
        "postal_code": "16820",
        "latitude": -6.413165317076168,
        "longitude": 107.01449221495187
    },
    {
        "code": 3201072006,
        "district_code": 320107,
        "regency_code": 3201,
        "province_code": 32,
        "name": "Jatisari",
        "postal_code": "16820",
        "latitude": -6.412711696008866,
        "longitude": 107.05056614519837
    },
    {
        "code": 3201072007,
        "district_code": 320107,
        "regency_code": 3201,
        "province_code": 32,
        "name": "Cileungsi Kidul",
        "postal_code": "16820",
        "latitude": -6.410708269970105,
        "longitude": 106.96938486410609
    },
    {
        "code": 3201072008,
        "district_code": 320107,
        "regency_code": 3201,
        "province_code": 32,
        "name": "Cipeucang",
        "postal_code": "16820",
        "latitude": -6.423685121231204,
        "longitude": 107.04033881723602
    },
    {
        "code": 3201072009,
        "district_code": 320107,
        "regency_code": 3201,
        "province_code": 32,
        "name": "Situsari",
        "postal_code": "16820",
        "latitude": -6.43161228154587,
        "longitude": 107.02288801234207
    },
    {
        "code": 3201072010,
        "district_code": 320107,
        "regency_code": 3201,
        "province_code": 32,
        "name": "Cipenjo",
        "postal_code": "16820",
        "latitude": -6.390016964851207,
        "longitude": 106.99249472093149
    },
    {
        "code": 3201072011,
        "district_code": 320107,
        "regency_code": 3201,
        "province_code": 32,
        "name": "Limusnunggal",
        "postal_code": "16820",
        "latitude": -6.375006406920965,
        "longitude": 106.96920075071485
    },
    {
        "code": 3201072012,
        "district_code": 320107,
        "regency_code": 3201,
        "province_code": 32,
        "name": "Cileungsi",
        "postal_code": "16820",
        "latitude": -6.399694686394205,
        "longitude": 106.96245363746054
    },
    {
        "code": 3201082001,
        "district_code": 320108,
        "regency_code": 3201,
        "province_code": 32,
        "name": "Karyamekar",
        "postal_code": "16840",
        "latitude": -6.547673797492131,
        "longitude": 107.10440290512497
    },
    {
        "code": 3201082002,
        "district_code": 320108,
        "regency_code": 3201,
        "province_code": 32,
        "name": "Babakanraden",
        "postal_code": "16840",
        "latitude": -6.483599562726824,
        "longitude": 107.14090326624678
    },
    {
        "code": 3201082003,
        "district_code": 320108,
        "regency_code": 3201,
        "province_code": 32,
        "name": "Cikutamahi",
        "postal_code": "16840",
        "latitude": -6.54586107507423,
        "longitude": 107.16936113674848
    },
    {
        "code": 3201082004,
        "district_code": 320108,
        "regency_code": 3201,
        "province_code": 32,
        "name": "Kutamekar",
        "postal_code": "16840",
        "latitude": -6.511570256479945,
        "longitude": 107.15224994760663
    },
    {
        "code": 3201082005,
        "district_code": 320108,
        "regency_code": 3201,
        "province_code": 32,
        "name": "Cariu",
        "postal_code": "16840",
        "latitude": -6.510173966443216,
        "longitude": 107.12805265283087
    },
    {
        "code": 3201082006,
        "district_code": 320108,
        "regency_code": 3201,
        "province_code": 32,
        "name": "Mekarwangi",
        "postal_code": "16840",
        "latitude": -6.525224044526969,
        "longitude": 107.10816556589457
    },
    {
        "code": 3201082007,
        "district_code": 320108,
        "regency_code": 3201,
        "province_code": 32,
        "name": "Bantarkuning",
        "postal_code": "16840",
        "latitude": -6.561647321125348,
        "longitude": 107.14713471785525
    },
    {
        "code": 3201082008,
        "district_code": 320108,
        "regency_code": 3201,
        "province_code": 32,
        "name": "Sukajadi",
        "postal_code": "16840",
        "latitude": -6.4902631738299865,
        "longitude": 107.15972177257194
    },
    {
        "code": 3201082009,
        "district_code": 320108,
        "regency_code": 3201,
        "province_code": 32,
        "name": "Tegalpanjang",
        "postal_code": "16840",
        "latitude": -6.492232027480688,
        "longitude": 107.1165380856742
    },
    {
        "code": 3201082010,
        "district_code": 320108,
        "regency_code": 3201,
        "province_code": 32,
        "name": "Cibatutiga",
        "postal_code": "16840",
        "latitude": -6.541690357861488,
        "longitude": 107.14244920743515
    },
    {
        "code": 3201092001,
        "district_code": 320109,
        "regency_code": 3201,
        "province_code": 32,
        "name": "Wargajaya",
        "postal_code": "16831",
        "latitude": -6.62566561587292,
        "longitude": 107.01338864041578
    },
    {
        "code": 3201092002,
        "district_code": 320109,
        "regency_code": 3201,
        "province_code": 32,
        "name": "Pabuaran",
        "postal_code": "16831",
        "latitude": -6.546854819504953,
        "longitude": 106.96027638774174
    },
    {
        "code": 3201092003,
        "district_code": 320109,
        "regency_code": 3201,
        "province_code": 32,
        "name": "Sukadamai",
        "postal_code": "16831",
        "latitude": -6.553612010365361,
        "longitude": 107.06192157777951
    },
    {
        "code": 3201092004,
        "district_code": 320109,
        "regency_code": 3201,
        "province_code": 32,
        "name": "Sukawangi",
        "postal_code": "16831",
        "latitude": -6.651127142964404,
        "longitude": 107.04180546395312
    },
    {
        "code": 3201092005,
        "district_code": 320109,
        "regency_code": 3201,
        "province_code": 32,
        "name": "Cibadak",
        "postal_code": "16831",
        "latitude": -6.581900717738041,
        "longitude": 106.96021729402729
    },
    {
        "code": 3201092006,
        "district_code": 320109,
        "regency_code": 3201,
        "province_code": 32,
        "name": "Sukaresmi",
        "postal_code": "16831",
        "latitude": -6.534854254495924,
        "longitude": 107.05130727600033
    },
    {
        "code": 3201092007,
        "district_code": 320109,
        "regency_code": 3201,
        "province_code": 32,
        "name": "Sukamulya",
        "postal_code": "16831",
        "latitude": -6.591082841849229,
        "longitude": 106.99721754598816
    },
    {
        "code": 3201092008,
        "district_code": 320109,
        "regency_code": 3201,
        "province_code": 32,
        "name": "Sukaharja",
        "postal_code": "16831",
        "latitude": -6.603644934727867,
        "longitude": 107.05494773584763
    },
    {
        "code": 3201092009,
        "district_code": 320109,
        "regency_code": 3201,
        "province_code": 32,
        "name": "Sirnajaya",
        "postal_code": "16831",
        "latitude": -6.618668593804708,
        "longitude": 106.99750673846114
    },
    {
        "code": 3201092010,
        "district_code": 320109,
        "regency_code": 3201,
        "province_code": 32,
        "name": "Sukamakmur",
        "postal_code": "16831",
        "latitude": -6.572727945688933,
        "longitude": 106.9856835817667
    },
    {
        "code": 3201102001,
        "district_code": 320110,
        "regency_code": 3201,
        "province_code": 32,
        "name": "Parung",
        "postal_code": "16330",
        "latitude": -6.426608635513078,
        "longitude": 106.73155033065609
    },
    {
        "code": 3201102002,
        "district_code": 320110,
        "regency_code": 3201,
        "province_code": 32,
        "name": "Iwul",
        "postal_code": "16330",
        "latitude": -6.456812153035826,
        "longitude": 106.71519189768978
    },
    {
        "code": 3201102003,
        "district_code": 320110,
        "regency_code": 3201,
        "province_code": 32,
        "name": "Bojongsempu",
        "postal_code": "16330",
        "latitude": -6.445059578283298,
        "longitude": 106.70507468082877
    },
    {
        "code": 3201102004,
        "district_code": 320110,
        "regency_code": 3201,
        "province_code": 32,
        "name": "Waru",
        "postal_code": "16330",
        "latitude": -6.420294173290328,
        "longitude": 106.71991750639836
    },
    {
        "code": 3201102005,
        "district_code": 320110,
        "regency_code": 3201,
        "province_code": 32,
        "name": "Cogreg",
        "postal_code": "16330",
        "latitude": -6.419971915289854,
        "longitude": 106.69082291381704
    },
    {
        "code": 3201102006,
        "district_code": 320110,
        "regency_code": 3201,
        "province_code": 32,
        "name": "Pamegarsari",
        "postal_code": "16330",
        "latitude": -6.440479501138338,
        "longitude": 106.72780593567333
    },
    {
        "code": 3201102007,
        "district_code": 320110,
        "regency_code": 3201,
        "province_code": 32,
        "name": "Warujaya",
        "postal_code": "16330",
        "latitude": -6.426337859846835,
        "longitude": 106.70954779859179
    },
    {
        "code": 3201102008,
        "district_code": 320110,
        "regency_code": 3201,
        "province_code": 32,
        "name": "Bojongindah",
        "postal_code": "16330",
        "latitude": -6.432692835433195,
        "longitude": 106.70179142443344
    },
    {
        "code": 3201102009,
        "district_code": 320110,
        "regency_code": 3201,
        "province_code": 32,
        "name": "Jabonmekar",
        "postal_code": "16330",
        "latitude": -6.453707791962975,
        "longitude": 106.72636580223192
    },
    {
        "code": 3201112001,
        "district_code": 320111,
        "regency_code": 3201,
        "province_code": 32,
        "name": "Cidokom",
        "postal_code": "16340",
        "latitude": -6.4052367220670074,
        "longitude": 106.70691420952758
    },
    {
        "code": 3201112002,
        "district_code": 320111,
        "regency_code": 3201,
        "province_code": 32,
        "name": "Padurenan",
        "postal_code": "16340",
        "latitude": -6.391018808664328,
        "longitude": 106.70482577066554
    },
    {
        "code": 3201112003,
        "district_code": 320111,
        "regency_code": 3201,
        "province_code": 32,
        "name": "Pengasinan",
        "postal_code": "16340",
        "latitude": -6.3692035144931305,
        "longitude": 106.6905565650952
    },
    {
        "code": 3201112004,
        "district_code": 320111,
        "regency_code": 3201,
        "province_code": 32,
        "name": "Curug",
        "postal_code": "16340",
        "latitude": -6.395990985861619,
        "longitude": 106.71999474762971
    },
    {
        "code": 3201112005,
        "district_code": 320111,
        "regency_code": 3201,
        "province_code": 32,
        "name": "Gunungsindur",
        "postal_code": "16340",
        "latitude": -6.384551095782864,
        "longitude": 106.66956698839584
    },
    {
        "code": 3201112006,
        "district_code": 320111,
        "regency_code": 3201,
        "province_code": 32,
        "name": "Jampang",
        "postal_code": "16340",
        "latitude": -6.398823367835246,
        "longitude": 106.65506347974075
    },
    {
        "code": 3201112007,
        "district_code": 320111,
        "regency_code": 3201,
        "province_code": 32,
        "name": "Cibadung",
        "postal_code": "16340",
        "latitude": -6.403576418174443,
        "longitude": 106.67794727025239
    },
    {
        "code": 3201112008,
        "district_code": 320111,
        "regency_code": 3201,
        "province_code": 32,
        "name": "Cibinong",
        "postal_code": "16340",
        "latitude": -6.394736658739879,
        "longitude": 106.6907131572596
    },
    {
        "code": 3201112009,
        "district_code": 320111,
        "regency_code": 3201,
        "province_code": 32,
        "name": "Rawakalong",
        "postal_code": "16340",
        "latitude": -6.370228092349128,
        "longitude": 106.71030307508687
    },
    {
        "code": 3201112010,
        "district_code": 320111,
        "regency_code": 3201,
        "province_code": 32,
        "name": "Pabuaran",
        "postal_code": "16340",
        "latitude": -6.369312999476391,
        "longitude": 106.66833354051481
    },
    {
        "code": 3201121006,
        "district_code": 320112,
        "regency_code": 3201,
        "province_code": 32,
        "name": "Atang Senjaya",
        "postal_code": "16310",
        "latitude": -6.540720880450686,
        "longitude": 106.75868298384235
    },
    {
        "code": 3201122001,
        "district_code": 320112,
        "regency_code": 3201,
        "province_code": 32,
        "name": "Bojong",
        "postal_code": "16310",
        "latitude": -6.5274009244073525,
        "longitude": 106.7522673612909
    },
    {
        "code": 3201122002,
        "district_code": 320112,
        "regency_code": 3201,
        "province_code": 32,
        "name": "Parakanjaya",
        "postal_code": "16310",
        "latitude": -6.521059056697826,
        "longitude": 106.76235869923995
    },
    {
        "code": 3201122003,
        "district_code": 320112,
        "regency_code": 3201,
        "province_code": 32,
        "name": "Kemang",
        "postal_code": "16310",
        "latitude": -6.507844852745717,
        "longitude": 106.74859077790825
    },
    {
        "code": 3201122004,
        "district_code": 320112,
        "regency_code": 3201,
        "province_code": 32,
        "name": "Pabuaran",
        "postal_code": "16310",
        "latitude": -6.503879803708052,
        "longitude": 106.72536197805321
    },
    {
        "code": 3201122005,
        "district_code": 320112,
        "regency_code": 3201,
        "province_code": 32,
        "name": "Semplak Barat",
        "postal_code": "16310",
        "latitude": -6.543575670891843,
        "longitude": 106.74859961373336
    },
    {
        "code": 3201122007,
        "district_code": 320112,
        "regency_code": 3201,
        "province_code": 32,
        "name": "Jampang",
        "postal_code": "16310",
        "latitude": -6.474763834592418,
        "longitude": 106.72656669583023
    },
    {
        "code": 3201122008,
        "district_code": 320112,
        "regency_code": 3201,
        "province_code": 32,
        "name": "Pondok Udik",
        "postal_code": "16310",
        "latitude": -6.491007081336772,
        "longitude": 106.73711979953791
    },
    {
        "code": 3201122009,
        "district_code": 320112,
        "regency_code": 3201,
        "province_code": 32,
        "name": "Tegal",
        "postal_code": "16310",
        "latitude": -6.483636388089663,
        "longitude": 106.7095295206006
    },
    {
        "code": 3201131007,
        "district_code": 320113,
        "regency_code": 3201,
        "province_code": 32,
        "name": "Pabuaran",
        "postal_code": "16921",
        "latitude": -6.460778537920438,
        "longitude": 106.79855021814198
    },
    {
        "code": 3201132001,
        "district_code": 320113,
        "regency_code": 3201,
        "province_code": 32,
        "name": "Bojongbaru",
        "postal_code": "16920",
        "latitude": -6.476849667298053,
        "longitude": 106.80958210187339
    },
    {
        "code": 3201132002,
        "district_code": 320113,
        "regency_code": 3201,
        "province_code": 32,
        "name": "Cimanggis",
        "postal_code": "16920",
        "latitude": -6.503860308711982,
        "longitude": 106.77632005153929
    },
    {
        "code": 3201132003,
        "district_code": 320113,
        "regency_code": 3201,
        "province_code": 32,
        "name": "Susukan",
        "postal_code": "16920",
        "latitude": -6.469334910420654,
        "longitude": 106.79018800029215
    },
    {
        "code": 3201132004,
        "district_code": 320113,
        "regency_code": 3201,
        "province_code": 32,
        "name": "Ragajaya",
        "postal_code": "16920",
        "latitude": -6.445509056211598,
        "longitude": 106.78223908629995
    },
    {
        "code": 3201132005,
        "district_code": 320113,
        "regency_code": 3201,
        "province_code": 32,
        "name": "Kedungwaringin",
        "postal_code": "16923",
        "latitude": -6.496494184863275,
        "longitude": 106.79384394143106
    },
    {
        "code": 3201132006,
        "district_code": 320113,
        "regency_code": 3201,
        "province_code": 32,
        "name": "Waringinjaya",
        "postal_code": "16920",
        "latitude": -6.508538103237015,
        "longitude": 106.791114252766
    },
    {
        "code": 3201132008,
        "district_code": 320113,
        "regency_code": 3201,
        "province_code": 32,
        "name": "Rawapanjang",
        "postal_code": "16920",
        "latitude": -6.458217550520434,
        "longitude": 106.80953052527259
    },
    {
        "code": 3201132009,
        "district_code": 320113,
        "regency_code": 3201,
        "province_code": 32,
        "name": "Bojonggede",
        "postal_code": "16922",
        "latitude": -6.486621562323663,
        "longitude": 106.80003475753567
    },
    {
        "code": 3201142001,
        "district_code": 320114,
        "regency_code": 3201,
        "province_code": 32,
        "name": "Leuwiliang",
        "postal_code": "16640",
        "latitude": -6.5662582253308255,
        "longitude": 106.63029030600774
    },
    {
        "code": 3201142002,
        "district_code": 320114,
        "regency_code": 3201,
        "province_code": 32,
        "name": "Purasari",
        "postal_code": "16640",
        "latitude": -6.699366569393763,
        "longitude": 106.60137251536254
    },
    {
        "code": 3201142003,
        "district_code": 320114,
        "regency_code": 3201,
        "province_code": 32,
        "name": "Karyasari",
        "postal_code": "16640",
        "latitude": -6.638229468199058,
        "longitude": 106.62021017991556
    },
    {
        "code": 3201142004,
        "district_code": 320114,
        "regency_code": 3201,
        "province_code": 32,
        "name": "Pabangbon",
        "postal_code": "16640",
        "latitude": -6.627352369791531,
        "longitude": 106.5902027879909
    },
    {
        "code": 3201142005,
        "district_code": 320114,
        "regency_code": 3201,
        "province_code": 32,
        "name": "Karacak",
        "postal_code": "16640",
        "latitude": -6.620318078346624,
        "longitude": 106.62919787972913
    },
    {
        "code": 3201142006,
        "district_code": 320114,
        "regency_code": 3201,
        "province_code": 32,
        "name": "Barengkok",
        "postal_code": "16640",
        "latitude": -6.598058666817086,
        "longitude": 106.6355075951957
    },
    {
        "code": 3201142007,
        "district_code": 320114,
        "regency_code": 3201,
        "province_code": 32,
        "name": "Leuwimekar",
        "postal_code": "16640",
        "latitude": -6.583012747474585,
        "longitude": 106.63308629933269
    },
    {
        "code": 3201142008,
        "district_code": 320114,
        "regency_code": 3201,
        "province_code": 32,
        "name": "Puraseda",
        "postal_code": "16640",
        "latitude": -6.667200043713472,
        "longitude": 106.59726095234716
    },
    {
        "code": 3201142009,
        "district_code": 320114,
        "regency_code": 3201,
        "province_code": 32,
        "name": "Cibeber I",
        "postal_code": "16640",
        "latitude": -6.57589476201083,
        "longitude": 106.61932529367078
    },
    {
        "code": 3201142010,
        "district_code": 320114,
        "regency_code": 3201,
        "province_code": 32,
        "name": "Cibeber II",
        "postal_code": "16640",
        "latitude": -6.601399535008508,
        "longitude": 106.61612595045548
    },
    {
        "code": 3201142011,
        "district_code": 320114,
        "regency_code": 3201,
        "province_code": 32,
        "name": "Karehkel",
        "postal_code": "16640",
        "latitude": -6.549417416987135,
        "longitude": 106.63469742512538
    },
    {
        "code": 3201152001,
        "district_code": 320115,
        "regency_code": 3201,
        "province_code": 32,
        "name": "Ciampea",
        "postal_code": "16620",
        "latitude": -6.542816788774226,
        "longitude": 106.68917402835766
    },
    {
        "code": 3201152002,
        "district_code": 320115,
        "regency_code": 3201,
        "province_code": 32,
        "name": "Cinangka",
        "postal_code": "16620",
        "latitude": -6.591855158999972,
        "longitude": 106.70013811846526
    },
    {
        "code": 3201152003,
        "district_code": 320115,
        "regency_code": 3201,
        "province_code": 32,
        "name": "Cihideungudik",
        "postal_code": "16620",
        "latitude": -6.581650473228751,
        "longitude": 106.71561830267719
    },
    {
        "code": 3201152004,
        "district_code": 320115,
        "regency_code": 3201,
        "province_code": 32,
        "name": "Bojongjengkol",
        "postal_code": "16620",
        "latitude": -6.574799159367185,
        "longitude": 106.70976574038525
    },
    {
        "code": 3201152005,
        "district_code": 320115,
        "regency_code": 3201,
        "province_code": 32,
        "name": "Tegalwaru",
        "postal_code": "16620",
        "latitude": -6.572905996483019,
        "longitude": 106.69860951335792
    },
    {
        "code": 3201152006,
        "district_code": 320115,
        "regency_code": 3201,
        "province_code": 32,
        "name": "Cibuntu",
        "postal_code": "16620",
        "latitude": -6.594214097236703,
        "longitude": 106.68509387071238
    },
    {
        "code": 3201152007,
        "district_code": 320115,
        "regency_code": 3201,
        "province_code": 32,
        "name": "Cicadas",
        "postal_code": "16620",
        "latitude": -6.578563060856166,
        "longitude": 106.68304994485925
    },
    {
        "code": 3201152008,
        "district_code": 320115,
        "regency_code": 3201,
        "province_code": 32,
        "name": "Cibadak",
        "postal_code": "16620",
        "latitude": -6.559807655073462,
        "longitude": 106.68737007998135
    },
    {
        "code": 3201152009,
        "district_code": 320115,
        "regency_code": 3201,
        "province_code": 32,
        "name": "Bojongrangkas",
        "postal_code": "16620",
        "latitude": -6.560121585146806,
        "longitude": 106.69507825940973
    },
    {
        "code": 3201152010,
        "district_code": 320115,
        "regency_code": 3201,
        "province_code": 32,
        "name": "Cihideunghilir",
        "postal_code": "16620",
        "latitude": -6.5700466732414124,
        "longitude": 106.72200936841335
    },
    {
        "code": 3201152011,
        "district_code": 320115,
        "regency_code": 3201,
        "province_code": 32,
        "name": "Cibanteng",
        "postal_code": "16620",
        "latitude": -6.556624117920658,
        "longitude": 106.7112596426377
    },
    {
        "code": 3201152012,
        "district_code": 320115,
        "regency_code": 3201,
        "province_code": 32,
        "name": "Benteng",
        "postal_code": "16620",
        "latitude": -6.546195960239479,
        "longitude": 106.70290279812461
    },
    {
        "code": 3201152013,
        "district_code": 320115,
        "regency_code": 3201,
        "province_code": 32,
        "name": "Ciampea Udik",
        "postal_code": "16620",
        "latitude": -6.611935224104462,
        "longitude": 106.68299220651703
    },
    {
        "code": 3201162001,
        "district_code": 320116,
        "regency_code": 3201,
        "province_code": 32,
        "name": "Situ Udik",
        "postal_code": "16630",
        "latitude": -6.618956342308721,
        "longitude": 106.65197242559333
    },
    {
        "code": 3201162002,
        "district_code": 320116,
        "regency_code": 3201,
        "province_code": 32,
        "name": "Situ Ilir",
        "postal_code": "16630",
        "latitude": -6.602632377225712,
        "longitude": 106.65341812265736
    },
    {
        "code": 3201162003,
        "district_code": 320116,
        "regency_code": 3201,
        "province_code": 32,
        "name": "Cemplang",
        "postal_code": "16630",
        "latitude": -6.578998828689593,
        "longitude": 106.64842026548158
    },
    {
        "code": 3201162004,
        "district_code": 320116,
        "regency_code": 3201,
        "province_code": 32,
        "name": "Cibatok I",
        "postal_code": "16630",
        "latitude": -6.581627828121259,
        "longitude": 106.6658845590677
    },
    {
        "code": 3201162005,
        "district_code": 320116,
        "regency_code": 3201,
        "province_code": 32,
        "name": "Ciaruteun Udik",
        "postal_code": "16630",
        "latitude": -6.604191390104895,
        "longitude": 106.67400207008957
    },
    {
        "code": 3201162006,
        "district_code": 320116,
        "regency_code": 3201,
        "province_code": 32,
        "name": "Leuweungkolot",
        "postal_code": "16630",
        "latitude": -6.559204627561483,
        "longitude": 106.67475439068468
    },
    {
        "code": 3201162007,
        "district_code": 320116,
        "regency_code": 3201,
        "province_code": 32,
        "name": "Cimanggu I",
        "postal_code": "16630",
        "latitude": -6.5621688890423675,
        "longitude": 106.66555104490632
    },
    {
        "code": 3201162008,
        "district_code": 320116,
        "regency_code": 3201,
        "province_code": 32,
        "name": "Cimanggu II",
        "postal_code": "16630",
        "latitude": -6.5695918883890485,
        "longitude": 106.66173760144031
    },
    {
        "code": 3201162009,
        "district_code": 320116,
        "regency_code": 3201,
        "province_code": 32,
        "name": "Dukuh",
        "postal_code": "16630",
        "latitude": -6.565670743855159,
        "longitude": 106.65290428979577
    },
    {
        "code": 3201162010,
        "district_code": 320116,
        "regency_code": 3201,
        "province_code": 32,
        "name": "Cijujung",
        "postal_code": "16630",
        "latitude": -6.55090381184301,
        "longitude": 106.65388288570028
    },
    {
        "code": 3201162011,
        "district_code": 320116,
        "regency_code": 3201,
        "province_code": 32,
        "name": "Ciaruteun Ilir",
        "postal_code": "16630",
        "latitude": -6.540321436253305,
        "longitude": 106.67529072673508
    },
    {
        "code": 3201162012,
        "district_code": 320116,
        "regency_code": 3201,
        "province_code": 32,
        "name": "Cibatok II",
        "postal_code": "16630",
        "latitude": -6.592655840656012,
        "longitude": 106.66727442279095
    },
    {
        "code": 3201162013,
        "district_code": 320116,
        "regency_code": 3201,
        "province_code": 32,
        "name": "Sukamaju",
        "postal_code": "16630",
        "latitude": -6.588806103021926,
        "longitude": 106.6533179915799
    },
    {
        "code": 3201162014,
        "district_code": 320116,
        "regency_code": 3201,
        "province_code": 32,
        "name": "Galuga",
        "postal_code": "16630",
        "latitude": -6.565459703043298,
        "longitude": 106.64224130486654
    },
    {
        "code": 3201162015,
        "district_code": 320116,
        "regency_code": 3201,
        "province_code": 32,
        "name": "Girimulya",
        "postal_code": "16630",
        "latitude": -6.57053257280463,
        "longitude": 106.67667536030842
    },
    {
        "code": 3201172001,
        "district_code": 320117,
        "regency_code": 3201,
        "province_code": 32,
        "name": "Purwabakti",
        "postal_code": "16812",
        "latitude": -6.727429012781863,
        "longitude": 106.63490312878446
    },
    {
        "code": 3201172002,
        "district_code": 320117,
        "regency_code": 3201,
        "province_code": 32,
        "name": "Cibunian",
        "postal_code": "16812",
        "latitude": -6.696457768964155,
        "longitude": 106.62614496119319
    },
    {
        "code": 3201172003,
        "district_code": 320117,
        "regency_code": 3201,
        "province_code": 32,
        "name": "Cibitungwetan",
        "postal_code": "16812",
        "latitude": -6.649218143280559,
        "longitude": 106.63861620111852
    },
    {
        "code": 3201172004,
        "district_code": 320117,
        "regency_code": 3201,
        "province_code": 32,
        "name": "Gunungmenyan",
        "postal_code": "16812",
        "latitude": -6.628298218457956,
        "longitude": 106.66736540509332
    },
    {
        "code": 3201172005,
        "district_code": 320117,
        "regency_code": 3201,
        "province_code": 32,
        "name": "Gunungbunder II",
        "postal_code": "16812",
        "latitude": -6.688382568651814,
        "longitude": 106.70119029193815
    },
    {
        "code": 3201172006,
        "district_code": 320117,
        "regency_code": 3201,
        "province_code": 32,
        "name": "Pasarean",
        "postal_code": "16812",
        "latitude": -6.638383400597292,
        "longitude": 106.66003067551479
    },
    {
        "code": 3201172007,
        "district_code": 320117,
        "regency_code": 3201,
        "province_code": 32,
        "name": "Cimayang",
        "postal_code": "16812",
        "latitude": -6.61010085813296,
        "longitude": 106.6662565159935
    },
    {
        "code": 3201172008,
        "district_code": 320117,
        "regency_code": 3201,
        "province_code": 32,
        "name": "Pamijahan",
        "postal_code": "16812",
        "latitude": -6.644204317797119,
        "longitude": 106.65034276106348
    },
    {
        "code": 3201172009,
        "district_code": 320117,
        "regency_code": 3201,
        "province_code": 32,
        "name": "Cibening",
        "postal_code": "16812",
        "latitude": -6.632043187752701,
        "longitude": 106.6768966336122
    },
    {
        "code": 3201172010,
        "district_code": 320117,
        "regency_code": 3201,
        "province_code": 32,
        "name": "Gunungbunder I",
        "postal_code": "16812",
        "latitude": -6.648365885214158,
        "longitude": 106.68165137142645
    },
    {
        "code": 3201172011,
        "district_code": 320117,
        "regency_code": 3201,
        "province_code": 32,
        "name": "Cibitung Kulon",
        "postal_code": "16812",
        "latitude": -6.664374545531568,
        "longitude": 106.64058061270234
    },
    {
        "code": 3201172012,
        "district_code": 320117,
        "regency_code": 3201,
        "province_code": 32,
        "name": "Gunung Picung",
        "postal_code": "16812",
        "latitude": -6.678260475963513,
        "longitude": 106.68165837505595
    },
    {
        "code": 3201172013,
        "district_code": 320117,
        "regency_code": 3201,
        "province_code": 32,
        "name": "Ciasihan",
        "postal_code": "16812",
        "latitude": -6.712875430169108,
        "longitude": 106.67616706550716
    },
    {
        "code": 3201172014,
        "district_code": 320117,
        "regency_code": 3201,
        "province_code": 32,
        "name": "Gunungsari",
        "postal_code": "16812",
        "latitude": -6.699421854073395,
        "longitude": 106.6848261711405
    },
    {
        "code": 3201172015,
        "district_code": 320117,
        "regency_code": 3201,
        "province_code": 32,
        "name": "Ciasmara",
        "postal_code": "16812",
        "latitude": -6.705992137910768,
        "longitude": 106.66176980775519
    },
    {
        "code": 3201182001,
        "district_code": 320118,
        "regency_code": 3201,
        "province_code": 32,
        "name": "Rumpin",
        "postal_code": "16350",
        "latitude": -6.440003649761994,
        "longitude": 106.64428306794842
    },
    {
        "code": 3201182002,
        "district_code": 320118,
        "regency_code": 3201,
        "province_code": 32,
        "name": "Leuwibatu",
        "postal_code": "16350",
        "latitude": -6.528170783280757,
        "longitude": 106.6199082454857
    },
    {
        "code": 3201182003,
        "district_code": 320118,
        "regency_code": 3201,
        "province_code": 32,
        "name": "Cidokom",
        "postal_code": "16350",
        "latitude": -6.518720039335333,
        "longitude": 106.67452544058781
    },
    {
        "code": 3201182004,
        "district_code": 320118,
        "regency_code": 3201,
        "province_code": 32,
        "name": "Gobang",
        "postal_code": "16350",
        "latitude": -6.514368512852645,
        "longitude": 106.64794379023985
    },
    {
        "code": 3201182005,
        "district_code": 320118,
        "regency_code": 3201,
        "province_code": 32,
        "name": "Cibodas",
        "postal_code": "16350",
        "latitude": -6.489454267454095,
        "longitude": 106.66263426787881
    },
    {
        "code": 3201182006,
        "district_code": 320118,
        "regency_code": 3201,
        "province_code": 32,
        "name": "Rabak",
        "postal_code": "16350",
        "latitude": -6.487295986008439,
        "longitude": 106.62961625709167
    },
    {
        "code": 3201182007,
        "district_code": 320118,
        "regency_code": 3201,
        "province_code": 32,
        "name": "Kampungsawah",
        "postal_code": "16350",
        "latitude": -6.459326477161634,
        "longitude": 106.63240069708668
    },
    {
        "code": 3201182008,
        "district_code": 320118,
        "regency_code": 3201,
        "province_code": 32,
        "name": "Cipinang",
        "postal_code": "16350",
        "latitude": -6.443263240321213,
        "longitude": 106.61438888296223
    },
    {
        "code": 3201182009,
        "district_code": 320118,
        "regency_code": 3201,
        "province_code": 32,
        "name": "Sukasari",
        "postal_code": "16350",
        "latitude": -6.418945684694598,
        "longitude": 106.62237842293955
    },
    {
        "code": 3201182010,
        "district_code": 320118,
        "regency_code": 3201,
        "province_code": 32,
        "name": "Tamansari",
        "postal_code": "16350",
        "latitude": -6.398010861139891,
        "longitude": 106.62872052792774
    },
    {
        "code": 3201182011,
        "district_code": 320118,
        "regency_code": 3201,
        "province_code": 32,
        "name": "Kertajaya",
        "postal_code": "16350",
        "latitude": -6.396349686431801,
        "longitude": 106.60274977679187
    },
    {
        "code": 3201182012,
        "district_code": 320118,
        "regency_code": 3201,
        "province_code": 32,
        "name": "Sukamulya",
        "postal_code": "16350",
        "latitude": -6.372140025198292,
        "longitude": 106.63228615601078
    },
    {
        "code": 3201182013,
        "district_code": 320118,
        "regency_code": 3201,
        "province_code": 32,
        "name": "Mekarsari",
        "postal_code": "16350",
        "latitude": -6.375974711959882,
        "longitude": 106.6035301327825
    },
    {
        "code": 3201182014,
        "district_code": 320118,
        "regency_code": 3201,
        "province_code": 32,
        "name": "Mekarjaya",
        "postal_code": "16350",
        "latitude": -6.531323554789425,
        "longitude": 106.65967593967237
    },
    {
        "code": 3201192001,
        "district_code": 320119,
        "regency_code": 3201,
        "province_code": 32,
        "name": "Curug",
        "postal_code": "16670",
        "latitude": -6.4973206219137,
        "longitude": 106.42528296551784
    },
    {
        "code": 3201192002,
        "district_code": 320119,
        "regency_code": 3201,
        "province_code": 32,
        "name": "Pangradin",
        "postal_code": "16670",
        "latitude": -6.5249863372229004,
        "longitude": 106.47887391494132
    },
    {
        "code": 3201192003,
        "district_code": 320119,
        "regency_code": 3201,
        "province_code": 32,
        "name": "Kalongsawah",
        "postal_code": "16670",
        "latitude": -6.5032719571418856,
        "longitude": 106.49456306497224
    },
    {
        "code": 3201192004,
        "district_code": 320119,
        "regency_code": 3201,
        "province_code": 32,
        "name": "Sipak",
        "postal_code": "16670",
        "latitude": -6.486821795178205,
        "longitude": 106.48335864832976
    },
    {
        "code": 3201192005,
        "district_code": 320119,
        "regency_code": 3201,
        "province_code": 32,
        "name": "Jasinga",
        "postal_code": "16670",
        "latitude": -6.48368362092745,
        "longitude": 106.45032113666889
    },
    {
        "code": 3201192006,
        "district_code": 320119,
        "regency_code": 3201,
        "province_code": 32,
        "name": "Koleang",
        "postal_code": "16670",
        "latitude": -6.46531383442449,
        "longitude": 106.43842380862198
    },
    {
        "code": 3201192007,
        "district_code": 320119,
        "regency_code": 3201,
        "province_code": 32,
        "name": "Cikopomayak",
        "postal_code": "16670",
        "latitude": -6.449217047851519,
        "longitude": 106.46511608427942
    },
    {
        "code": 3201192008,
        "district_code": 320119,
        "regency_code": 3201,
        "province_code": 32,
        "name": "Setu",
        "postal_code": "16670",
        "latitude": -6.46738256091742,
        "longitude": 106.4687613106958
    },
    {
        "code": 3201192009,
        "district_code": 320119,
        "regency_code": 3201,
        "province_code": 32,
        "name": "Barengkok",
        "postal_code": "16670",
        "latitude": -6.430168463752281,
        "longitude": 106.48717317932085
    },
    {
        "code": 3201192010,
        "district_code": 320119,
        "regency_code": 3201,
        "province_code": 32,
        "name": "Bagoang",
        "postal_code": "16670",
        "latitude": -6.429251517051725,
        "longitude": 106.45579790503409
    },
    {
        "code": 3201192011,
        "district_code": 320119,
        "regency_code": 3201,
        "province_code": 32,
        "name": "Pangaur",
        "postal_code": "16670",
        "latitude": -6.396811493587594,
        "longitude": 106.46167501238106
    },
    {
        "code": 3201192012,
        "district_code": 320119,
        "regency_code": 3201,
        "province_code": 32,
        "name": "Pamagersari",
        "postal_code": "16670",
        "latitude": -6.48767944820099,
        "longitude": 106.46540339839959
    },
    {
        "code": 3201192013,
        "district_code": 320119,
        "regency_code": 3201,
        "province_code": 32,
        "name": "Jugala Jaya",
        "postal_code": "16670",
        "latitude": -6.526867436907078,
        "longitude": 106.45601020777843
    },
    {
        "code": 3201192014,
        "district_code": 320119,
        "regency_code": 3201,
        "province_code": 32,
        "name": "Tegalwangi",
        "postal_code": "16670",
        "latitude": -6.464930728886867,
        "longitude": 106.41851051849325
    },
    {
        "code": 3201192015,
        "district_code": 320119,
        "regency_code": 3201,
        "province_code": 32,
        "name": "Neglasari",
        "postal_code": "16670",
        "latitude": -6.4494105003001785,
        "longitude": 106.44929138505879
    },
    {
        "code": 3201192016,
        "district_code": 320119,
        "regency_code": 3201,
        "province_code": 32,
        "name": "Wirajaya",
        "postal_code": "16670",
        "latitude": -6.5257538088053,
        "longitude": 106.42164059824128
    },
    {
        "code": 3201202001,
        "district_code": 320120,
        "regency_code": 3201,
        "province_code": 32,
        "name": "Jagabaya",
        "postal_code": "16360",
        "latitude": -6.393791092654514,
        "longitude": 106.53299506913899
    },
    {
        "code": 3201202002,
        "district_code": 320120,
        "regency_code": 3201,
        "province_code": 32,
        "name": "Gorowong",
        "postal_code": "16360",
        "latitude": -6.3992264984490825,
        "longitude": 106.55819987502689
    },
    {
        "code": 3201202003,
        "district_code": 320120,
        "regency_code": 3201,
        "province_code": 32,
        "name": "Dago",
        "postal_code": "16360",
        "latitude": -6.406483091184199,
        "longitude": 106.5848973592546
    },
    {
        "code": 3201202004,
        "district_code": 320120,
        "regency_code": 3201,
        "province_code": 32,
        "name": "Pingku",
        "postal_code": "16360",
        "latitude": -6.375811459584873,
        "longitude": 106.56906280802156
    },
    {
        "code": 3201202005,
        "district_code": 320120,
        "regency_code": 3201,
        "province_code": 32,
        "name": "Cikuda",
        "postal_code": "16360",
        "latitude": -6.377541862540602,
        "longitude": 106.58397337984785
    },
    {
        "code": 3201202006,
        "district_code": 320120,
        "regency_code": 3201,
        "province_code": 32,
        "name": "Parungpanjang",
        "postal_code": "16360",
        "latitude": -6.349615248350407,
        "longitude": 106.56729752584212
    },
    {
        "code": 3201202007,
        "district_code": 320120,
        "regency_code": 3201,
        "province_code": 32,
        "name": "Lumpang",
        "postal_code": "16360",
        "latitude": -6.362124047219556,
        "longitude": 106.54542590245578
    },
    {
        "code": 3201202008,
        "district_code": 320120,
        "regency_code": 3201,
        "province_code": 32,
        "name": "Cibunar",
        "postal_code": "16360",
        "latitude": -6.342201680811924,
        "longitude": 106.55165105322409
    },
    {
        "code": 3201202009,
        "district_code": 320120,
        "regency_code": 3201,
        "province_code": 32,
        "name": "Jagabita",
        "postal_code": "16360",
        "latitude": -6.334589066330961,
        "longitude": 106.52909133017302
    },
    {
        "code": 3201202010,
        "district_code": 320120,
        "regency_code": 3201,
        "province_code": 32,
        "name": "Gintungcilejet",
        "postal_code": "16360",
        "latitude": -6.368607086238245,
        "longitude": 106.52492490102621
    },
    {
        "code": 3201202011,
        "district_code": 320120,
        "regency_code": 3201,
        "province_code": 32,
        "name": "Kabasiran",
        "postal_code": "16360",
        "latitude": -6.353601602582268,
        "longitude": 106.57828164082186
    },
    {
        "code": 3201212001,
        "district_code": 320121,
        "regency_code": 3201,
        "province_code": 32,
        "name": "Malasari",
        "postal_code": "16650",
        "latitude": -6.71747512638517,
        "longitude": 106.51661021548472
    },
    {
        "code": 3201212002,
        "district_code": 320121,
        "regency_code": 3201,
        "province_code": 32,
        "name": "Curugbitung",
        "postal_code": "16650",
        "latitude": -6.636654482150919,
        "longitude": 106.52417696511169
    },
    {
        "code": 3201212003,
        "district_code": 320121,
        "regency_code": 3201,
        "province_code": 32,
        "name": "Cisarua",
        "postal_code": "16650",
        "latitude": -6.654084903057061,
        "longitude": 106.54592642295802
    },
    {
        "code": 3201212004,
        "district_code": 320121,
        "regency_code": 3201,
        "province_code": 32,
        "name": "Bantarkaret",
        "postal_code": "16650",
        "latitude": -6.679179510455107,
        "longitude": 106.56484602592386
    },
    {
        "code": 3201212005,
        "district_code": 320121,
        "regency_code": 3201,
        "province_code": 32,
        "name": "Hambaro",
        "postal_code": "16650",
        "latitude": -6.586057168421124,
        "longitude": 106.5615678638087
    },
    {
        "code": 3201212006,
        "district_code": 320121,
        "regency_code": 3201,
        "province_code": 32,
        "name": "Kalongliud",
        "postal_code": "16650",
        "latitude": -6.581455017516523,
        "longitude": 106.55669629089842
    },
    {
        "code": 3201212007,
        "district_code": 320121,
        "regency_code": 3201,
        "province_code": 32,
        "name": "Nanggung",
        "postal_code": "16650",
        "latitude": -6.616256173008067,
        "longitude": 106.52477090177509
    },
    {
        "code": 3201212008,
        "district_code": 320121,
        "regency_code": 3201,
        "province_code": 32,
        "name": "Parakanmuncang",
        "postal_code": "16650",
        "latitude": -6.589866015509401,
        "longitude": 106.53864534882611
    },
    {
        "code": 3201212009,
        "district_code": 320121,
        "regency_code": 3201,
        "province_code": 32,
        "name": "Pangkaljaya",
        "postal_code": "16650",
        "latitude": -6.604060090031846,
        "longitude": 106.54861018191762
    },
    {
        "code": 3201212010,
        "district_code": 320121,
        "regency_code": 3201,
        "province_code": 32,
        "name": "Sukaluyu",
        "postal_code": "16650",
        "latitude": -6.598247498216237,
        "longitude": 106.56761813814097
    },
    {
        "code": 3201212011,
        "district_code": 320121,
        "regency_code": 3201,
        "province_code": 32,
        "name": "Batu Tulis",
        "postal_code": "16650",
        "latitude": -6.567875312435092,
        "longitude": 106.55093981457111
    },
    {
        "code": 3201222001,
        "district_code": 320122,
        "regency_code": 3201,
        "province_code": 32,
        "name": "Sukamaju",
        "postal_code": "16660",
        "latitude": -6.547734390910492,
        "longitude": 106.51141609902598
    },
    {
        "code": 3201222002,
        "district_code": 320122,
        "regency_code": 3201,
        "province_code": 32,
        "name": "Cigudeg",
        "postal_code": "16660",
        "latitude": -6.554062145838138,
        "longitude": 106.53829815601648
    },
    {
        "code": 3201222003,
        "district_code": 320122,
        "regency_code": 3201,
        "province_code": 32,
        "name": "Bunar",
        "postal_code": "16660",
        "latitude": -6.530416078598125,
        "longitude": 106.5002477819283
    },
    {
        "code": 3201222004,
        "district_code": 320122,
        "regency_code": 3201,
        "province_code": 32,
        "name": "Banyuresmi",
        "postal_code": "16660",
        "latitude": -6.526810555854194,
        "longitude": 106.5818761060132
    },
    {
        "code": 3201222005,
        "district_code": 320122,
        "regency_code": 3201,
        "province_code": 32,
        "name": "Cintamanik",
        "postal_code": "16660",
        "latitude": -6.492316682216726,
        "longitude": 106.53153637328685
    },
    {
        "code": 3201222006,
        "district_code": 320122,
        "regency_code": 3201,
        "province_code": 32,
        "name": "Argapura",
        "postal_code": "16660",
        "latitude": -6.4639032183926215,
        "longitude": 106.5032782005849
    },
    {
        "code": 3201222007,
        "district_code": 320122,
        "regency_code": 3201,
        "province_code": 32,
        "name": "Bangunjaya",
        "postal_code": "16660",
        "latitude": -6.451113208788066,
        "longitude": 106.53853417481443
    },
    {
        "code": 3201222008,
        "district_code": 320122,
        "regency_code": 3201,
        "province_code": 32,
        "name": "Rengasjajar",
        "postal_code": "16660",
        "latitude": -6.446290182953296,
        "longitude": 106.56275745166018
    },
    {
        "code": 3201222009,
        "district_code": 320122,
        "regency_code": 3201,
        "province_code": 32,
        "name": "Batujajar",
        "postal_code": "16660",
        "latitude": -6.4332808215552415,
        "longitude": 106.58207105538943
    },
    {
        "code": 3201222010,
        "district_code": 320122,
        "regency_code": 3201,
        "province_code": 32,
        "name": "Wargajaya",
        "postal_code": "16660",
        "latitude": -6.529048051983153,
        "longitude": 106.53444548673905
    },
    {
        "code": 3201222011,
        "district_code": 320122,
        "regency_code": 3201,
        "province_code": 32,
        "name": "Sukaraksa",
        "postal_code": "16660",
        "latitude": -6.583401265059143,
        "longitude": 106.52488225945812
    },
    {
        "code": 3201222012,
        "district_code": 320122,
        "regency_code": 3201,
        "province_code": 32,
        "name": "Banyuwangi",
        "postal_code": "16660",
        "latitude": -6.505831200675824,
        "longitude": 106.55775982900715
    },
    {
        "code": 3201222013,
        "district_code": 320122,
        "regency_code": 3201,
        "province_code": 32,
        "name": "Banyuasih",
        "postal_code": "16660",
        "latitude": -6.490659301710558,
        "longitude": 106.58987419353022
    },
    {
        "code": 3201222014,
        "district_code": 320122,
        "regency_code": 3201,
        "province_code": 32,
        "name": "Mekarjaya",
        "postal_code": "16660",
        "latitude": -6.514528590871844,
        "longitude": 106.51125844538085
    },
    {
        "code": 3201222015,
        "district_code": 320122,
        "regency_code": 3201,
        "province_code": 32,
        "name": "Tegallega",
        "postal_code": "16660",
        "latitude": -6.462505321218734,
        "longitude": 106.58894563582534
    },
    {
        "code": 3201232001,
        "district_code": 320123,
        "regency_code": 3201,
        "province_code": 32,
        "name": "Tapos",
        "postal_code": "16370",
        "latitude": -6.400352900664286,
        "longitude": 106.49539417088049
    },
    {
        "code": 3201232002,
        "district_code": 320123,
        "regency_code": 3201,
        "province_code": 32,
        "name": "Ciomas",
        "postal_code": "16370",
        "latitude": -6.419481179895974,
        "longitude": 106.52507265495107
    },
    {
        "code": 3201232003,
        "district_code": 320123,
        "regency_code": 3201,
        "province_code": 32,
        "name": "Batok",
        "postal_code": "16370",
        "latitude": -6.365760441417574,
        "longitude": 106.50371568532141
    },
    {
        "code": 3201232004,
        "district_code": 320123,
        "regency_code": 3201,
        "province_code": 32,
        "name": "Babakan",
        "postal_code": "16370",
        "latitude": -6.364515813075826,
        "longitude": 106.47077259315846
    },
    {
        "code": 3201232005,
        "district_code": 320123,
        "regency_code": 3201,
        "province_code": 32,
        "name": "Tenjo",
        "postal_code": "16370",
        "latitude": -6.33096948953534,
        "longitude": 106.45427685467446
    },
    {
        "code": 3201232006,
        "district_code": 320123,
        "regency_code": 3201,
        "province_code": 32,
        "name": "Cilaku",
        "postal_code": "16370",
        "latitude": -6.337329905877298,
        "longitude": 106.47412228504172
    },
    {
        "code": 3201232007,
        "district_code": 320123,
        "regency_code": 3201,
        "province_code": 32,
        "name": "Singabraja",
        "postal_code": "16370",
        "latitude": -6.351891245688397,
        "longitude": 106.44053489945287
    },
    {
        "code": 3201232008,
        "district_code": 320123,
        "regency_code": 3201,
        "province_code": 32,
        "name": "Singabangsa",
        "postal_code": "16370",
        "latitude": -6.314830074976485,
        "longitude": 106.46807969159676
    },
    {
        "code": 3201232009,
        "district_code": 320123,
        "regency_code": 3201,
        "province_code": 32,
        "name": "Bojong",
        "postal_code": "16370",
        "latitude": -6.380994145712964,
        "longitude": 106.4419751195383
    },
    {
        "code": 3201242001,
        "district_code": 320124,
        "regency_code": 3201,
        "province_code": 32,
        "name": "Cileungsi",
        "postal_code": "16720",
        "latitude": -6.723792547942502,
        "longitude": 106.89435126823187
    },
    {
        "code": 3201242002,
        "district_code": 320124,
        "regency_code": 3201,
        "province_code": 32,
        "name": "Citapen",
        "postal_code": "16720",
        "latitude": -6.699109253622256,
        "longitude": 106.87096118555083
    },
    {
        "code": 3201242003,
        "district_code": 320124,
        "regency_code": 3201,
        "province_code": 32,
        "name": "Cibedug",
        "postal_code": "16720",
        "latitude": -6.709824815495976,
        "longitude": 106.89355335220147
    },
    {
        "code": 3201242004,
        "district_code": 320124,
        "regency_code": 3201,
        "province_code": 32,
        "name": "Jambuluwuk",
        "postal_code": "16720",
        "latitude": -6.689979315035458,
        "longitude": 106.87953331192678
    },
    {
        "code": 3201242005,
        "district_code": 320124,
        "regency_code": 3201,
        "province_code": 32,
        "name": "Banjarsari",
        "postal_code": "16720",
        "latitude": -6.683752015828842,
        "longitude": 106.87042375715498
    },
    {
        "code": 3201242006,
        "district_code": 320124,
        "regency_code": 3201,
        "province_code": 32,
        "name": "Teluk Pinang",
        "postal_code": "16720",
        "latitude": -6.681922938782468,
        "longitude": 106.8515725106322
    },
    {
        "code": 3201242007,
        "district_code": 320124,
        "regency_code": 3201,
        "province_code": 32,
        "name": "Banjar Waru",
        "postal_code": "16720",
        "latitude": -6.669618468097746,
        "longitude": 106.85503918438954
    },
    {
        "code": 3201242008,
        "district_code": 320124,
        "regency_code": 3201,
        "province_code": 32,
        "name": "Bendungan",
        "postal_code": "16720",
        "latitude": -6.665948890209694,
        "longitude": 106.86238333334369
    },
    {
        "code": 3201242009,
        "district_code": 320124,
        "regency_code": 3201,
        "province_code": 32,
        "name": "Pandan Sari",
        "postal_code": "16720",
        "latitude": -6.648658807480878,
        "longitude": 106.85469927259642
    },
    {
        "code": 3201242010,
        "district_code": 320124,
        "regency_code": 3201,
        "province_code": 32,
        "name": "Bojong Murni",
        "postal_code": "16720",
        "latitude": -6.735032525619303,
        "longitude": 106.92875532669102
    },
    {
        "code": 3201242011,
        "district_code": 320124,
        "regency_code": 3201,
        "province_code": 32,
        "name": "Banjar Wangi",
        "postal_code": "16720",
        "latitude": -6.681641529040058,
        "longitude": 106.85986668998943
    },
    {
        "code": 3201242012,
        "district_code": 320124,
        "regency_code": 3201,
        "province_code": 32,
        "name": "Ciawi",
        "postal_code": "16720",
        "latitude": -6.659056210280058,
        "longitude": 106.84912975571017
    },
    {
        "code": 3201242013,
        "district_code": 320124,
        "regency_code": 3201,
        "province_code": 32,
        "name": "Bitungsari",
        "postal_code": "16720",
        "latitude": -6.6827081931051815,
        "longitude": 106.84186260000257
    },
    {
        "code": 3201251010,
        "district_code": 320125,
        "regency_code": 3201,
        "province_code": 32,
        "name": "Cisarua",
        "postal_code": "16750",
        "latitude": -6.678049326796025,
        "longitude": 106.9364325551449
    },
    {
        "code": 3201252001,
        "district_code": 320125,
        "regency_code": 3201,
        "province_code": 32,
        "name": "Batulayang",
        "postal_code": "16750",
        "latitude": -6.675626591130034,
        "longitude": 106.94767458927282
    },
    {
        "code": 3201252002,
        "district_code": 320125,
        "regency_code": 3201,
        "province_code": 32,
        "name": "Jogjogan",
        "postal_code": "16750",
        "latitude": -6.662437999106931,
        "longitude": 106.93525316334195
    },
    {
        "code": 3201252003,
        "district_code": 320125,
        "regency_code": 3201,
        "province_code": 32,
        "name": "Cibeureum",
        "postal_code": "16750",
        "latitude": -6.719350416145257,
        "longitude": 106.94949857101317
    },
    {
        "code": 3201252004,
        "district_code": 320125,
        "regency_code": 3201,
        "province_code": 32,
        "name": "Cilember",
        "postal_code": "16750",
        "latitude": -6.6523107996194435,
        "longitude": 106.92069840571338
    },
    {
        "code": 3201252005,
        "district_code": 320125,
        "regency_code": 3201,
        "province_code": 32,
        "name": "Citeko",
        "postal_code": "16750",
        "latitude": -6.701120391521753,
        "longitude": 106.9337661251522
    },
    {
        "code": 3201252006,
        "district_code": 320125,
        "regency_code": 3201,
        "province_code": 32,
        "name": "Tugu Selatan",
        "postal_code": "16750",
        "latitude": -6.720646202214109,
        "longitude": 106.97070859106967
    },
    {
        "code": 3201252007,
        "district_code": 320125,
        "regency_code": 3201,
        "province_code": 32,
        "name": "Leuwimalang",
        "postal_code": "16750",
        "latitude": -6.665524290123843,
        "longitude": 106.92507966021716
    },
    {
        "code": 3201252008,
        "district_code": 320125,
        "regency_code": 3201,
        "province_code": 32,
        "name": "Kopo",
        "postal_code": "16750",
        "latitude": -6.6675022980391825,
        "longitude": 106.91166770732329
    },
    {
        "code": 3201252009,
        "district_code": 320125,
        "regency_code": 3201,
        "province_code": 32,
        "name": "Tugu Utara",
        "postal_code": "16750",
        "latitude": -6.685075848057833,
        "longitude": 106.97932825459135
    },
    {
        "code": 3201262001,
        "district_code": 320126,
        "regency_code": 3201,
        "province_code": 32,
        "name": "Sukamaju",
        "postal_code": "16770",
        "latitude": -6.680624370326387,
        "longitude": 106.88633907609987
    },
    {
        "code": 3201262002,
        "district_code": 320126,
        "regency_code": 3201,
        "province_code": 32,
        "name": "Kuta",
        "postal_code": "16770",
        "latitude": -6.6982880290389,
        "longitude": 106.92208126238278
    },
    {
        "code": 3201262003,
        "district_code": 320126,
        "regency_code": 3201,
        "province_code": 32,
        "name": "Gadog",
        "postal_code": "16770",
        "latitude": -6.661096224333379,
        "longitude": 106.87362157932996
    },
    {
        "code": 3201262004,
        "district_code": 320126,
        "regency_code": 3201,
        "province_code": 32,
        "name": "Sukakarya",
        "postal_code": "16770",
        "latitude": -6.6694741616945485,
        "longitude": 106.89296240398576
    },
    {
        "code": 3201262005,
        "district_code": 320126,
        "regency_code": 3201,
        "province_code": 32,
        "name": "Megamendung",
        "postal_code": "16770",
        "latitude": -6.649240307042467,
        "longitude": 106.95168539328104
    },
    {
        "code": 3201262006,
        "district_code": 320126,
        "regency_code": 3201,
        "province_code": 32,
        "name": "Cipayung",
        "postal_code": "16770",
        "latitude": -6.649770465492115,
        "longitude": 106.88572708464989
    },
    {
        "code": 3201262007,
        "district_code": 320126,
        "regency_code": 3201,
        "province_code": 32,
        "name": "Sukamanah",
        "postal_code": "16770",
        "latitude": -6.688107737313243,
        "longitude": 106.8947472034776
    },
    {
        "code": 3201262008,
        "district_code": 320126,
        "regency_code": 3201,
        "province_code": 32,
        "name": "Sukagalih",
        "postal_code": "16770",
        "latitude": -6.698768985589632,
        "longitude": 106.91406979790759
    },
    {
        "code": 3201262009,
        "district_code": 320126,
        "regency_code": 3201,
        "province_code": 32,
        "name": "Cipayung Girang",
        "postal_code": "16770",
        "latitude": -6.645929918101987,
        "longitude": 106.90169217224414
    },
    {
        "code": 3201262010,
        "district_code": 320126,
        "regency_code": 3201,
        "province_code": 32,
        "name": "Sukamahi",
        "postal_code": "16770",
        "latitude": -6.670650630500882,
        "longitude": 106.87169229214102
    },
    {
        "code": 3201262011,
        "district_code": 320126,
        "regency_code": 3201,
        "province_code": 32,
        "name": "Sukaresmi",
        "postal_code": "16770",
        "latitude": -6.702032157619885,
        "longitude": 106.90720835651153
    },
    {
        "code": 3201262012,
        "district_code": 320126,
        "regency_code": 3201,
        "province_code": 32,
        "name": "Pasir Angin",
        "postal_code": "16770",
        "latitude": -6.642812915650983,
        "longitude": 106.86757364495305
    },
    {
        "code": 3201272001,
        "district_code": 320127,
        "regency_code": 3201,
        "province_code": 32,
        "name": "Pasir Muncang",
        "postal_code": "16730",
        "latitude": -6.723664642819298,
        "longitude": 106.83183927328727
    },
    {
        "code": 3201272002,
        "district_code": 320127,
        "regency_code": 3201,
        "province_code": 32,
        "name": "Cimande Hilir",
        "postal_code": "16730",
        "latitude": -6.699847161564342,
        "longitude": 106.82517549404125
    },
    {
        "code": 3201272003,
        "district_code": 320127,
        "regency_code": 3201,
        "province_code": 32,
        "name": "Ciderum",
        "postal_code": "16730",
        "latitude": -6.698031586106474,
        "longitude": 106.8494785033104
    },
    {
        "code": 3201272004,
        "district_code": 320127,
        "regency_code": 3201,
        "province_code": 32,
        "name": "Caringin",
        "postal_code": "16730",
        "latitude": -6.710895359638061,
        "longitude": 106.82667413926382
    },
    {
        "code": 3201272005,
        "district_code": 320127,
        "regency_code": 3201,
        "province_code": 32,
        "name": "Ciherang Pondok",
        "postal_code": "16730",
        "latitude": -6.688041798582975,
        "longitude": 106.829967788169
    },
    {
        "code": 3201272006,
        "district_code": 320127,
        "regency_code": 3201,
        "province_code": 32,
        "name": "Cinagara",
        "postal_code": "16730",
        "latitude": -6.747349326680576,
        "longitude": 106.85453392944835
    },
    {
        "code": 3201272007,
        "district_code": 320127,
        "regency_code": 3201,
        "province_code": 32,
        "name": "Cimande",
        "postal_code": "16730",
        "latitude": -6.746289582949196,
        "longitude": 106.89483545853396
    },
    {
        "code": 3201272008,
        "district_code": 320127,
        "regency_code": 3201,
        "province_code": 32,
        "name": "Pancawati",
        "postal_code": "16730",
        "latitude": -6.727534400718274,
        "longitude": 106.88118302607515
    },
    {
        "code": 3201272009,
        "district_code": 320127,
        "regency_code": 3201,
        "province_code": 32,
        "name": "Muara Jaya",
        "postal_code": "16730",
        "latitude": -6.722361766645324,
        "longitude": 106.81759419605005
    },
    {
        "code": 3201272010,
        "district_code": 320127,
        "regency_code": 3201,
        "province_code": 32,
        "name": "Pasirbuncir",
        "postal_code": "16730",
        "latitude": -6.756449532510128,
        "longitude": 106.8509119648937
    },
    {
        "code": 3201272011,
        "district_code": 320127,
        "regency_code": 3201,
        "province_code": 32,
        "name": "Lemah Duhur",
        "postal_code": "16730",
        "latitude": -6.723295848437397,
        "longitude": 106.84842286993005
    },
    {
        "code": 3201272012,
        "district_code": 320127,
        "regency_code": 3201,
        "province_code": 32,
        "name": "Tangkil",
        "postal_code": "16730",
        "latitude": -6.754889959403659,
        "longitude": 106.88305608215173
    },
    {
        "code": 3201282001,
        "district_code": 320128,
        "regency_code": 3201,
        "province_code": 32,
        "name": "Cijeruk",
        "postal_code": "16740",
        "latitude": -6.709439812133974,
        "longitude": 106.7724274877559
    },
    {
        "code": 3201282002,
        "district_code": 320128,
        "regency_code": 3201,
        "province_code": 32,
        "name": "Cipelang",
        "postal_code": "16740",
        "latitude": -6.697083421045384,
        "longitude": 106.77609089532679
    },
    {
        "code": 3201282003,
        "district_code": 320128,
        "regency_code": 3201,
        "province_code": 32,
        "name": "Warung Menteng",
        "postal_code": "16740",
        "latitude": -6.703970915069568,
        "longitude": 106.80716506401077
    },
    {
        "code": 3201282004,
        "district_code": 320128,
        "regency_code": 3201,
        "province_code": 32,
        "name": "Tajur Halang",
        "postal_code": "16740",
        "latitude": -6.6803972592921435,
        "longitude": 106.77342453542025
    },
    {
        "code": 3201282005,
        "district_code": 320128,
        "regency_code": 3201,
        "province_code": 32,
        "name": "Cipicung",
        "postal_code": "16740",
        "latitude": -6.674603451769292,
        "longitude": 106.80503719902124
    },
    {
        "code": 3201282006,
        "district_code": 320128,
        "regency_code": 3201,
        "province_code": 32,
        "name": "Cibalung",
        "postal_code": "16740",
        "latitude": -6.686343304708138,
        "longitude": 106.81137064182113
    },
    {
        "code": 3201282007,
        "district_code": 320128,
        "regency_code": 3201,
        "province_code": 32,
        "name": "Sukaharja",
        "postal_code": "16740",
        "latitude": -6.6718570997663855,
        "longitude": 106.76704806636306
    },
    {
        "code": 3201282008,
        "district_code": 320128,
        "regency_code": 3201,
        "province_code": 32,
        "name": "Palasari",
        "postal_code": "16740",
        "latitude": -6.659067447192996,
        "longitude": 106.79934697121135
    },
    {
        "code": 3201282009,
        "district_code": 320128,
        "regency_code": 3201,
        "province_code": 32,
        "name": "Tanjungsari",
        "postal_code": "16740",
        "latitude": -6.678745965945917,
        "longitude": 106.78681368814293
    },
    {
        "code": 3201291003,
        "district_code": 320129,
        "regency_code": 3201,
        "province_code": 32,
        "name": "Padasuka",
        "postal_code": "16610",
        "latitude": -6.59543486482715,
        "longitude": 106.7597305994939
    },
    {
        "code": 3201292001,
        "district_code": 320129,
        "regency_code": 3201,
        "province_code": 32,
        "name": "Mekarjaya",
        "postal_code": "16610",
        "latitude": -6.611521530614622,
        "longitude": 106.77705842972418
    },
    {
        "code": 3201292002,
        "district_code": 320129,
        "regency_code": 3201,
        "province_code": 32,
        "name": "Sukaharja",
        "postal_code": "16610",
        "latitude": -6.612776562275238,
        "longitude": 106.74368507257208
    },
    {
        "code": 3201292004,
        "district_code": 320129,
        "regency_code": 3201,
        "province_code": 32,
        "name": "Parakan",
        "postal_code": "16610",
        "latitude": -6.620969716812923,
        "longitude": 106.76909209906356
    },
    {
        "code": 3201292005,
        "district_code": 320129,
        "regency_code": 3201,
        "province_code": 32,
        "name": "Ciomas",
        "postal_code": "16610",
        "latitude": -6.607160719599811,
        "longitude": 106.76945551753754
    },
    {
        "code": 3201292006,
        "district_code": 320129,
        "regency_code": 3201,
        "province_code": 32,
        "name": "Pagelaran",
        "postal_code": "16610",
        "latitude": -6.611826071879024,
        "longitude": 106.76166825157753
    },
    {
        "code": 3201292007,
        "district_code": 320129,
        "regency_code": 3201,
        "province_code": 32,
        "name": "Sukamakmur",
        "postal_code": "16610",
        "latitude": -6.613061937160339,
        "longitude": 106.75175000066578
    },
    {
        "code": 3201292008,
        "district_code": 320129,
        "regency_code": 3201,
        "province_code": 32,
        "name": "Ciapus",
        "postal_code": "16610",
        "latitude": -6.598415530825545,
        "longitude": 106.74886783915738
    },
    {
        "code": 3201292009,
        "district_code": 320129,
        "regency_code": 3201,
        "province_code": 32,
        "name": "Kota Batu",
        "postal_code": "16610",
        "latitude": -6.627242052592687,
        "longitude": 106.78168415020468
    },
    {
        "code": 3201292010,
        "district_code": 320129,
        "regency_code": 3201,
        "province_code": 32,
        "name": "Laladon",
        "postal_code": "16610",
        "latitude": -6.584175898061004,
        "longitude": 106.75449725912152
    },
    {
        "code": 3201292011,
        "district_code": 320129,
        "regency_code": 3201,
        "province_code": 32,
        "name": "Ciomas Rahayu",
        "postal_code": "16610",
        "latitude": -6.593189900547349,
        "longitude": 106.76485222560329
    },
    {
        "code": 3201302001,
        "district_code": 320130,
        "regency_code": 3201,
        "province_code": 32,
        "name": "Sukadamai",
        "postal_code": "16680",
        "latitude": -6.6201757193851325,
        "longitude": 106.73253931493058
    },
    {
        "code": 3201302002,
        "district_code": 320130,
        "regency_code": 3201,
        "province_code": 32,
        "name": "Ciherang",
        "postal_code": "16680",
        "latitude": -6.584241359484026,
        "longitude": 106.74492106205896
    },
    {
        "code": 3201302003,
        "district_code": 320130,
        "regency_code": 3201,
        "province_code": 32,
        "name": "Sinarsari",
        "postal_code": "16680",
        "latitude": -6.582240910815738,
        "longitude": 106.73307297123505
    },
    {
        "code": 3201302004,
        "district_code": 320130,
        "regency_code": 3201,
        "province_code": 32,
        "name": "Sukawening",
        "postal_code": "16680",
        "latitude": -6.601363520730791,
        "longitude": 106.73564643305775
    },
    {
        "code": 3201302005,
        "district_code": 320130,
        "regency_code": 3201,
        "province_code": 32,
        "name": "Petir",
        "postal_code": "16680",
        "latitude": -6.609341072563615,
        "longitude": 106.72318989290525
    },
    {
        "code": 3201302006,
        "district_code": 320130,
        "regency_code": 3201,
        "province_code": 32,
        "name": "Purwasari",
        "postal_code": "16680",
        "latitude": -6.621490934666048,
        "longitude": 106.71603847954555
    },
    {
        "code": 3201302007,
        "district_code": 320130,
        "regency_code": 3201,
        "province_code": 32,
        "name": "Cikarawang",
        "postal_code": "16680",
        "latitude": -6.54590963515084,
        "longitude": 106.73042663928643
    },
    {
        "code": 3201302008,
        "district_code": 320130,
        "regency_code": 3201,
        "province_code": 32,
        "name": "Babakan",
        "postal_code": "16680",
        "latitude": -6.556775638243451,
        "longitude": 106.72562565675135
    },
    {
        "code": 3201302009,
        "district_code": 320130,
        "regency_code": 3201,
        "province_code": 32,
        "name": "Dramaga",
        "postal_code": "16680",
        "latitude": -6.5725450020643255,
        "longitude": 106.73576035123736
    },
    {
        "code": 3201302010,
        "district_code": 320130,
        "regency_code": 3201,
        "province_code": 32,
        "name": "Neglasari",
        "postal_code": "16680",
        "latitude": -6.58738846380646,
        "longitude": 106.72592392513803
    },
    {
        "code": 3201312001,
        "district_code": 320131,
        "regency_code": 3201,
        "province_code": 32,
        "name": "Sukamantri",
        "postal_code": "16611",
        "latitude": -6.648604619151659,
        "longitude": 106.77160675845411
    },
    {
        "code": 3201312002,
        "district_code": 320131,
        "regency_code": 3201,
        "province_code": 32,
        "name": "Sirnagalih",
        "postal_code": "16611",
        "latitude": -6.63588625325891,
        "longitude": 106.77099458917749
    },
    {
        "code": 3201312003,
        "district_code": 320131,
        "regency_code": 3201,
        "province_code": 32,
        "name": "Pasireurih",
        "postal_code": "16611",
        "latitude": -6.637577463312602,
        "longitude": 106.7615378759438
    },
    {
        "code": 3201312004,
        "district_code": 320131,
        "regency_code": 3201,
        "province_code": 32,
        "name": "Tamansari",
        "postal_code": "16611",
        "latitude": -6.677981587997492,
        "longitude": 106.743527066964
    },
    {
        "code": 3201312005,
        "district_code": 320131,
        "regency_code": 3201,
        "province_code": 32,
        "name": "Sukaluyu",
        "postal_code": "16611",
        "latitude": -6.639611138754356,
        "longitude": 106.74340769336551
    },
    {
        "code": 3201312006,
        "district_code": 320131,
        "regency_code": 3201,
        "province_code": 32,
        "name": "Sukaresmi",
        "postal_code": "16611",
        "latitude": -6.632333414955151,
        "longitude": 106.75321510842828
    },
    {
        "code": 3201312007,
        "district_code": 320131,
        "regency_code": 3201,
        "province_code": 32,
        "name": "Sukajaya",
        "postal_code": "16611",
        "latitude": -6.644645060739119,
        "longitude": 106.73401275164183
    },
    {
        "code": 3201312008,
        "district_code": 320131,
        "regency_code": 3201,
        "province_code": 32,
        "name": "Sukajadi",
        "postal_code": "16611",
        "latitude": -6.64810129165856,
        "longitude": 106.72408116967617
    },
    {
        "code": 3201322001,
        "district_code": 320132,
        "regency_code": 3201,
        "province_code": 32,
        "name": "Klapanunggal",
        "postal_code": "16710",
        "latitude": -6.466727292838293,
        "longitude": 106.95908723376067
    },
    {
        "code": 3201322002,
        "district_code": 320132,
        "regency_code": 3201,
        "province_code": 32,
        "name": "Bojong",
        "postal_code": "16710",
        "latitude": -6.4520014863842166,
        "longitude": 106.99851911031193
    },
    {
        "code": 3201322003,
        "district_code": 320132,
        "regency_code": 3201,
        "province_code": 32,
        "name": "Nambo",
        "postal_code": "16710",
        "latitude": -6.476569584709196,
        "longitude": 106.93048262551177
    },
    {
        "code": 3201322004,
        "district_code": 320132,
        "regency_code": 3201,
        "province_code": 32,
        "name": "Lulut",
        "postal_code": "16710",
        "latitude": -6.492031022054543,
        "longitude": 106.91542800969872
    },
    {
        "code": 3201322005,
        "district_code": 320132,
        "regency_code": 3201,
        "province_code": 32,
        "name": "Cikahuripan",
        "postal_code": "16710",
        "latitude": -6.454603668207637,
        "longitude": 106.97603276512604
    },
    {
        "code": 3201322006,
        "district_code": 320132,
        "regency_code": 3201,
        "province_code": 32,
        "name": "Kembang Kuning",
        "postal_code": "16710",
        "latitude": -6.449497900077832,
        "longitude": 106.93887375762105
    },
    {
        "code": 3201322007,
        "district_code": 320132,
        "regency_code": 3201,
        "province_code": 32,
        "name": "Bantar Jati",
        "postal_code": "16710",
        "latitude": -6.468895987728128,
        "longitude": 106.9044515641075
    },
    {
        "code": 3201322008,
        "district_code": 320132,
        "regency_code": 3201,
        "province_code": 32,
        "name": "Leuwikaret",
        "postal_code": "16710",
        "latitude": -6.516222007844006,
        "longitude": 106.94315301827336
    },