[
    {
        "code": 140101,
        "regency_code": 1401,
        "province_code": 14,
        "name": "Bangkinang Kota",
        "latitude": 0.2650117446905743,
        "longitude": 101.07289756343394
    },
    {
        "code": 140102,
        "regency_code": 1401,
        "province_code": 14,
        "name": "Kampar",
        "latitude": 0.2794776399717976,
        "longitude": 101.12701555235573
    },
    {
        "code": 140103,
        "regency_code": 1401,
        "province_code": 14,
        "name": "Tambang",
        "latitude": 0.37699023611710625,
        "longitude": 101.30504178034066
    },
    {
        "code": 140104,
        "regency_code": 1401,
        "province_code": 14,
        "name": "XIII Koto Kampar",
        "latitude": 0.2267858810807107,
        "longitude": 100.83053647673992
    },
    {
        "code": 140105,
        "regency_code": 1401,
        "province_code": 14,
        "name": "Kuok",
        "latitude": 0.3452016778811022,
        "longitude": 100.91031801976185
    },
    {
        "code": 140106,
        "regency_code": 1401,
        "province_code": 14,
        "name": "Siak Hulu",
        "latitude": 0.3542879484841517,
        "longitude": 101.53764280104618
    },
    {
        "code": 140107,
        "regency_code": 1401,
        "province_code": 14,
        "name": "Kampar Kiri",
        "latitude": -0.0022029491627510458,
        "longitude": 101.11483798303273
    },
    {
        "code": 140108,
        "regency_code": 1401,
        "province_code": 14,
        "name": "Kampar Kiri Hilir",
        "latitude": 0.13228522201573092,
        "longitude": 101.45976276065704
    },
    {
        "code": 140109,
        "regency_code": 1401,
        "province_code": 14,
        "name": "Kampar Kiri Hulu",
        "latitude": -0.18245320812707996,
        "longitude": 100.94791761669528
    },
    {
        "code": 140110,
        "regency_code": 1401,
        "province_code": 14,
        "name": "Tapung",
        "latitude": 0.585765390084993,
        "longitude": 101.09211607886336
    },
    {
        "code": 140111,
        "regency_code": 1401,
        "province_code": 14,
        "name": "Tapung Hilir",
        "latitude": 0.7836258339079822,
        "longitude": 101.13283550763656
    },
    {
        "code": 140112,
        "regency_code": 1401,
        "province_code": 14,
        "name": "Tapung Hulu",
        "latitude": 0.7604496857395657,
        "longitude": 100.81839381359418
    },
    {
        "code": 140113,
        "regency_code": 1401,
        "province_code": 14,
        "name": "Salo",
        "latitude": 0.2983576285727233,
        "longitude": 101.00791800091687
    },
    {
        "code": 140114,
        "regency_code": 1401,
        "province_code": 14,
        "name": "Rumbio Jaya",
        "latitude": 0.419646075030563,
        "longitude": 101.14898177185046
    },
    {
        "code": 140115,
        "regency_code": 1401,
        "province_code": 14,
        "name": "Bangkinang",
        "latitude": 0.4394062438825852,
        "longitude": 101.01616423442995
    },
    {
        "code": 140116,
        "regency_code": 1401,
        "province_code": 14,
        "name": "Perhentian Raja",
        "latitude": 0.31495326935434287,
        "longitude": 101.41203279824838
    },
    {
        "code": 140117,
        "regency_code": 1401,
        "province_code": 14,
        "name": "Kampa",
        "latitude": 0.35582178567193207,
        "longitude": 101.19774165489031
    },
    {
        "code": 140118,
        "regency_code": 1401,
        "province_code": 14,
        "name": "Kampar Utara",
        "latitude": 0.40994639416126766,
        "longitude": 101.0850465727026
    },
    {
        "code": 140119,
        "regency_code": 1401,
        "province_code": 14,
        "name": "Kampar Kiri Tengah",
        "latitude": 0.14052213525251253,
        "longitude": 101.32389747339433
    },
    {
        "code": 140120,
        "regency_code": 1401,
        "province_code": 14,
        "name": "Gunung Sahilan",
        "latitude": 0.0411989910056596,
        "longitude": 101.30268244620744
    },
    {
        "code": 140121,
        "regency_code": 1401,
        "province_code": 14,
        "name": "Koto Kampar Hulu",
        "latitude": 0.3766627336830827,
        "longitude": 100.55453609192995
    },
    {
        "code": 140201,
        "regency_code": 1402,
        "province_code": 14,
        "name": "Rengat",
        "latitude": -0.21405353072196537,
        "longitude": 102.54464320860916
    },
    {
        "code": 140202,
        "regency_code": 1402,
        "province_code": 14,
        "name": "Rengat Barat",
        "latitude": -0.3363296182541739,
        "longitude": 102.42245416481123
    },
    {
        "code": 140203,
        "regency_code": 1402,
        "province_code": 14,
        "name": "Kelayang",
        "latitude": -0.4502240467442284,
        "longitude": 102.08278665882014
    },
    {
        "code": 140204,
        "regency_code": 1402,
        "province_code": 14,
        "name": "Pasir Penyu",
        "latitude": -0.36886250384839575,
        "longitude": 102.27711669927103
    },
    {
        "code": 140205,
        "regency_code": 1402,
        "province_code": 14,
        "name": "Peranap",
        "latitude": -0.6752592941196891,
        "longitude": 101.97453990141697
    },
    {
        "code": 140206,
        "regency_code": 1402,
        "province_code": 14,
        "name": "Siberida",
        "latitude": -0.5735550701807481,
        "longitude": 102.42943936439987
    },
    {
        "code": 140207,
        "regency_code": 1402,
        "province_code": 14,
        "name": "Batang Cenaku",
        "latitude": -0.7935258065878612,
        "longitude": 102.21129070829149
    },
    {
        "code": 140208,
        "regency_code": 1402,
        "province_code": 14,
        "name": "Batang Gangsal",
        "latitude": -0.8217914290855545,
        "longitude": 102.5061526201716
    },
    {
        "code": 140209,
        "regency_code": 1402,
        "province_code": 14,
        "name": "Lirik",
        "latitude": -0.2586503834873571,
        "longitude": 102.27448874595241
    },
    {
        "code": 140210,
        "regency_code": 1402,
        "province_code": 14,
        "name": "Kuala Cenaku",
        "latitude": -0.22143528214872105,
        "longitude": 102.6573044080332
    },
    {
        "code": 140211,
        "regency_code": 1402,
        "province_code": 14,
        "name": "Sungai Lala",
        "latitude": -0.4357147722547241,
        "longitude": 102.25916117502365
    },
    {
        "code": 140212,
        "regency_code": 1402,
        "province_code": 14,
        "name": "Lubuk Batu Jaya",
        "latitude": -0.34745310584358985,
        "longitude": 102.12988469435459
    },
    {
        "code": 140213,
        "regency_code": 1402,
        "province_code": 14,
        "name": "Rakit Kulim",
        "latitude": -0.5887451841933745,
        "longitude": 102.1635510065221
    },
    {
        "code": 140214,
        "regency_code": 1402,
        "province_code": 14,
        "name": "Batang Peranap",
        "latitude": -0.6801461044984359,
        "longitude": 101.86848913025669
    },
    {
        "code": 140301,
        "regency_code": 1403,
        "province_code": 14,
        "name": "Bengkalis",
        "latitude": 1.4564391713551703,
        "longitude": 102.24229683731048
    },
    {
        "code": 140302,
        "regency_code": 1403,
        "province_code": 14,
        "name": "Bantan",
        "latitude": 1.4787369523981815,
        "longitude": 102.35064481739333
    },
    {
        "code": 140303,
        "regency_code": 1403,
        "province_code": 14,
        "name": "Bukit Batu",
        "latitude": 1.3606037921077554,
        "longitude": 101.98192438995255
    },
    {
        "code": 140309,
        "regency_code": 1403,
        "province_code": 14,
        "name": "Mandau",
        "latitude": 1.263661439582681,
        "longitude": 101.24650097852242
    },
    {
        "code": 140310,
        "regency_code": 1403,
        "province_code": 14,
        "name": "Rupat",
        "latitude": 1.8578435771637447,
        "longitude": 101.58611615366554
    },
    {
        "code": 140311,
        "regency_code": 1403,
        "province_code": 14,
        "name": "Rupat Utara",
        "latitude": 2.025864626805835,
        "longitude": 101.57234189451214
    },
    {
        "code": 140312,
        "regency_code": 1403,
        "province_code": 14,
        "name": "Siak Kecil",
        "latitude": 1.1990450784460083,
        "longitude": 101.94801289347852
    },
    {
        "code": 140313,
        "regency_code": 1403,
        "province_code": 14,
        "name": "Pinggir",
        "latitude": 1.117188025972695,
        "longitude": 101.19926910029547
    },
    {
        "code": 140314,
        "regency_code": 1403,
        "province_code": 14,
        "name": "Bandar Laksamana",
        "latitude": 1.4684287323142997,
        "longitude": 101.69889702447509
    },
    {
        "code": 140315,
        "regency_code": 1403,
        "province_code": 14,
        "name": "Talang Muandau",
        "latitude": 1.1728269497024533,
        "longitude": 101.51310480251045
    },
    {
        "code": 140316,
        "regency_code": 1403,
        "province_code": 14,
        "name": "Bathin Solapan",
        "latitude": 1.3493392635439045,
        "longitude": 101.18514097532723
    },
    {
        "code": 140401,
        "regency_code": 1404,
        "province_code": 14,
        "name": "Reteh",
        "latitude": -0.712317663860552,
        "longitude": 103.24769892850057
    },
    {
        "code": 140402,
        "regency_code": 1404,
        "province_code": 14,
        "name": "Enok",
        "latitude": -0.5141805349791249,
        "longitude": 103.12924060406758
    },
    {
        "code": 140403,
        "regency_code": 1404,
        "province_code": 14,
        "name": "Kuala Indragiri",
        "latitude": -0.33464948178135845,
        "longitude": 103.4686449649984
    },
    {
        "code": 140404,
        "regency_code": 1404,
        "province_code": 14,
        "name": "Tembilahan",
        "latitude": -0.3392187319836644,
        "longitude": 103.1821137328925
    },
    {
        "code": 140405,
        "regency_code": 1404,
        "province_code": 14,
        "name": "Tempuling",
        "latitude": -0.41179739149079103,
        "longitude": 102.89967531149055
    },
    {
        "code": 140406,
        "regency_code": 1404,
        "province_code": 14,
        "name": "Gaung Anak Serka",
        "latitude": -0.19463743419585905,
        "longitude": 103.16267172686786
    },
    {
        "code": 140407,
        "regency_code": 1404,
        "province_code": 14,
        "name": "Mandah",
        "latitude": 0.027713754102773158,
        "longitude": 103.50055220104348
    },
    {
        "code": 140408,
        "regency_code": 1404,
        "province_code": 14,
        "name": "Kateman",
        "latitude": 0.2274074618428299,
        "longitude": 103.65207246433698
    },
    {
        "code": 140409,
        "regency_code": 1404,
        "province_code": 14,
        "name": "Keritang",
        "latitude": -0.6993786061138759,
        "longitude": 102.84931653302296
    },
    {
        "code": 140410,
        "regency_code": 1404,
        "province_code": 14,
        "name": "Tanah Merah",
        "latitude": -0.4723572205361417,
        "longitude": 103.35272085175139
    },
    {
        "code": 140411,
        "regency_code": 1404,
        "province_code": 14,
        "name": "Batang Tuaka",
        "latitude": -0.26701627656030275,
        "longitude": 103.12442279386481
    },
    {
        "code": 140412,
        "regency_code": 1404,
        "province_code": 14,
        "name": "Gaung",
        "latitude": -0.05680766676363663,
        "longitude": 102.98680663439436
    },
    {
        "code": 140413,
        "regency_code": 1404,
        "province_code": 14,
        "name": "Tembilahan Hulu",
        "latitude": -0.38277455285720924,
        "longitude": 103.0876194095595
    },
    {
        "code": 140414,
        "regency_code": 1404,
        "province_code": 14,
        "name": "Kemuning",
        "latitude": -0.9204991343921727,
        "longitude": 102.71420361413497
    },
    {
        "code": 140415,
        "regency_code": 1404,
        "province_code": 14,
        "name": "Pelangiran",
        "latitude": 0.17215769702859543,
        "longitude": 103.21460531255543
    },
    {
        "code": 140416,
        "regency_code": 1404,
        "province_code": 14,
        "name": "Teluk Belengkong",
        "latitude": 0.2839756800752606,
        "longitude": 103.3157531029838
    },
    {
        "code": 140417,
        "regency_code": 1404,
        "province_code": 14,
        "name": "Pulau Burung",
        "latitude": 0.41315198540405085,
        "longitude": 103.39949358569837
    },
    {
        "code": 140418,
        "regency_code": 1404,
        "province_code": 14,
        "name": "Concong",
        "latitude": -0.28625911969413836,
        "longitude": 103.58844039997378
    },
    {
        "code": 140419,
        "regency_code": 1404,
        "province_code": 14,
        "name": "Kempas",
        "latitude": -0.4728187083377458,
        "longitude": 102.80665850434252
    },
    {
        "code": 140420,
        "regency_code": 1404,
        "province_code": 14,
        "name": "Sungai Batang",
        "latitude": -0.6158169607213405,
        "longitude": 103.24560933206294
    },
    {
        "code": 140501,
        "regency_code": 1405,
        "province_code": 14,
        "name": "Ukui",
        "latitude": -0.22057637635770552,
        "longitude": 101.97738811174627
    },
    {
        "code": 140502,
        "regency_code": 1405,
        "province_code": 14,
        "name": "Pangkalan Kerinci",
        "latitude": 0.34773983928857205,
        "longitude": 101.8394964133918
    },
    {
        "code": 140503,
        "regency_code": 1405,
        "province_code": 14,
        "name": "Pangkalan Kuras",
        "latitude": 0.041382637977061786,
        "longitude": 101.8880372660247
    },
    {
        "code": 140504,
        "regency_code": 1405,
        "province_code": 14,
        "name": "Pangkalan Lesung",
        "latitude": -0.02861498915245784,
        "longitude": 102.11875509068604
    },
    {
        "code": 140505,
        "regency_code": 1405,
        "province_code": 14,
        "name": "Langgam",
        "latitude": 0.0718227512301692,
        "longitude": 101.68100839349235
    },
    {
        "code": 140506,
        "regency_code": 1405,
        "province_code": 14,
        "name": "Pelalawan",
        "latitude": 0.4431048862495622,
        "longitude": 102.14136434195413
    },
    {
        "code": 140507,
        "regency_code": 1405,
        "province_code": 14,
        "name": "Kerumutan",
        "latitude": 0.010794255247709803,
        "longitude": 102.35752619505637
    },
    {
        "code": 140508,
        "regency_code": 1405,
        "province_code": 14,
        "name": "Bunut",
        "latitude": 0.2708040509596181,
        "longitude": 102.12621815239952
    },
    {
        "code": 140509,
        "regency_code": 1405,
        "province_code": 14,
        "name": "Teluk Meranti",
        "latitude": 0.3682446784880316,
        "longitude": 102.68342547361819
    },
    {
        "code": 140510,
        "regency_code": 1405,
        "province_code": 14,
        "name": "Kuala Kampar",
        "latitude": 0.558767197468855,
        "longitude": 103.14805791845359
    },
    {
        "code": 140511,
        "regency_code": 1405,
        "province_code": 14,
        "name": "Bandar Sei Kijang",
        "latitude": 0.39649769872662227,
        "longitude": 101.6928032179145
    },
    {
        "code": 140512,
        "regency_code": 1405,
        "province_code": 14,
        "name": "Bandar Petalangan",
        "latitude": 0.10872615469652488,
        "longitude": 102.17526735090416
    },
    {
        "code": 140601,
        "regency_code": 1406,
        "province_code": 14,
        "name": "Ujung Batu",
        "latitude": 0.7144955270308057,
        "longitude": 100.52690806021725
    },
    {
        "code": 140602,
        "regency_code": 1406,
        "province_code": 14,
        "name": "Rokan IV Koto",
        "latitude": 0.5848164604024917,
        "longitude": 100.35417394649264
    },
    {
        "code": 140603,
        "regency_code": 1406,
        "province_code": 14,
        "name": "Rambah",
        "latitude": 0.8312219055749409,
        "longitude": 100.26173208033985
    },
    {
        "code": 140604,
        "regency_code": 1406,
        "province_code": 14,
        "name": "Tambusai",
        "latitude": 1.1062741262181295,
        "longitude": 100.25087688920512
    },
    {
        "code": 140605,
        "regency_code": 1406,
        "province_code": 14,
        "name": "Kepenuhan",
        "latitude": 1.1196538625575,
        "longitude": 100.60874965320784
    },
    {
        "code": 140606,
        "regency_code": 1406,
        "province_code": 14,
        "name": "Kunto Darussalam",
        "latitude": 0.9124346892242707,
        "longitude": 100.67366021456205
    },
    {
        "code": 140607,
        "regency_code": 1406,
        "province_code": 14,
        "name": "Rambah Samo",
        "latitude": 0.8099030061243215,
        "longitude": 100.42661452052192
    },
    {
        "code": 140608,
        "regency_code": 1406,
        "province_code": 14,
        "name": "Rambah Hilir",
        "latitude": 0.970289886785618,
        "longitude": 100.36605126691647
    },
    {
        "code": 140609,
        "regency_code": 1406,
        "province_code": 14,
        "name": "Tambusai Utara",
        "latitude": 1.2767630833395978,
        "longitude": 100.35025573986555
    },
    {
        "code": 140610,
        "regency_code": 1406,
        "province_code": 14,
        "name": "Bangun Purba",
        "latitude": 0.9119341005657161,
        "longitude": 100.19052773858294
    },
    {
        "code": 140611,
        "regency_code": 1406,
        "province_code": 14,
        "name": "Tandun",
        "latitude": 0.5768798181013195,
        "longitude": 100.61600108719873
    },
    {
        "code": 140612,
        "regency_code": 1406,
        "province_code": 14,
        "name": "Kabun",
        "latitude": 0.47104987908799245,
        "longitude": 100.76400079034894
    },
    {
        "code": 140613,
        "regency_code": 1406,
        "province_code": 14,
        "name": "Bonai Darussalam",
        "latitude": 1.1473747435222281,
        "longitude": 100.86612008722544
    },
    {
        "code": 140614,
        "regency_code": 1406,
        "province_code": 14,
        "name": "Pagaran Tapah Darussalam",
        "latitude": 0.7530462139702134,
        "longitude": 100.59601787477598
    },
    {
        "code": 140615,
        "regency_code": 1406,
        "province_code": 14,
        "name": "Kepenuhan Hulu",
        "latitude": 0.9799105689310851,
        "longitude": 100.50251881139548
    },
    {
        "code": 140616,
        "regency_code": 1406,
        "province_code": 14,
        "name": "Pendalian IV Koto",
        "latitude": 0.5020256186237304,
        "longitude": 100.47956628305971
    },
    {
        "code": 140701,
        "regency_code": 1407,
        "province_code": 14,
        "name": "Kubu",
        "latitude": 2.070695851843409,
        "longitude": 100.52824719028196
    },
    {
        "code": 140702,
        "regency_code": 1407,
        "province_code": 14,
        "name": "Bangko",
        "latitude": 2.14131246518804,
        "longitude": 100.856672664381
    },
    {
        "code": 140703,
        "regency_code": 1407,
        "province_code": 14,
        "name": "Tanah Putih",
        "latitude": 1.516586569000991,
        "longitude": 101.03072239882007
    },
    {
        "code": 140704,
        "regency_code": 1407,
        "province_code": 14,
        "name": "Rimba Melintang",
        "latitude": 1.80467370382479,
        "longitude": 101.01248267882654
    },
    {
        "code": 140705,
        "regency_code": 1407,
        "province_code": 14,
        "name": "Bagan Sinembah",
        "latitude": 1.650504910183632,
        "longitude": 100.44092236581575
    },
    {
        "code": 140706,
        "regency_code": 1407,
        "province_code": 14,
        "name": "Pasir Limau Kapas",
        "latitude": 2.2014960157029977,
        "longitude": 100.3896101301488
    },
    {
        "code": 140707,
        "regency_code": 1407,
        "province_code": 14,
        "name": "Sinaboi",
        "latitude": 2.2135156361824886,
        "longitude": 100.96177363980533
    },
    {
        "code": 140708,
        "regency_code": 1407,
        "province_code": 14,
        "name": "Pujud",
        "latitude": 1.3934220233382388,
        "longitude": 100.6769371602215
    },
    {
        "code": 140709,
        "regency_code": 1407,
        "province_code": 14,
        "name": "Tanah Putih Tanjung Melawan",
        "latitude": 1.702310496687742,
        "longitude": 101.1232704543819
    },
    {
        "code": 140710,
        "regency_code": 1407,
        "province_code": 14,
        "name": "Bangko Pusako",
        "latitude": 1.7046548852161643,
        "longitude": 100.81544674837303
    },
    {
        "code": 140711,
        "regency_code": 1407,
        "province_code": 14,
        "name": "Simpang Kanan",
        "latitude": 1.873133001852665,
        "longitude": 100.36891132552805
    },
    {
        "code": 140712,
        "regency_code": 1407,
        "province_code": 14,
        "name": "Batu Hampar",
        "latitude": 1.950392459018753,
        "longitude": 100.97913444806564
    },
    {
        "code": 140713,
        "regency_code": 1407,
        "province_code": 14,
        "name": "Rantau Kopar",
        "latitude": 1.4067500196152802,
        "longitude": 101.020735438379
    },
    {
        "code": 140714,
        "regency_code": 1407,
        "province_code": 14,
        "name": "Pekaitan",
        "latitude": 1.9893880047522443,
        "longitude": 100.79694905042281
    },
    {
        "code": 140715,
        "regency_code": 1407,
        "province_code": 14,
        "name": "Kubu Babussalam",
        "latitude": 1.9757293697982607,
        "longitude": 100.63760797309088
    },
    {
        "code": 140716,
        "regency_code": 1407,
        "province_code": 14,
        "name": "Tanjung Medan",
        "latitude": 1.449269780463699,
        "longitude": 100.48479336370634
    },
    {
        "code": 140717,
        "regency_code": 1407,
        "province_code": 14,
        "name": "Bagan Sinembah Raya",
        "latitude": 1.8495454330438985,
        "longitude": 100.4987895130799
    },
    {
        "code": 140718,
        "regency_code": 1407,
        "province_code": 14,
        "name": "Balai Jaya",
        "latitude": 1.7400003412698126,
        "longitude": 100.59802383756278
    },
    {
        "code": 140801,
        "regency_code": 1408,
        "province_code": 14,
        "name": "Siak",
        "latitude": 0.8839270366947688,
        "longitude": 101.94131576224306
    },
    {
        "code": 140802,
        "regency_code": 1408,
        "province_code": 14,
        "name": "Sungai Apit",
        "latitude": 0.7912654893971415,
        "longitude": 102.41923831090259
    },
    {
        "code": 140803,
        "regency_code": 1408,
        "province_code": 14,
        "name": "Minas",
        "latitude": 0.7973821268424018,
        "longitude": 101.46653827161967
    },
    {
        "code": 140804,
        "regency_code": 1408,
        "province_code": 14,
        "name": "Tualang",
        "latitude": 0.6474059832642826,
        "longitude": 101.6264864538761
    },
    {
        "code": 140805,
        "regency_code": 1408,
        "province_code": 14,
        "name": "Sungai Mandau",
        "latitude": 0.9997942699980754,
        "longitude": 101.74377707092883
    },
    {
        "code": 140806,
        "regency_code": 1408,
        "province_code": 14,
        "name": "Dayun",
        "latitude": 0.6509479186963475,
        "longitude": 102.08221276743785
    },
    {
        "code": 140807,
        "regency_code": 1408,
        "province_code": 14,
        "name": "Kerinci Kanan",
        "latitude": 0.49282179465944964,
        "longitude": 101.77853278082418
    },
    {
        "code": 140808,
        "regency_code": 1408,
        "province_code": 14,
        "name": "Bunga Raya",
        "latitude": 0.9864433281626154,
        "longitude": 102.05214097901708
    },
    {
        "code": 140809,
        "regency_code": 1408,
        "province_code": 14,
        "name": "Koto Gasib",
        "latitude": 0.7349897296185068,
        "longitude": 101.79257007537365
    },
    {
        "code": 140810,
        "regency_code": 1408,
        "province_code": 14,
        "name": "Kandis",
        "latitude": 0.9440463517599256,
        "longitude": 101.2462846006857
    },
    {
        "code": 140811,
        "regency_code": 1408,
        "province_code": 14,
        "name": "Lubuk Dalam",
        "latitude": 0.5941560665219358,
        "longitude": 101.78323111592135
    },
    {
        "code": 140812,
        "regency_code": 1408,
        "province_code": 14,
        "name": "Sabak Auh",
        "latitude": 1.1116671471638018,
        "longitude": 102.10638102729229
    },
    {
        "code": 140813,
        "regency_code": 1408,
        "province_code": 14,
        "name": "Mempura",
        "latitude": 0.787978623189505,
        "longitude": 102.05870002773085
    },
    {
        "code": 140814,
        "regency_code": 1408,
        "province_code": 14,
        "name": "Pusako",
        "latitude": 0.898384263057603,
        "longitude": 102.15045526971358
    },
    {
        "code": 140901,
        "regency_code": 1409,
        "province_code": 14,
        "name": "Kuantan Mudik",
        "latitude": -0.7274266352978561,
        "longitude": 101.54571362332582
    },
    {
        "code": 140902,
        "regency_code": 1409,
        "province_code": 14,
        "name": "Kuantan Tengah",
        "latitude": -0.5709096257619262,
        "longitude": 101.60762168951622
    },
    {
        "code": 140903,
        "regency_code": 1409,
        "province_code": 14,
        "name": "Singingi",
        "latitude": -0.4333476057906398,
        "longitude": 101.27922408562495
    },
    {
        "code": 140904,
        "regency_code": 1409,
        "province_code": 14,
        "name": "Kuantan Hilir",
        "latitude": -0.3962072425008237,
        "longitude": 101.77646673073515
    },
    {
        "code": 140905,
        "regency_code": 1409,
        "province_code": 14,
        "name": "Cerenti",
        "latitude": -0.48724060511532497,
        "longitude": 101.8651541888067
    },
    {
        "code": 140906,
        "regency_code": 1409,
        "province_code": 14,
        "name": "Benai",
        "latitude": -0.49739722703110073,
        "longitude": 101.65918329368353
    },
    {
        "code": 140907,
        "regency_code": 1409,
        "province_code": 14,
        "name": "Gunungtoar",
        "latitude": -0.6025870212175835,
        "longitude": 101.51574137684163
    },
    {
        "code": 140908,
        "regency_code": 1409,
        "province_code": 14,
        "name": "Singingi Hilir",
        "latitude": -0.21493639939116338,
        "longitude": 101.2993207149357
    },
    {
        "code": 140909,
        "regency_code": 1409,
        "province_code": 14,
        "name": "Pangean",
        "latitude": -0.43855335291258063,
        "longitude": 101.67643388697267
    },
    {
        "code": 140910,
        "regency_code": 1409,
        "province_code": 14,
        "name": "Logas Tanah Darat",
        "latitude": -0.2480413600347359,
        "longitude": 101.58828026295586
    },
    {
        "code": 140911,
        "regency_code": 1409,
        "province_code": 14,
        "name": "Inuman",
        "latitude": -0.4782148471464309,
        "longitude": 101.7994415257888
    },
    {
        "code": 140912,
        "regency_code": 1409,
        "province_code": 14,
        "name": "Hulu Kuantan",
        "latitude": -0.5874044777753428,
        "longitude": 101.356190190366
    },
    {
        "code": 140913,
        "regency_code": 1409,
        "province_code": 14,
        "name": "Kuantan Hilir Seberang",
        "latitude": -0.5249882637523324,
        "longitude": 101.76422033189579
    },
    {
        "code": 140914,
        "regency_code": 1409,
        "province_code": 14,
        "name": "Sentajo Raya",
        "latitude": -0.40453087708343954,
        "longitude": 101.55847369007549
    },
    {
        "code": 140915,
        "regency_code": 1409,
        "province_code": 14,
        "name": "Pucuk Rantau",
        "latitude": -0.8470616894831272,
        "longitude": 101.78264623164391
    },
    {
        "code": 141001,
        "regency_code": 1410,
        "province_code": 14,
        "name": "Tebing Tinggi",
        "latitude": 0.9752312136482687,
        "longitude": 102.74181501724246
    },
    {
        "code": 141002,
        "regency_code": 1410,
        "province_code": 14,
        "name": "Rangsang Barat",
        "latitude": 1.0668947208440018,
        "longitude": 102.71171944109317
    },
    {
        "code": 141003,
        "regency_code": 1410,
        "province_code": 14,
        "name": "Rangsang",
        "latitude": 0.9217464773794377,
        "longitude": 103.0310958921919
    },
    {
        "code": 141004,
        "regency_code": 1410,
        "province_code": 14,
        "name": "Tebing Tinggi Barat",
        "latitude": 0.8898646186133747,
        "longitude": 102.55460936985074
    },
    {
        "code": 141005,
        "regency_code": 1410,
        "province_code": 14,
        "name": "Merbau",
        "latitude": 1.0712836217539297,
        "longitude": 102.34246154150092
    },
    {
        "code": 141006,
        "regency_code": 1410,
        "province_code": 14,
        "name": "Pulaumerbau",
        "latitude": 1.044076004137026,
        "longitude": 102.52975254183544
    },
    {
        "code": 141007,
        "regency_code": 1410,
        "province_code": 14,
        "name": "Tebing Tinggi Timur",
        "latitude": 0.8385778357275058,
        "longitude": 102.8397517002019
    },
    {
        "code": 141008,
        "regency_code": 1410,
        "province_code": 14,
        "name": "Tasik Putri Puyu",
        "latitude": 1.2590038367216725,
        "longitude": 102.34938530357701
    },
    {
        "code": 141009,
        "regency_code": 1410,
        "province_code": 14,
        "name": "Rangsang Pesisir",
        "latitude": 1.0701293911541727,
        "longitude": 102.86468242152057
    },
    {
        "code": 147101,
        "regency_code": 1471,
        "province_code": 14,
        "name": "Sukajadi",
        "latitude": 0.5172222322174899,
        "longitude": 101.43786603894881
    },
    {
        "code": 147102,
        "regency_code": 1471,
        "province_code": 14,
        "name": "Pekanbaru Kota",
        "latitude": 0.5229766013475009,
        "longitude": 101.44845861741399
    },
    {
        "code": 147103,
        "regency_code": 1471,
        "province_code": 14,
        "name": "Sail",
        "latitude": 0.5158287019564824,
        "longitude": 101.45950268286603
    },
    {
        "code": 147104,
        "regency_code": 1471,
        "province_code": 14,
        "name": "Lima Puluh",
        "latitude": 0.539215960553475,
        "longitude": 101.45891490377883
    },
    {
        "code": 147105,
        "regency_code": 1471,
        "province_code": 14,
        "name": "Senapelan",
        "latitude": 0.5355769657450146,
        "longitude": 101.43645049862513
    },
    {
        "code": 147106,
        "regency_code": 1471,
        "province_code": 14,
        "name": "Rumbai Barat",
        "latitude": 0.6327876757669907,
        "longitude": 101.40228786362339
    },
    {
        "code": 147107,
        "regency_code": 1471,
        "province_code": 14,
        "name": "Bukit Raya",
        "latitude": 0.4730238394584362,
        "longitude": 101.46649367418483
    },
    {
        "code": 147108,
        "regency_code": 1471,
        "province_code": 14,
        "name": "Binawidya",
        "latitude": 0.4879994517863518,
        "longitude": 101.38495469819159
    },
    {
        "code": 147109,
        "regency_code": 1471,
        "province_code": 14,
        "name": "Marpoyan Damai",
        "latitude": 0.46960528788815237,
        "longitude": 101.43627728900461
    },
    {
        "code": 147110,
        "regency_code": 1471,
        "province_code": 14,
        "name": "Tenayan Raya",
        "latitude": 0.5337265605706222,
        "longitude": 101.53509622407769
    },
    {
        "code": 147111,
        "regency_code": 1471,
        "province_code": 14,
        "name": "Payung Sekaki",
        "latitude": 0.5261665640701889,
        "longitude": 101.39940014169292
    },
    {
        "code": 147112,
        "regency_code": 1471,
        "province_code": 14,
        "name": "Rumbai",
        "latitude": 0.5772833316409804,
        "longitude": 101.39894764527148
    },
    {
        "code": 147113,
        "regency_code": 1471,
        "province_code": 14,
        "name": "Tuahmadani",
        "latitude": 0.4568927752748537,
        "longitude": 101.38180945034618
    },
    {
        "code": 147114,
        "regency_code": 1471,
        "province_code": 14,
        "name": "Kulim",
        "latitude": 0.4712443301453013,
        "longitude": 101.53798815488739
    },
    {
        "code": 147115,
        "regency_code": 1471,
        "province_code": 14,
        "name": "Rumbai Timur",
        "latitude": 0.6119635213978295,
        "longitude": 101.51050409347269
    },
    {
        "code": 147201,
        "regency_code": 1472,
        "province_code": 14,
        "name": "Dumai Barat",
        "latitude": 1.6814638760546032,
        "longitude": 101.38815962221958
    },
    {
        "code": 147202,
        "regency_code": 1472,
        "province_code": 14,
        "name": "Dumai Timur",
        "latitude": 1.6481927659036815,
        "longitude": 101.45821520790783
    },
    {
        "code": 147203,
        "regency_code": 1472,
        "province_code": 14,
        "name": "Bukit Kapur",
        "latitude": 1.5386821701368922,
        "longitude": 101.40405253301272
    },
    {
        "code": 147204,
        "regency_code": 1472,
        "province_code": 14,
        "name": "Sungai Sembilan",
        "latitude": 1.9290090174790688,
        "longitude": 101.20192135689611
    },
    {
        "code": 147205,
        "regency_code": 1472,
        "province_code": 14,
        "name": "Medang Kampai",
        "latitude": 1.6219825399027028,
        "longitude": 101.58337459056285
    },
    {
        "code": 147206,
        "regency_code": 1472,
        "province_code": 14,
        "name": "Dumai Kota",
        "latitude": 1.6753036328198125,
        "longitude": 101.44094839087553
    },
    {
        "code": 147207,
        "regency_code": 1472,
        "province_code": 14,
        "name": "Dumai Selatan",
        "latitude": 1.6372645824549892,
        "longitude": 101.3964437508517
    }
]