code,district_code,regency_code,province_code,name,postal_code,latitude,longitude
9301011002,930101,9301,93,Samkai,99615,-8.4910155339215,140.37125490684
9301011003,930101,9301,93,"Karang Indah",99614,-8.4819136257713,140.37781848006
9301011004,930101,9301,93,Mandala,99617,-8.4997260274141,140.40133248606
9301011005,930101,9301,93,Maro,99613,-8.4826206352694,140.39494208491
9301011006,930101,9301,93,"Kelapa Lima",99612,-8.4830554489529,140.41327306685
9301011007,930101,9301,93,"Rimba Jaya",99610,-8.5277642801349,140.45745699864
9301011009,930101,9301,93,"Bambu Pemali",99616,-8.5060678589057,140.39519876172
9301011010,930101,9301,93,"Seringgu Jaya",99619,-8.4968376909527,140.38779049188
9301011011,930101,9301,93,Kamundu,99607,-8.4942456739553,140.44281313656
9301011012,930101,9301,93,Kamahedoga,99606,-8.4572674450958,140.39346792666
9301011013,930101,9301,93,Muli,99608,-8.5211040783653,140.41318273667
9301012001,930101,9301,93,Nasem,99618,-8.5700622764636,140.57935421769
9301012008,930101,9301,93,Wasur,99611,-8.4760790095775,140.59645660122
9301012014,930101,9301,93,Bokem,99604,-8.576615306888,140.47225442301
9301012015,930101,9301,93,Buti,99605,-8.5341469391031,140.41063381024
9301012016,930101,9301,93,Nggolar,99609,-8.4763859302454,140.48179258924
9301022001,930102,9301,93,Muting,99634,-7.3111513261171,140.58470566327
9301022002,930102,9301,93,Boha,99634,-7.3146904492601,140.43276295197
9301022003,930102,9301,93,Wan,99634,-7.4851265036545,140.38718226518
9301022004,930102,9301,93,Kolam,99634,-7.3531567772047,140.40093073501
9301022005,930102,9301,93,Selauw,99634,-7.2979751891229,140.24581426781
9301022006,930102,9301,93,Pachas,99634,-7.2330127676848,140.43634156108
9301022007,930102,9301,93,"Seed Agung",99634,-7.4026691942303,140.60043297283
9301022008,930102,9301,93,"Enggol Jaya",99634,-7.3934554104957,140.52453007897
9301022009,930102,9301,93,"Manway Bop",99634,-7.461618470285,140.49536147491
9301022010,930102,9301,93,"Afkab Makmur",99634,-7.6162960596297,140.41550437308
9301022011,930102,9301,93,"Sigabel Jaya",99634,-7.3669085242754,140.59030169606
9301022012,930102,9301,93,Andaito,99634,-7.4188004795461,140.49711145845
9301032001,930103,9301,93,Okaba,99638,-7.9874143734772,139.68656022385
9301032002,930103,9301,93,Wambi,99638,-8.0980230355487,139.34862641969
9301032003,930103,9301,93,Makaling,99638,-8.018352492187,139.6495208617
9301032004,930103,9301,93,Alatep,99638,-8.0081358418125,139.82016239226
9301032005,930103,9301,93,Iwol,99638,-8.0063202952393,139.59873235551
9301032006,930103,9301,93,"Duf Miraf",99638,-8.0316722416812,139.55117084781
9301032007,930103,9301,93,Alaku,99638,-8.0110742330401,139.75206294004
9301032008,930103,9301,93,Sanggase,99638,-8.0429998507239,139.89566911409
9301032009,930103,9301,93,"Es Wambi",99638,-8.0159601856371,139.4585065048
9301042001,930104,9301,93,Kimaam,99641,-7.9230938100342,138.77455668416
9301042002,930104,9301,93,Komolom,99641,-8.2971513616895,138.73244478924
9301042003,930104,9301,93,Kumbis,99641,-8.0504132697859,138.97601048749
9301042004,930104,9301,93,Kalilam,99641,-8.0479640958997,138.88363796065
9301042005,930104,9301,93,Teri,99641,-7.7964930734798,138.76488105714
9301042006,930104,9301,93,Mambum,99641,-7.9823444457047,138.72200985727
9301042007,930104,9301,93,Kiworo,99641,-7.9982447212993,138.8740326451
9301042008,930104,9301,93,Woner,99641,-7.9957914918836,138.85021976366
9301042009,930104,9301,93,Deka,99641,-8.0000056167491,138.84627462506
9301042010,930104,9301,93,Turiram,99641,-8.1038087877622,138.7808509666
9301042011,930104,9301,93,Purawanderu,99641,-7.9361055551552,138.87330065538
9301042012,930104,9301,93,Umanderu,99641,-8.0489436500209,138.74836150978
9301042013,930104,9301,93,Webu,99641,-8.1444415634327,138.49614739688
9301052001,930105,9301,93,Matara,99631,-8.3690935577783,140.30079793384
9301052002,930105,9301,93,"Waninggap Nanggo",99631,-8.4102570479694,140.33863438979
9301052003,930105,9301,93,Urumb,99631,-8.4324041078065,140.37341214156
9301052004,930105,9301,93,"Sido Mulyo",99631,-8.4514974109115,140.4210630781
9301052005,930105,9301,93,Kuprik,99631,-8.4668334217282,140.4349046493
9301052006,930105,9301,93,Kuper,99631,-8.460840151843,140.45178115649
9301052007,930105,9301,93,"Semangga Jaya",99631,-8.4300296948434,140.43741648056
9301052008,930105,9301,93,"Marga Mulya",99631,-8.4084535740974,140.47040403937
9301052009,930105,9301,93,"Muram Sari",99631,-8.3622670535943,140.36974919964
9301052010,930105,9301,93,"Waninggap Kai",99631,-8.3479093421567,140.40625330994
9301062001,930106,9301,93,"Yasa Mulya",99632,-8.3829375080482,140.49942827577
9301062002,930106,9301,93,"Sumber Harapan",99632,-8.359134974656,140.46868992772
9301062003,930106,9301,93,"Waninggap Say",99632,-8.3539939059179,140.51071466749
9301062004,930106,9301,93,"Amun Kay",99632,-8.1747440801427,140.57432540697
9301062005,930106,9301,93,"Hidup Baru",99632,-8.3534655761939,140.54245610237
9301062006,930106,9301,93,"Sarmayam Indah",99632,-8.2803715405744,140.6387733297
9301062007,930106,9301,93,"Ngguti Bob",99632,-8.2772664770563,140.69441895233
9301062008,930106,9301,93,"Waninggap Miraf",99632,-8.3351147488394,140.48774870389
9301062009,930106,9301,93,"Isano Mbias",99632,-8.3119113906939,140.43067681832
9301062010,930106,9301,93,"Yaba Maru",99632,-8.2136205687831,140.47746036757
9301062011,930106,9301,93,Soa,99632,-8.3044708337856,140.72312126979
9301062012,930106,9301,93,Tambat,99632,-8.3746403242912,140.64052148941
9301062013,930106,9301,93,Bersehati,99632,-8.2837185565303,140.78018409325
9301062014,930106,9301,93,Kamangi,99632,-8.397718435653,140.52328083117
9301072001,930107,9301,93,Kartini,99645,-8.0545092631758,140.67416146514
9301072002,930107,9301,93,"Makarti Jaya",99645,-8.0145461799448,140.69420973995
9301072003,930107,9301,93,Nalkin,99645,-7.9693858568884,140.7614801164
9301072004,930107,9301,93,"Angger Permegi",99645,-8.0740474741655,140.77359289046
9301072005,930107,9301,93,Poo,99645,-8.0780754469994,140.88925483133
9301072006,930107,9301,93,"Mimi Baru",99645,-8.1524162684481,140.7797586284
9301072007,930107,9301,93,"Kamno Sari",99645,-8.1925362525228,140.79315876683
9301072008,930107,9301,93,"Blandin Kakayo",99645,-7.8846980055296,140.71636316655
9301072009,930107,9301,93,"Gurinda Jaya",99645,-8.1916130239823,140.75389911112
9301072010,930107,9301,93,"Jagebob Raya",99645,-8.1510434186294,140.68383179741
9301072011,930107,9301,93,"Wenda Asri",99645,-8.2238610610666,140.70233991303
9301072012,930107,9301,93,"Melin Megikar",99645,-7.7709691983932,140.69679575329
9301072013,930107,9301,93,"Obaat Throw",99645,-8.2270419754065,140.78479814639
9301072014,930107,9301,93,"Yemunain Jaya",99645,-7.8207679354886,140.70685225173
9301082001,930108,9301,93,Sota,99648,-8.3977460477209,140.89186426057
9301082002,930108,9301,93,Yanggandur,99648,-8.5479119648449,140.84889859719
9301082003,930108,9301,93,"Rawa Biru",99648,-8.6370891966714,140.86843101604
9301082004,930108,9301,93,Toray,99648,-7.8763877965103,140.94817380382
9301082005,930108,9301,93,Erambu,99648,-8.1784665918451,140.9218989676
9301092001,930109,9301,93,Selil,99635,-7.0039196632308,140.60029696331
9301092002,930109,9301,93,Kindiki,99635,-7.235097488025,140.79646157897
9301092003,930109,9301,93,Kumaaf,99635,-7.3872108172902,140.66435907606
9301092004,930109,9301,93,Nggayu,99635,-7.2906428744546,140.64904910225
9301092005,930109,9301,93,Kafyamke,99635,-7.2821600064658,140.69414830897
9301092006,930109,9301,93,Mandekman,99635,-7.2681346956494,140.77715227021
9301092007,930109,9301,93,Rawahayu,99635,-7.2234388443258,140.67684729449
9301092008,930109,9301,93,Belbeland,99635,-7.3115502028619,140.77097655772
9301092009,930109,9301,93,Kir-ely,99635,-7.337574937804,140.9047484505
9301092010,930109,9301,93,Kandrakay,99635,-7.087455710895,140.93008075212
9301092011,930109,9301,93,Baidub,99635,-7.297844269984,140.83497365591
9301102001,930110,9301,93,Bupul,99633,-7.4878134574506,140.92706592006
9301102002,930110,9301,93,Tanas,99633,-7.6491528787507,140.68608836143
9301102003,930110,9301,93,Kweel,99633,-7.6707804951897,140.93988352116
9301102004,930110,9301,93,Sipias,99633,-7.5090254790632,140.76197222636
9301102005,930110,9301,93,"Metaat Makmur",99633,-7.4478402507798,140.80674057704
9301102006,930110,9301,93,"Enggal Jaya",99633,-7.4761726447991,140.71255453735
9301102007,930110,9301,93,Gerisar,99633,-7.3891379718353,140.84610229619
9301102008,930110,9301,93,"Bupul Indah",99633,-7.3978658851822,140.73048499675
9301102009,930110,9301,93,Tof-Tof,99633,-7.3458917470398,140.73678854886
9301102010,930110,9301,93,Bunggay,99633,-7.3583738508657,140.70670981003
9301102011,930110,9301,93,Bouwer,99633,-7.4869679867914,140.62438758496
9301102012,930110,9301,93,Bumun,99633,-7.3632419421948,140.79061945655
9301112001,930111,9301,93,"Harapan Makmur",99646,-8.2605474024753,140.31645922718
9301112002,930111,9301,93,Kurik,99646,-8.2873957808788,140.26207259114
9301112003,930111,9301,93,"Telaga Sari",99646,-8.2545342860987,140.40215181909
9301112004,930111,9301,93,"Sumber Rejeki",99646,-8.1301288878797,140.38072636161
9301112005,930111,9301,93,"Jaya Makmur",99646,-8.2497921841557,140.24808599947
9301112006,930111,9301,93,"Sumber Mulya",99646,-8.2160553015875,140.21651120811
9301112007,930111,9301,93,Kaliki,99646,-8.1325709780225,140.25008696407
9301112008,930111,9301,93,Ivimahad,99646,-8.2943562329542,140.35738966208
9301112009,930111,9301,93,"Salor Indah",99646,-8.2471693558302,140.36113204827
9301112010,930111,9301,93,"Candra Jaya",99646,-8.2950927397146,140.29338908589
9301112011,930111,9301,93,Wonorejo,99646,-8.3106663637838,140.28349164121
9301112012,930111,9301,93,"Anum Bob",99646,-8.2559694978692,140.28145715469
9301112013,930111,9301,93,Wapeko,99646,-8.1745071537498,140.41152100264
9301122001,930112,9301,93,Kuler,99621,-8.6300697515757,140.61205990941
9301122002,930112,9301,93,Onggaya,99621,-8.6962003897167,140.63519142451
9301122003,930112,9301,93,Tomer,99621,-8.7490672128107,140.72540651535
9301122004,930112,9301,93,Tomerau,99621,-8.7944822425023,140.84099896818
9301122005,930112,9301,93,Kondo,99621,-8.9379024351228,140.92133006426
9301132001,930113,9301,93,Koa,99644,-7.9149694107511,140.51027096756
9301132002,930113,9301,93,Baad,99644,-8.0362622881963,140.5130459673
9301132003,930113,9301,93,Senegi,99644,-7.9733119811582,140.23369969389
9301132004,930113,9301,93,Wayau,99644,-7.9537974099114,140.44035110872
9301132005,930113,9301,93,Kaisah,99644,-7.8029985274278,140.38960730614
9301142001,930114,9301,93,Kumbe,99647,-8.3404255796342,140.2458866001
9301142002,930114,9301,93,Onggari,99647,-8.2566751218659,140.13516755173
9301142003,930114,9301,93,"Rawa Sari",99647,-8.3073838328672,140.24666292771
9301142004,930114,9301,93,"Padang Raharja",99647,-8.2824544232566,140.22288856794
9301142005,930114,9301,93,Kaiburse,99647,-8.3282470415433,140.19436370275
9301142006,930114,9301,93,Domande,99647,-8.1507512852131,140.06030543718
9301142007,930114,9301,93,"Suka Maju",99647,-8.251316327821,140.20391189496
9301152001,930115,9301,93,Yowied,99639,-8.0695357689276,139.16419413611
9301152002,930115,9301,93,Dokib,99639,-8.0766828500128,139.09975812631
9301152003,930115,9301,93,Wamal,99639,-8.1570675779325,139.00571042633
9301152004,930115,9301,93,Dodalim,99639,-7.9988312140125,139.1649993557
9301152005,930115,9301,93,Woboyo,99639,-7.8779635848079,139.1897907896
9301152006,930115,9301,93,Welbuti,99639,-7.7684313572089,139.36799861088
9301162001,930116,9301,93,Po-Epe,99637,-7.6752415288201,139.67412194717
9301162002,930116,9301,93,Yawimu,99637,-7.8121232189756,139.70430672321
9301162003,930116,9301,93,"Taga Epe",99637,-7.5302192290866,139.75706828214
9301162004,930116,9301,93,Nakias,99637,-7.5451990555709,139.57429813552
9301162005,930116,9301,93,"Salam Epe",99637,-7.4355108059055,139.46985148358
9301162006,930116,9301,93,Yomop,99637,-7.815397651238,139.60119837788
9301172001,930117,9301,93,Kwemsid,99636,-7.8852886651883,139.88792599542
9301172002,930117,9301,93,Kaptel,99636,-7.4803784234745,140.1475014101
9301172003,930117,9301,93,Kaniskobat,99636,-7.6728199401943,139.98318314425
9301172004,930117,9301,93,Ihalik,99636,-7.4783803591328,140.01163956844
9301172005,930117,9301,93,"Bu Epe",99636,-7.9103312033892,140.04936304745
9301182001,930118,9301,93,Tabonji,99642,-7.4682283321112,138.81941815049
9301182002,930118,9301,93,Wanggambi,99642,-7.7893584699017,138.47609762114
9301182003,930118,9301,93,Suam,99642,-7.4001719020503,138.71143646848
9301182004,930118,9301,93,Yamuka,99642,-7.4122237335413,138.60724799523
9301182005,930118,9301,93,Iromoro,99642,-7.477250642573,138.53011144206
9301182006,930118,9301,93,Konjombando,99642,-7.555338470143,138.42625023452
9301182007,930118,9301,93,Yeraha,99642,-7.6584468505685,138.23942179527
9301192001,930119,9301,93,Konorau,99643,-8.3267037000514,138.12480729109
9301192002,930119,9301,93,Waan,99643,-8.3269580477082,137.94839452648
9301192003,930119,9301,93,Toor,99643,-8.2935838861483,137.84007297225
9301192004,930119,9301,93,Kladar,99643,-8.4056084889545,137.6800264139
9301192005,930119,9301,93,Sabon,99643,-8.2792206369495,137.71857993313
9301192006,930119,9301,93,Dafnawanga,99643,-8.1332755326255,137.78694239726
9301202001,930120,9301,93,Wanam,99640,-7.353440029735,139.08741346358
9301202002,930120,9301,93,Bibikem,99640,-7.8315242892537,139.08499913014
9301202003,930120,9301,93,Wogekel,99640,-7.5160153200298,139.11664537871
9301202004,930120,9301,93,"Uli Uli",99640,-7.6204628789933,139.18085834201
9301212001,930121,9301,93,Sabudom,99641,-7.8492743657286,138.90524256424
9301212002,930121,9301,93,Padua,99640,-7.5664793778792,138.92086941428
9301212003,930121,9301,93,Sigad,99640,-7.687206970263,138.96453649044
9301212004,930121,9301,93,"Bamol I",99642,-7.6290699350916,138.69344545834
9301212005,930121,9301,93,"Bamol II",99642,-7.5259221107061,138.7698063628
9301222001,930122,9301,93,Kawe,99643,-7.8225940662217,138.08383284443
9301222002,930122,9301,93,Wetau,99643,-7.9912661705374,137.93941923898
9301222003,930122,9301,93,Pembri,99643,-7.8876285383126,137.96110585509
9301222004,930122,9301,93,Sibenda,99643,-8.0377323161643,138.30573254352
9301222005,930122,9301,93,Wantarma,99643,-8.1570587153537,138.08057030547
9302012001,930201,9302,93,Ampera,,-6.1617340209735,140.16801845636
9302012002,930201,9302,93,Sokanggo,,-6.0781567154228,140.29331836298
9302012003,930201,9302,93,Persatuan,99674,-6.1740056678389,140.33674754033
9302012004,930201,9302,93,Mariam,99674,-5.9554639373575,140.25137243392
9302012005,930201,9302,93,Mawan,99674,-6.0978472525556,140.54675829169
9302022001,930202,9302,93,Mindiptana,99663,-5.9041145191699,140.67938594981
9302022002,930202,9302,93,Umap,,-5.9596134509344,140.81384668704
9302022003,930202,9302,93,Awayanka,99663,-5.8687908359105,140.74085742828
9302022004,930202,9302,93,Wanggatkibi,,-5.7538392490673,140.739637399
9302022005,930202,9302,93,Epsembit,99663,-5.8768337404758,140.7061630671
9302022006,930202,9302,93,Andobit,,-5.9252721357175,140.69212844281
9302022007,930202,9302,93,Niyimbang,,-5.8799937546049,140.71052714713
9302022008,930202,9302,93,Anggumbit,,-5.924595287566,140.7317389041
9302022009,930202,9302,93,Imko,99663,-5.8078852722825,140.71852314246
9302022010,930202,9302,93,Kamka,,-5.8358596223465,140.68221463988
9302022011,930202,9302,93,Osso,,-5.8471427513108,140.67675687322
9302022012,930202,9302,93,Tinggam,99663,-5.8869445422014,140.65688852307
9302022013,930202,9302,93,Kakuna,99663,-5.8387486526573,140.72191302334
9302032001,930203,9302,93,Woropko,99684,-5.6170822631753,140.83814894022
9302032002,930203,9302,93,Winiktit,99684,-5.677168292007,140.74497636098
9302032003,930203,9302,93,Kanggewot,99684,-5.7044118044472,140.76490832286
9302032004,930203,9302,93,Jetetkun,99684,-5.5135857989391,140.7549406692
9302032005,930203,9302,93,Inggembit,99684,-5.5547784747783,140.95886844374
9302032006,930203,9302,93,Wametkapa,99684,-5.610000839258,140.98739440889
9302032007,930203,9302,93,Wombon,,-5.6127041497087,140.76227901819
9302032008,930203,9302,93,Upkim,,-5.5294928106567,140.84684710902
9302032009,930203,9302,93,Ikcan,99684,-5.4119221065283,140.91688609918
9302042001,930204,9302,93,Kouh,99655,-5.7836324768385,140.09978986471
9302042002,930204,9302,93,Jair,,-5.8603124108703,140.18207631514
9302042003,930204,9302,93,Mandobo,,-5.7800386257689,140.23727512664
9302052001,930205,9302,93,Getentiri,,-6.593673865628,140.32600309003
9302052002,930205,9302,93,Anggai,,-6.3595128831831,140.25077134144
9302052003,930205,9302,93,Butiptiri,,-6.4877169155174,140.67903991897
9302052004,930205,9302,93,Asiki,,-6.6244983996323,140.46473228045
9302052005,930205,9302,93,Kapogu,,-6.6265051037139,140.19936833101
9302052006,930205,9302,93,Miri,99651,-6.3454805042047,140.41664846262
9302062001,930206,9302,93,"Bomakia I",99672,-5.8098487958663,139.85306040519
9302062002,930206,9302,93,"Bomakia II",99672,-5.7956880487364,139.9217405279
9302062003,930206,9302,93,Somi,99672,-5.8546425141943,139.94409623093
9302062004,930206,9302,93,Aifa,99672,-5.7159188318168,139.78484646292
9302062005,930206,9302,93,Uni,99672,-5.7338637525077,139.91137689619
9302072001,930207,9302,93,Kombut,99662,-5.9167675328335,140.95642696146
9302072002,930207,9302,93,Moukbiran,99662,-5.8821610836841,140.86367928304
9302072003,930207,9302,93,Kawangtet,99662,-5.7705470731074,140.85383200148
9302072004,930207,9302,93,Amuan,99662,-5.8017265863653,140.79512461583
9302082001,930208,9302,93,Langgoan,99661,-5.7722762101968,140.6408192759
9302082002,930208,9302,93,Tetop,99661,-5.6404340197378,140.6691397446
9302082003,930208,9302,93,Wariktop,99661,-5.7157751080902,140.65629907776
9302082004,930208,9302,93,Autriop,99661,-5.9017268685498,140.59320180586
9302082005,930208,9302,93,Ogenatan,99661,-5.8399751268718,140.60918386726
9302092001,930209,9302,93,Maju,99671,-5.6947927911646,140.5365387762
9302092002,930209,9302,93,Bukit,99671,-5.5753408460785,140.59095404455
9302092003,930209,9302,93,Ujung,99671,-5.5988329763501,140.44968460838
9302092004,930209,9302,93,Ginggimop,99671,-5.8400755270519,140.53781526612
9302092005,930209,9302,93,Patriot,99671,-5.8163645112803,140.3872569282
9302092006,930209,9302,93,Arimbet,99671,-5.8957318101134,140.50306849524
9302092007,930209,9302,93,Aroa,99671,-5.7769450281726,140.52471442107
9302102001,930210,9302,93,Sadar,99673,-6.2361256762315,139.86277437525
9302102002,930210,9302,93,Bangun,99673,-6.3260440812968,139.82267823154
9302102003,930210,9302,93,Makmur,99673,-6.0018767685252,140.01344911294
9302102004,930210,9302,93,Sohokanggo,99673,-6.0169325725002,139.90215936525
9302102005,930210,9302,93,Domo,99673,-6.1924274447871,139.85816361259
9302102006,930210,9302,93,Hamkhu,99673,-6.3976882438827,139.77692219617
9302102007,930210,9302,93,Hello,99673,-6.4552383923064,139.80629460361
9302102008,930210,9302,93,Navini,99673,-6.1891667820999,139.98993467586
9302112001,930211,9302,93,Kuken,99681,-5.3917379480872,140.66622394272
9302112002,930211,9302,93,Kolopkam,99681,-5.344602323259,140.50711153451
9302112003,930211,9302,93,Awaken,99681,-5.3940737950017,140.53857005502
9302112004,930211,9302,93,Arimbit,99681,-5.3178626687031,140.65736178606
9302112005,930211,9302,93,Anyumka,99681,-5.4553901399986,140.72145121443
9302122001,930212,9302,93,Manggelum,99692,-5.3794907118749,140.44344612961
9302122002,930212,9302,93,Burunggop,99692,-5.2672995314866,140.41747296867
9302122003,930212,9302,93,Bayanggop,99692,-5.2892516481359,140.55528980016
9302122004,930212,9302,93,Gaguop,99692,-5.2131160563649,140.25955263207
9302122005,930212,9302,93,Kewam,99692,-5.4247081967061,140.43567565994
9302122006,930212,9302,93,"Mangga Tiga",99692,-5.3669258091634,140.37519797379
9302132001,930213,9302,93,Firiwage,99691,-5.5171153965364,140.14549489591
9302132002,930213,9302,93,Karuwage,99691,-5.4206272362829,140.06349074723
9302132003,930213,9302,93,Waliburu,,-5.4120836777755,140.26259224725
9302132004,930213,9302,93,Kabuwage,,-5.2175717172973,140.10946404188
9302142001,930214,9302,93,Yaniruma,99685,-5.4072381100254,139.81971757285
9302142002,930214,9302,93,Manggemahe,,-5.3492218359499,139.91982983932
9302142003,930214,9302,93,Fefero,99685,-5.602436414483,139.8381355261
9302152001,930215,9302,93,Subur,99653,-6.8788640515387,140.27199963011
9302152002,930215,9302,93,Kaisa,99653,-7.0114294756395,140.17215296915
9302152003,930215,9302,93,Waghai,99653,-7.0217506717038,140.10168973607
9302152004,930215,9302,93,Aiwat,99653,-6.8421429854615,140.57591221104
9302162001,930216,9302,93,Wanggemalo,99682,-5.505395383426,139.96234397902
9302162002,930216,9302,93,Sinimburu,99682,-5.2061477869968,140.00529186792
9302162003,930216,9302,93,Yafufla,99682,-5.2320699616834,139.92584764137
9302162004,930216,9302,93,Ugo,99682,-5.6241748454915,139.90365371264
9302162005,930216,9302,93,Dema,99682,-5.6240780182667,139.9674579246
9302172001,930217,9302,93,Ninati,99683,-5.7206307414843,140.92992627822
9302172002,930217,9302,93,Upyetetko,99683,-5.6883658719088,140.82651957284
9302172003,930217,9302,93,Kawaktembut,99683,-5.6547269263594,140.97195057732
9302172004,930217,9302,93,Tembutka,99683,-5.6281247498587,140.87569260361
9302172005,930217,9302,93,Timka,99683,-5.6470184841204,140.91567719268
9302182001,930218,9302,93,Sesnuk,99664,-6.213647747473,140.77443160246
9302182002,930218,9302,93,Anggamburan,99664,-5.9950682923632,140.71507311705
9302182003,930218,9302,93,Kanggup,99664,-6.2378203471052,140.90928834195
9302182004,930218,9302,93,Yomkondo,99664,-6.0587471048854,140.82568480131
9302182005,930218,9302,93,Amboran,99664,-6.049691651605,140.7294584775
9302192001,930219,9302,93,Metto,99652,-6.7821419584285,140.16587525908
9302192002,930219,9302,93,Obinangge,99652,-6.389519493148,140.01010833673
9302192003,930219,9302,93,Watemu,99652,-6.4888856519113,140.1567879138
9302192004,930219,9302,93,Ujungkia,99652,-6.6776679398852,140.1739352306
9302202001,930220,9302,93,Wanggom,99654,-5.6498436000285,140.19327287075
9302202002,930220,9302,93,Kawagit,99654,-5.6290941629372,140.30245704985
9302202003,930220,9302,93,Kombai,99654,-5.6430772396528,140.06483819759
9302202004,930220,9302,93,Biwage,99654,-5.5394024290562,140.25198938457
9302202005,930220,9302,93,"Biwage Dua",99654,-5.5120309966639,140.24177245046
9302202006,930220,9302,93,Niop,99654,-5.5356207016117,140.38770722866
9303011013,930301,9303,93,Kepi,,-6.5389210144673,139.32012129235
9303012001,930301,9303,93,Obaa,99870,-6.5181409191954,139.33406794094
9303012002,930301,9303,93,Dagimon,99870,-6.6772618760173,139.32109159181
9303012003,930301,9303,93,Rep,99870,-6.5833682495146,139.41945370144
9303012004,930301,9303,93,"Mappi Bawah/Yamui",99870,-6.7623642978561,139.40769541473
9303012005,930301,9303,93,Wanggate,99870,-6.5024711082667,139.53124028784
9303012006,930301,9303,93,Piai,,-6.4002613976179,139.45093488636
9303012007,930301,9303,93,Muin,,-6.4814341838381,139.33578534767
9303012008,930301,9303,93,Gauda,,-6.1598247237759,139.39166668904
9303012009,930301,9303,93,Soba,99870,-6.57200946921,139.35163861577
9303012010,930301,9303,93,Enem,99870,-6.5051287869843,139.37162653763
9303012011,930301,9303,93,Kogo,99870,-6.4830790391011,139.41308958285
9303012012,930301,9303,93,Kadam/Oyim,99870,-6.6108772925238,139.52413854364
9303012014,930301,9303,93,Tokhom,99870,-6.4988637554047,139.26323455445
9303012015,930301,9303,93,Emete,99870,-6.5572158322612,139.28143902754
9303012016,930301,9303,93,Wairu,,-6.423288199014,139.34587775656
9303012017,930301,9303,93,Rayam,,-6.4007186448367,139.39112153505
9303012018,930301,9303,93,Harome,,-6.5909563525758,139.4870443109
9303012019,930301,9303,93,Metim,,-6.3859716405194,139.33617298905
9303012020,930301,9303,93,Masin,,-6.2868901627922,139.39198410369
9303012021,930301,9303,93,Madu,,-6.4375424365677,139.28409834977
9303012022,930301,9303,93,Yangpop,,-6.4959337324788,139.46457903035
9303012023,930301,9303,93,Paedam,99870,-6.5344913072857,139.4033389138
9303012024,930301,9303,93,Marbin,99870,-6.6059140821287,139.55899936624
9303022001,930302,9303,93,Mur,99873,-6.895619071785,139.15976880234
9303022002,930302,9303,93,Agham,,-6.5987629579592,139.21795716379
9303022003,930302,9303,93,Waghien/Koba,99873,-6.6109281684837,139.05071444608
9303022004,930302,9303,93,Khatan,99873,-6.7180329544164,139.19308594335
9303022005,930302,9303,93,Monana,99873,-6.8296053542824,139.08664808143
9303022006,930302,9303,93,Wagin,,-7.063284164594,138.98367050231
9303022007,930302,9303,93,Waman,,-6.6413163321746,139.13049736333
9303022008,930302,9303,93,Ima,99873,-6.5526056806008,139.14612044759
9303022009,930302,9303,93,Kogoyaman,99873,-6.5479321053469,139.08635007857
9303022010,930302,9303,93,Magabag,,-6.4565967974136,139.1878922661
9303022011,930302,9303,93,Tereyemu,,-6.5034956717066,139.12910128038
9303022012,930302,9303,93,Yatan,,-6.7773618028352,139.22586657797
9303022013,930302,9303,93,Linggua,99873,-6.8431566836418,139.2533352998
9303022014,930302,9303,93,Waruwe,99873,-6.4648956931779,139.11113576337
9303022015,930302,9303,93,Ghanu,99873,-6.7494115271012,139.04030911612
9303032001,930303,9303,93,Bidnew,,-5.7911640631023,139.38376977514
9303032002,930303,9303,93,Senggo,,-5.7251710402557,139.34900909623
9303032003,930303,9303,93,Kumasma,99875,-5.6825095467501,139.49948722665
9303032004,930303,9303,93,Womin,99875,-5.8624380934532,139.42035843018
9303032005,930303,9303,93,Tamanin,99875,-5.6738275370985,139.3046788537
9303032006,930303,9303,93,Epem,,-5.7196513466746,139.23281600613
9303032007,930303,9303,93,Abau,,-5.6521137138278,139.40411599757
9303041001,930304,9303,93,Bade,99852,-7.2379997114811,139.65585554032
9303042002,930304,9303,93,Geturki,99852,-7.092456660811,139.5304121862
9303042003,930304,9303,93,Mememu,,-7.1307840057476,139.58766296487
9303042004,930304,9303,93,Gimikya,,-7.0796335182701,139.68613312531
9303042005,930304,9303,93,Banamepe,,-7.3155499024344,139.55492515975
9303042006,930304,9303,93,Yodom,,-7.2281031174512,139.41395853402
9303042007,930304,9303,93,Isyaman,,-7.0857344818357,139.42189495952
9303052001,930305,9303,93,Yagatsu,99881,-6.2753810339724,139.05353419832
9303052002,930305,9303,93,Amagatsu,99881,-6.2524889628619,139.02360315236
9303052003,930305,9303,93,Katage,99881,-6.3548350583362,139.0534899366
9303052004,930305,9303,93,Sogope,99881,-6.2833409118668,139.02560193299
9303052005,930305,9303,93,Wiyage,99881,-6.3759428522434,138.94746148926
9303052006,930305,9303,93,Kasima,99881,-6.2224491445681,139.01370539387
9303052007,930305,9303,93,Amenda,99881,-6.158575646924,138.99609192336
9303052008,930305,9303,93,Kaibu,99881,-6.1895168527502,138.98108164792
9303052009,930305,9303,93,Omuro,99881,-6.1007642094334,138.98591961781
9303052010,930305,9303,93,Okor,99881,-6.2339314894995,138.89600037062
9303052011,930305,9303,93,Atsipim,99881,-6.2358630252811,138.96503177844
9303052012,930305,9303,93,Semtaipim,99881,-6.271025836922,138.99294127646
9303052013,930305,9303,93,Geiripim,99881,-6.3138119522086,138.93328415089
9303052014,930305,9303,93,Warogom,99881,-6.2886886587779,138.9696035626
9303052015,930305,9303,93,Kaibusene,99881,-6.3206407960701,138.86167335838
9303052016,930305,9303,93,Arare,99881,-6.357303858403,139.13021079195
9303052017,930305,9303,93,Paghai,99881,-6.3401869597835,139.21618056845
9303052018,930305,9303,93,Kerke,99881,-6.3169596674067,139.27690867923
9303052019,930305,9303,93,Mani,99881,-6.2535356407989,139.08793684037
9303062001,930306,9303,93,Sigare,99874,-6.2439601309975,139.12516319087
9303062002,930306,9303,93,"Jufo Besar",99874,-5.9755343825521,138.97881424566
9303062003,930306,9303,93,Eci,99874,-6.1151920298361,139.23302561016
9303062004,930306,9303,93,Aboge,99874,-6.0686305550437,139.30251677175
9303062005,930306,9303,93,Khanami,99874,-5.7570933657831,139.06724450023
9303062006,930306,9303,93,Yame,99874,-6.1869897131975,139.16901964259
9303062007,930306,9303,93,Kaitok,99874,-6.2230158260791,139.25178289712
9303062008,930306,9303,93,Homang,99874,-6.1491113634863,139.08082523246
9303062009,930306,9303,93,"Jufo Kecil",99874,-6.1169459019783,139.12182635967
9303062010,930306,9303,93,Khabu,99874,-6.0265167138236,139.04829356071
9303062011,930306,9303,93,Kiki,99874,-5.9471607210941,139.10674633314
9303062012,930306,9303,93,Isage,99874,-5.951591331449,139.18027253096
9303062013,930306,9303,93,Kopi,99874,-5.9983102060005,139.23787418442
9303062014,930306,9303,93,Asaren,99874,-5.8125702893435,139.11946778691
9303062015,930306,9303,93,Keru,99874,-5.8236012517897,138.97323209662
9303062016,930306,9303,93,Girimio,99874,-6.0153360351284,139.2869277154
9303062017,930306,9303,93,Haffo,99874,-6.1392933504575,139.15566005951
9303062018,930306,9303,93,Meda,99874,-5.6613341273421,139.06432025864
9303072001,930307,9303,93,Amazu,99876,-5.6037389942414,139.706488344
9303072002,930307,9303,93,Imembi,99876,-5.5581579851066,139.73202935604
9303072003,930307,9303,93,Yemu,99876,-5.5222087522193,139.70800788912
9303072004,930307,9303,93,Fomu,,-5.9146428225908,139.73010859064
9303072005,930307,9303,93,Tiau,99876,-5.6417341768181,139.67958654688
9303072006,930307,9303,93,Binerbis,99876,-5.6014309628165,139.58268519313
9303072007,930307,9303,93,Tayau,99876,-5.6238865568902,139.55491072967
9303082001,930308,9303,93,Sepoh,99871,-6.209543315211,139.66141356857
9303082002,930308,9303,93,Bagaram,99871,-6.2590481409007,139.71144167005
9303082003,930308,9303,93,Passue/Taim,99871,-6.3166145101055,139.69946138336
9303082004,930308,9303,93,Nohon,99871,-6.3307852021007,139.58634996351
9303082005,930308,9303,93,Kotiak,99871,-6.4484992594033,139.62691923746
9303082006,930308,9303,93,Menya,99871,-6.2474035922091,139.59003452939
9303082007,930308,9303,93,Tokhompatu,99871,-6.2814259750557,139.50351238631
9303082008,930308,9303,93,Kotup,99871,-6.3874050623739,139.51962774231
9303082009,930308,9303,93,"Rimba Jaya/Gayu",99871,-6.5094574784345,139.67801309042
9303082010,930308,9303,93,Kaime,99871,-6.5329876682218,139.76079431634
9303082011,930308,9303,93,Baitate,99871,-6.6461057413498,139.63445391677
9303082012,930308,9303,93,Urufu,99871,-6.1928000029431,139.78578241754
9303082013,930308,9303,93,Afogoma,99871,-6.2081426925765,139.57821816199
9303092001,930309,9303,93,Kabe,99872,-6.7028964021454,138.906958653
9303092002,930309,9303,93,Kaumi,99872,-6.5856629932724,138.98774259677
9303092003,930309,9303,93,Kayagai,99872,-6.4729887964532,139.02396572511
9303092004,930309,9303,93,Ati,99872,-6.4832357675324,138.93105297648
9303092005,930309,9303,93,Upin,99872,-6.5445771926347,138.92249832823
9303092006,930309,9303,93,Taragai,99872,-6.5670337692236,138.84450032981
9303092007,930309,9303,93,Sene,99872,-6.4109330139652,138.83485269819
9303092008,930309,9303,93,Komru,99872,-6.5168460107449,138.8330892593
9303092009,930309,9303,93,Kofar,99872,-6.5445668800375,138.710313146
9303092010,930309,9303,93,Sumuraman,99872,-6.7491695935009,138.74893606734
9303092011,930309,9303,93,Pano,99872,-6.6059090212429,138.88887031067
9303092012,930309,9303,93,Kogir,99872,-6.462863071234,138.77542817012
9303102001,930310,9303,93,Sien,,-6.6527105864678,139.75951063054
9303102002,930310,9303,93,Sahapikya,,-6.8920602138649,139.97827378983
9303102003,930310,9303,93,Harapan,,-6.8052678373975,139.98886346604
9303102004,930310,9303,93,Yibin,,-6.821202619238,139.86000303008
9303102005,930310,9303,93,Mopio,,-6.6423322335163,139.87473929209
9303102006,930310,9303,93,Pies,99854,-6.7365595401804,140.00743478573
9303102007,930310,9303,93,Memes,99854,-6.5799697478221,139.98782163781
9303102008,930310,9303,93,Getiyo,99854,-6.7827037298796,139.82852012973
9303112001,930311,9303,93,Homlikia,99853,-7.0316385545547,139.60403855705
9303112002,930311,9303,93,Kobeta,99853,-6.9927015430404,139.6000094485
9303112003,930311,9303,93,Asset,99853,-6.9588862944478,139.65591316854
9303112004,930311,9303,93,Osso,99853,-6.8109088117963,139.61198079253
9303112005,930311,9303,93,Bosma,99853,-6.895172544473,139.66264214838
9303112006,930311,9303,93,Oghoto,99853,-6.9484578898099,139.55860100808
9303122001,930312,9303,93,Amk,99855,-7.2034495077088,139.89581027729
9303122002,930312,9303,93,Yame,99855,-7.05286462113,139.94165854053
9303122003,930312,9303,93,Benggo,99855,-6.9961195332395,139.75759364689
9303122004,930312,9303,93,Kokoya,99855,-6.9238591742345,139.77463575688
9303122005,930312,9303,93,Borohaba,99855,-6.7758965296776,139.72934930051
9303122006,930312,9303,93,Ogorito,99855,-6.8555102716016,139.69590771122
9303122007,930312,9303,93,Hebeske,99855,-6.8773291215407,139.82568927603
9303132001,930313,9303,93,Yeloba,99851,-7.0011931309511,139.31803791049
9303132002,930313,9303,93,Konebi,99851,-6.9532765670462,139.36803948673
9303132003,930313,9303,93,Sibi,99851,-6.8312768445426,139.51415612985
9303132004,930313,9303,93,"Tagaimon Sino",99851,-6.8962434636951,139.41414039141
9303132005,930313,9303,93,"Tagaimon Karome",99851,-6.9047118912672,139.44772628841
9303142001,930314,9303,93,Wonggi,99877,-6.0775207971247,139.52485266718
9303142002,930314,9303,93,Busiri,99877,-6.0758452746905,139.38988445869
9303142003,930314,9303,93,Keta,99877,-5.9656065038237,139.50553193334
9303142004,930314,9303,93,Veta,99877,-6.0347113582014,139.62659671136
9303142005,930314,9303,93,Honya,99877,-5.8517176748102,139.60421989085
9303142006,930314,9303,93,Haku,99877,-5.8968264287363,139.54999219016
9303142007,930314,9303,93,Bifo,99877,-6.1517727416973,139.52166673066
9303142008,930314,9303,93,Samurukie,99877,-5.9796384073081,139.39569990168
9303152001,930315,9303,93,Sagis,99878,-5.4919396860302,139.5350728005
9303152002,930315,9303,93,Kumaban,99878,-5.4437588554677,139.58607249752
9303152003,930315,9303,93,Tugumau,99878,-5.5307997377287,139.57539183714
9303152004,930315,9303,93,Basman,99878,-5.4024659325655,139.68250457454
9303152005,930315,9303,93,Merokima,99878,-5.4852433674142,139.63729375936
9303152006,930315,9303,93,Mu,99878,-5.362274986501,139.74614764962
9303152007,930315,9303,93,Pier,99878,-5.5720864555549,139.53915463404
9303152008,930315,9303,93,Tarwa,99878,-5.4593663556529,139.7299998717
9304012001,930401,9304,93,Yomoth,99777,-5.5863551663551,138.13050246818
9304012002,930401,9304,93,Uwus,99777,-5.6332611788062,138.16537384929
9304012003,930401,9304,93,Asuwetsy,99777,-5.5419878850873,138.12928227044
9304012004,930401,9304,93,Bismam,99777,-5.4509277749171,138.16304714821
9304012005,930401,9304,93,"Bis Agats",99777,-5.5472114482639,138.14988710371
9304012006,930401,9304,93,Per,99777,-5.6281966291796,138.11758335464
9304012007,930401,9304,93,Beriten,99777,-5.6934316383554,138.1549965556
9304012008,930401,9304,93,Mbait,99777,-5.4998028607416,138.19381984596
9304012009,930401,9304,93,Bou,99777,-5.6848693381329,138.09029029825
9304012010,930401,9304,93,Saw,99777,-5.4356510834745,138.09432716636
9304012011,930401,9304,93,Kaye,99777,-5.5637331800537,138.10054636804
9304012012,930401,9304,93,Suwru,99777,-5.5507702826222,138.09274686593
9304022001,930402,9304,93,Atsj,99775,-5.6991980182954,138.35950421644
9304022002,930402,9304,93,Sogoni,99775,-5.7234397265334,138.87897782077
9304022003,930402,9304,93,Amanamkai,99775,-5.7319445527451,138.50579416106
9304022004,930402,9304,93,Ambisu,99775,-5.8901596721485,138.48655115431
9304022005,930402,9304,93,Bine,99775,-5.7597844536461,138.76592450386
9304022006,930402,9304,93,Bipim,99775,-5.7749068950565,138.62160085002
9304022007,930402,9304,93,Yasiuw,99775,-5.7267511918265,138.39934118695
9304022008,930402,9304,93,Bakasai,99775,-5.7532266614362,138.39026169024
9304022009,930402,9304,93,Cewewyamew,99775,-5.8385126226694,138.50312595879
9304032001,930403,9304,93,Sawa,99783,-5.0839436425291,138.22319844125
9304032002,930403,9304,93,Erma,99783,-5.2041991720321,138.24677233834
9304032003,930403,9304,93,Bu,99783,-5.0933866972861,138.44440083512
9304032004,930403,9304,93,Er,99783,-5.0864946698083,138.28153979076
9304032005,930403,9304,93,Pupis,99783,-4.8789660153487,138.25877895734
9304032006,930403,9304,93,Sona,99783,-5.1498277298743,138.30083078801
9304032007,930403,9304,93,Agani,99783,-5.0302422800604,138.38227015701
9304032008,930403,9304,93,Mumugu,99783,-4.9288894591113,138.48287924044
9304032009,930403,9304,93,Sauti,99783,-5.189570467731,138.15214991049
9304032010,930403,9304,93,"Mumugi II",99783,-4.7969023945897,138.46894212028
9304042001,930404,9304,93,Ayam,99779,-5.3294842907579,138.31402323784
9304042006,930404,9304,93,Waw,99779,-5.3395641336086,138.288824991
9304042007,930404,9304,93,"Bayiw Pinam",99779,-5.324861068985,138.3337046168
9304042008,930404,9304,93,Cumnew,99779,-5.3226485516055,138.34743978124
9304042009,930404,9304,93,Jewes,99779,-5.3372417684229,138.36519173903
9304052001,930405,9304,93,Basim,99782,-6.0543177644271,138.35433622213
9304052002,930405,9304,93,Waras,99782,-6.001653117251,138.40227633999
9304052003,930405,9304,93,Biopis,99782,-6.0236649446274,138.52914946862
9304052004,930405,9304,93,Nanai,99782,-6.0960307798797,138.40364453493
9304052005,930405,9304,93,Pirien,99782,-5.948307500659,138.35231351893
9304052006,930405,9304,93,Ocenep,99782,-5.991361427105,138.35657509065
9304052007,930405,9304,93,Ais,99782,-6.0444847510928,138.36947890326
9304052008,930405,9304,93,Yawas,99782,-6.0070535283403,138.43333109481
9304052009,930405,9304,93,Bakyor,99782,-5.998689919709,138.37201537033
9304052010,930405,9304,93,Isar,99782,-5.9826470425644,138.32443992627
9304052011,930405,9304,93,Kayarpis,99782,-5.9668983580218,138.37581439619
9304052012,930405,9304,93,Sayoa,99782,-6.0781402745044,138.43381844617
9304052013,930405,9304,93,Bora,99782,-6.0873225793459,138.37239050003
9304062001,930406,9304,93,Kamur,99773,-6.1570651101056,138.6752619376
9304062002,930406,9304,93,Sanep,99773,-6.2438726464847,138.58195398386
9304062003,930406,9304,93,Saramit,99773,-6.1799428622736,138.60602066643
9304062004,930406,9304,93,Yahoi,99773,-6.2296510025278,138.68453205915
9304062005,930406,9304,93,Hainam,99773,-6.2087375236393,138.64846089094
9304062006,930406,9304,93,Yagamit,99773,-6.2416204004399,138.62538231937
9304062007,930406,9304,93,Bawor,99773,-6.2279952807029,138.54921456667
9304062008,930406,9304,93,Sanapai,99773,-6.2095995704633,138.51760522736
9304062009,930406,9304,93,Sarmafo,99773,-6.1799334483274,138.57356841666
9304072001,930407,9304,93,Binam,99792,-5.2724510788027,139.34204508128
9304072002,930407,9304,93,Wagabus,99792,-5.1821498241749,139.27872862361
9304072003,930407,9304,93,Burbis,99792,-5.374416753899,139.36942532179
9304072004,930407,9304,93,Bubis,99792,-5.3318473589325,139.15267407646
9304072005,930407,9304,93,Karbis,99792,-5.4409596245175,139.28083162021
9304072006,930407,9304,93,Jinak,99792,-5.4498803219849,139.094595796
9304072007,930407,9304,93,Wowi,99792,-5.4850549940851,139.19131441269
9304072008,930407,9304,93,Soray,99792,-5.3799195167616,139.22675088089
9304072009,930407,9304,93,"Waganu Dua",99792,-5.5913378700225,139.16912254132
9304072010,930407,9304,93,Waijens,99792,-5.1177844672753,139.43715707737
9304072011,930407,9304,93,Bumu,99792,-5.0299919280079,139.40302038117
9304072012,930407,9304,93,"Kapayap Satu",99792,-5.1797981567995,139.77234928755
9304072013,930407,9304,93,"Kapayap Dua",99792,-5.1357976980887,139.72631378638
9304072014,930407,9304,93,Emnam,99792,-5.415723679312,139.33676916069
9304082001,930408,9304,93,Suru-Suru,99781,-4.7780206112219,138.96685012588
9304082002,930408,9304,93,See,99781,-4.8169202228039,138.88644724393
9304082007,930408,9304,93,Tomor,99781,-4.9876108011411,138.75534263625
9304082009,930408,9304,93,Dumaten,99781,-4.7684447720589,138.91326736002
9304082010,930408,9304,93,Hom-hom,99781,-4.7233838654172,139.20274962175
9304082011,930408,9304,93,Ajin,99781,-4.9087614019742,139.04255621292
9304082012,930408,9304,93,Laluk,99781,-4.7596672138851,138.94021147469
9304082013,930408,9304,93,Kebikduk,99781,-4.7618357796766,138.98133062247
9304082014,930408,9304,93,Hulam,99781,-4.7616951627484,138.93983994689
9304082015,930408,9304,93,Walase,99781,-4.7592111046522,138.97844992369
9304082016,930408,9304,93,Berimono,99781,-4.7894958112776,138.93934010622
9304082017,930408,9304,93,Asgun,99781,-4.7605620417056,138.97461196116
9304082018,930408,9304,93,Korobuk,99781,-4.727479222005,139.20307501429
9304082019,930408,9304,93,Katalina,99781,-4.7824510751576,139.14227203654
9304082020,930408,9304,93,Obio,99781,-4.7367296310905,139.19358748884
9304082021,930408,9304,93,Salbik,99781,-4.7631879530741,138.97762599149
9304082022,930408,9304,93,Linduk,99781,-4.7621723926851,138.97996071287
9304082023,930408,9304,93,Besika,99781,-4.7609523968839,138.96644879078
9304092001,930409,9304,93,Binamsain,99791,-5.3526424034226,139.52743192036
9304092002,930409,9304,93,Pirabanak,99791,-5.2390265644998,139.43182639275
9304092003,930409,9304,93,"Woutu Braza",99791,-5.1751003953217,139.42993224303
9304092004,930409,9304,93,Patipi,99791,-5.0830848476481,139.40184341736
9304092005,930409,9304,93,Ulakin,99791,-5.2610642537278,139.6425543776
9304092006,930409,9304,93,"Woutu Kolof",99791,-5.2046389413496,139.53849029661
9304092007,930409,9304,93,Butukatnau,99791,-5.0823828207014,139.54819044866
9304092008,930409,9304,93,Auban,99791,-5.1024054683822,139.6470798612
9304092009,930409,9304,93,Pepera,99791,-5.3654421470935,139.43383791453
9304102002,930410,9304,93,Amor,99780,-5.2330797637303,138.35994905961
9304102003,930410,9304,93,Yipawer,99780,-5.2018342072858,138.40543965177
9304102004,930410,9304,93,Berip,99780,-5.1853641930819,138.48371068119
9304102005,930410,9304,93,Ayir,99780,-5.2093076310884,138.37258536226
9304102006,930410,9304,93,Werer,99780,-5.2092230125807,138.34680090418
9304102009,930410,9304,93,Paar,99780,-5.2636062989814,138.3395031808
9304112001,930411,9304,93,Yamas,99784,-5.2608568496191,138.09921090776
9304112002,930411,9304,93,Yeni,99784,-5.3778573968114,137.9890281023
9304112003,930411,9304,93,Omor,99784,-5.3393171248556,137.82471423434
9304112004,930411,9304,93,"Jufri ",99784,-5.2916753773842,138.19266926966
9304112005,930411,9304,93,Yaun,99784,-5.3436135260266,138.08120830205
9304112006,930411,9304,93,Onavai,99784,-5.2525768280508,137.9428840804
9304122001,930412,9304,93,Kapi,99778,-5.0722846374779,138.00222926097
9304122002,930412,9304,93,As,99778,-5.1274498834352,138.05582566199
9304122003,930412,9304,93,Atat,99778,-5.0126071334027,138.07916858901
9304122004,930412,9304,93,Aou,99778,-4.9911338678205,137.94794125954
9304122005,930412,9304,93,Nakai,99778,-4.8802579143338,137.87945685241
9304122006,930412,9304,93,Esmapan,99778,-4.7444873229862,138.03199259918
9304122007,930412,9304,93,Eroko,99778,-4.8600458049473,138.16024516387
9304122008,930412,9304,93,Yakapis,99778,-4.7407968423193,138.17191159694
9304122009,930412,9304,93,Weo,99778,-5.0268756756674,138.14841232525
9304122010,930412,9304,93,Aoap,99778,-5.215394975546,137.79249989463
9304122011,930412,9304,93,Fumereipits,99778,-4.9746542469142,137.83992175458
9304132001,930413,9304,93,Warse/Jetsy,99785,-5.5833437208861,138.34370517246
9304132002,930413,9304,93,Powetsy/Amborep,99785,-5.6543844124102,138.37166117418
9304132003,930413,9304,93,Pau,99785,-5.4887100697315,138.3484789349
9304132004,930413,9304,93,Sesakam,99785,-5.6619102026251,138.24305579528
9304132005,930413,9304,93,Akamar,99785,-5.5305988893706,138.37199162486
9304132006,930413,9304,93,Birak,99785,-5.5760052121882,138.25794999117
9304132007,930413,9304,93,Katew,99785,-5.4185042073405,138.30045481643
9304132008,930413,9304,93,Dawer,99785,-5.6079322337848,138.37927868487
9304142001,930414,9304,93,Yamkap,99771,-6.2083074291629,138.71917917194
9304142002,930414,9304,93,Amkum,99771,-6.1942236741548,138.7464745187
9304142003,930414,9304,93,Amaru,99771,-6.2671789675781,138.80373463859
9304142004,930414,9304,93,Amkai,99771,-6.2683428141113,138.73286699177
9304142005,930414,9304,93,Amagais,99771,-6.1884603190284,138.78924540027
9304142006,930414,9304,93,Erosaman,99771,-6.2146350095409,138.81554218418
9304152001,930415,9304,93,Kawem,99772,-6.3516672997343,138.75389736565
9304152002,930415,9304,93,Hahare,99772,-6.3599149258103,138.62864342211
9304152003,930415,9304,93,Aikut,99772,-6.3487821537837,138.59965318693
9304152004,930415,9304,93,Sanem,99772,-6.3211649826286,138.5425090293
9304152005,930415,9304,93,Kaipom,99772,-6.2944198318152,138.61521988265
9304152006,930415,9304,93,"Airo Sapem",99772,-6.3640595498801,138.66619172086
9304152007,930415,9304,93,Simipit,99772,-6.3132363942191,138.57992689519
9304152008,930415,9304,93,Heiyaram,99772,-6.3013726734002,138.64020745808
9304152009,930415,9304,93,Wagasu,99772,-6.3247230620269,138.69046478391
9304152010,930415,9304,93,Sasime,99772,-6.3660283340408,138.72636939971
9304162001,930416,9304,93,Primapun,99774,-6.2899927180185,138.4360997958
9304162002,930416,9304,93,Aworket,99774,-6.3414576637049,138.45651982137
9304162003,930416,9304,93,Saman,99774,-6.295257205964,138.49444951089
9304162004,930416,9304,93,Bayun,99774,-6.1967748312451,138.41686110733
9304162005,930416,9304,93,Semendoro,99774,-6.4681776923578,138.63201171816
9304162006,930416,9304,93,Tareo,99774,-6.418560530922,138.56738105829
9304162007,930416,9304,93,Kayirim,99774,-6.2438887912432,138.43821804564
9304162008,930416,9304,93,Santambor,99774,-6.1521282648215,138.41676358902
9304162009,930416,9304,93,Yaptambor,99774,-6.1186452209465,138.38662701466
9304162010,930416,9304,93,Simsagar,99774,-6.1675103762025,138.48877780161
9304162011,930416,9304,93,Itersok,99774,-6.2045203559464,138.47920476786
9304162012,930416,9304,93,Emene,99774,-6.3783184735478,138.49262903161
9304172001,930417,9304,93,Yausakor,99787,-5.6371162886951,138.46119466352
9304172002,930417,9304,93,Damen,99787,-5.5288426763311,138.51595662113
9304172003,930417,9304,93,"Biwar Darat",99787,-5.477641400657,138.57993256278
9304172004,930417,9304,93,Kaimo,99787,-5.5771447937054,138.63870896944
9304172005,930417,9304,93,Awok,99787,-5.5816449402239,138.68203658746
9304172006,930417,9304,93,Fos,99787,-5.5779788953083,138.80480145844
9304172007,930417,9304,93,Waganu,99787,-5.5372602351788,138.98272462995
9304172008,930417,9304,93,Sakor,99787,-5.6202240667805,138.54348611221
9304182001,930418,9304,93,Comoro,99776,-5.9051664093285,138.65855965239
9304182002,930418,9304,93,Kawet,99776,-5.8755591969807,138.54240861462
9304182003,930418,9304,93,Mausi,99776,-5.9222597928494,138.5495092589
9304182004,930418,9304,93,"Sato Yod",99776,,
9304182005,930418,9304,93,Tamor,99776,,
9304182006,930418,9304,93,"Ero Airo",99776,,
9304192001,930419,9304,93,"Biwar Laut",99786,-5.7877508018403,138.26423293467
9304192002,930419,9304,93,Atambuts,99786,-5.8012905509167,138.36844009207
9304192003,930419,9304,93,Omanesep,99786,-5.914337062252,138.32327427329
9304192004,930419,9304,93,Warkai,99786,-5.9484616142051,138.48175017809
9304192005,930419,9304,93,You,99786,-5.8906868177573,138.28816988422
9304192006,930419,9304,93,Pirpis,99786,-5.7386570352819,138.24094540613
9304192007,930419,9304,93,Desep,99786,-5.8886370513744,138.3954800008
9304202001,930420,9304,93,Bor,99792,-5.6049502600101,139.31300883506
9304202002,930420,9304,93,Daikot,99792,-5.5383283746099,139.2955881796
9304202003,930420,9304,93,Somnak,99792,-5.583301017717,139.39124700404
9304202004,930420,9304,93,Wabak,99792,-5.582345726229,139.46221229724
9304202005,930420,9304,93,Vakam,99792,-5.5387992091081,139.41237227228
9304202006,930420,9304,93,"Vakam Dua",99792,-5.457092445098,139.44883124814
9304202007,930420,9304,93,Dekamer,99792,-5.5053959523811,139.47399620528
9304212001,930421,9304,93,Piramat,99782,-6.118189055086,138.48478426111
9304212002,930421,9304,93,Bawos,99782,-6.0812210381242,138.49352585729
9304212003,930421,9304,93,"Akan Tapak",99782,-6.0900409228922,138.53453937117
9304212004,930421,9304,93,Tauro,99782,-6.1376996766608,138.56861902641
9304212005,930421,9304,93,Bagair,99782,-6.1001389408891,138.55698736438
9304212006,930421,9304,93,Wiyar,99782,-6.0649843719666,138.69927529834
9304212007,930421,9304,93,Kagas,99782,-6.0888652986611,138.59298411999
9304212008,930421,9304,93,Mapane,99782,-6.1098345921659,138.66522809453
9304212009,930421,9304,93,Ainamsato,99782,-6.0193388204381,138.6871990917
9304212010,930421,9304,93,Amaita,99782,-6.1193304896175,138.43722662118
9304222001,930422,9304,93,Yerfum,99771,-6.1156679927992,138.79218333493
9304222002,930422,9304,93,Suagai,99771,-6.1232439047055,138.85521556866
9304222003,930422,9304,93,Sohomane,99771,-6.1313003623454,138.88126741801
9304222004,930422,9304,93,Sagare,99776,-5.9489390410753,138.78707030807
9304222005,930422,9304,93,Yefuwagi,99776,-5.9333027754002,138.8612163436
9304222006,930422,9304,93,Wagi,99776,-6.0405525996905,138.86123487087
9304232001,930423,9304,93,Mabul,99791,-5.3241176052096,139.6970905425
9304232002,930423,9304,93,Banum,99792,-5.243418912128,139.80910383436
9304232003,930423,9304,93,Ayak,99792,-5.1728277559614,139.91442187476
9304232004,930423,9304,93,Amakot,99792,-5.1963693038993,139.85379709911
9304232005,930423,9304,93,Nagatun,99792,-5.0739175357799,139.93560077042
9304232006,930423,9304,93,"Ujung Batu",99792,-5.1243645554726,139.89652966022
9304232007,930423,9304,93,"Kapayap Tiga",99792,-5.2643116638197,139.85744451342
9304232008,930423,9304,93,Sipanap,99791,-5.3457877727173,139.61205360109
9304242001,930424,9304,93,Tomor,99780,-5.3203265653294,138.24077364438
9304242002,930424,9304,93,Munu,99780,-5.0514268371335,138.60415382622
9304242003,930424,9304,93,Abamu,99780,-4.8451480817124,138.6382662648
9304242004,930424,9304,93,Tie,99781,-4.8219721961433,138.78725760854
9304242005,930424,9304,93,Koba,99781,-4.8204106337199,138.83312795152
9304242006,930424,9304,93,Sagapu,99781,-4.8412926317501,138.7035624766
9304242007,930424,9304,93,Jifak,99781,-4.9913225190106,138.96762472703
9304242008,930424,9304,93,Yensuku,99781,-4.7543153392382,138.76578185056
9304252001,930425,9304,93,Beco,99779,-5.4046290020625,138.53213193585
9304252002,930425,9304,93,Yuni,99779,-5.3852287843309,138.71727799893
9304252003,930425,9304,93,Buetkawar,99779,-5.2313897544853,139.00140853369
9304252004,930425,9304,93,Manep,99779,-5.4265728281416,138.43073452351
9304252005,930425,9304,93,Simini,99779,-5.304211925087,138.51200726937
9304252006,930425,9304,93,Fakan/Ani,99779,-5.1658583370696,138.70386207455
