[
    {
        "code": 1101,
        "province_code": 11,
        "name": "Kab. Aceh Selatan",
        "latitude": 3.1618538408941346,
        "longitude": 97.43651771865193
    },
    {
        "code": 1102,
        "province_code": 11,
        "name": "Kab. Aceh Tenggara",
        "latitude": 3.368931368634976,
        "longitude": 97.69759716544476
    },
    {
        "code": 1103,
        "province_code": 11,
        "name": "Kab. Aceh Timur",
        "latitude": 4.6304405086759095,
        "longitude": 97.6260853805437
    },
    {
        "code": 1104,
        "province_code": 11,
        "name": "Kab. Aceh Tengah",
        "latitude": 4.519888081013543,
        "longitude": 96.88130519675553
    },
    {
        "code": 1105,
        "province_code": 11,
        "name": "Kab. Aceh Barat",
        "latitude": 4.454467876816481,
        "longitude": 96.18087911995038
    },
    {
        "code": 1106,
        "province_code": 11,
        "name": "Kab. Aceh Besar",
        "latitude": 5.380104502994347,
        "longitude": 95.51516820032181
    },
    {
        "code": 1107,
        "province_code": 11,
        "name": "Kab. Pidie",
        "latitude": 5.053555789000035,
        "longitude": 96.0334283739899
    },
    {
        "code": 1108,
        "province_code": 11,
        "name": "Kab. Aceh Utara",
        "latitude": 5.015776499052194,
        "longitude": 97.1818092951263
    },
    {
        "code": 1109,
        "province_code": 11,
        "name": "Kab. Simeulue",
        "latitude": 2.612827974841225,
        "longitude": 96.0862602799057
    },
    {
        "code": 1110,
        "province_code": 11,
        "name": "Kab. Aceh Singkil",
        "latitude": 2.3479697391350487,
        "longitude": 97.84505654580394
    },
    {
        "code": 1111,
        "province_code": 11,
        "name": "Kab. Bireuen",
        "latitude": 5.093825519117036,
        "longitude": 96.6070350974139
    },
    {
        "code": 1112,
        "province_code": 11,
        "name": "Kab. Aceh Barat Daya",
        "latitude": 3.8226302105855576,
        "longitude": 96.8802947194541
    },
    {
        "code": 1113,
        "province_code": 11,
        "name": "Kab. Gayo Lues",
        "latitude": 3.982693635869676,
        "longitude": 97.36008636251454
    },
    {
        "code": 1114,
        "province_code": 11,
        "name": "Kab. Aceh Jaya",
        "latitude": 4.832424749559064,
        "longitude": 95.67808932277411
    },
    {
        "code": 1115,
        "province_code": 11,
        "name": "Kab. Nagan Raya",
        "latitude": 4.1642396412601475,
        "longitude": 96.50768629466448
    },
    {
        "code": 1116,
        "province_code": 11,
        "name": "Kab. Aceh Tamiang",
        "latitude": 4.224494150590506,
        "longitude": 97.9829931171858
    },
    {
        "code": 1117,
        "province_code": 11,
        "name": "Kab. Bener Meriah",
        "latitude": 4.770053737511645,
        "longitude": 97.00411795379742
    },
    {
        "code": 1118,
        "province_code": 11,
        "name": "Kab. Pidie Jaya",
        "latitude": 5.124744338937388,
        "longitude": 96.21333121948349
    },
    {
        "code": 1171,
        "province_code": 11,
        "name": "Kota Banda Aceh",
        "latitude": 5.558704403882444,
        "longitude": 95.32771345826497
    },
    {
        "code": 1172,
        "province_code": 11,
        "name": "Kota Sabang",
        "latitude": 5.837760674847382,
        "longitude": 95.30571981820142
    },
    {
        "code": 1173,
        "province_code": 11,
        "name": "Kota Lhokseumawe",
        "latitude": 5.165266839235381,
        "longitude": 97.11119932282992
    },
    {
        "code": 1174,
        "province_code": 11,
        "name": "Kota Langsa",
        "latitude": 4.481819463788533,
        "longitude": 97.98059606204667
    },
    {
        "code": 1175,
        "province_code": 11,
        "name": "Kota Subulussalam",
        "latitude": 2.7307402024953786,
        "longitude": 97.93601600140278
    }
]