code,district_code,regency_code,province_code,name,postal_code,latitude,longitude
6201011011,620101,6201,62,Candi,74181,-2.7219661366376,111.73117037963
6201011012,620101,6201,62,"Kumai Hulu",74181,-2.6841227751576,111.78932069801
6201011013,620101,6201,62,"Kumai Hilir",74181,-2.8016249302991,111.73743080361
6201012001,620101,6201,62,"Sungai Cabang",74181,-3.2821729863059,111.91431870606
6201012002,620101,6201,62,"Teluk Pulai",74181,-2.9828317632903,111.96373225087
6201012003,620101,6201,62,Sabuai,74181,-2.9027392665325,111.50926178396
6201012004,620101,6201,62,Keraya,74181,-2.9388114529625,111.54746469577
6201012005,620101,6201,62,"Teluk Bogam",74181,-2.9429056762757,111.57278395975
6201012006,620101,6201,62,"Sungai Bakau",74181,-2.9344069988555,111.6073455924
6201012007,620101,6201,62,Kubu,74181,-2.8858472596295,111.66699036442
6201012008,620101,6201,62,"Sungai Kapitan",74181,-2.7873475488146,111.69057726101
6201012009,620101,6201,62,"Batu Belaman",74181,-2.7379662672611,111.68089781626
6201012010,620101,6201,62,"Sungai Tendang",74181,-2.7006931080759,111.72390146695
6201012014,620101,6201,62,"Sungai Sekonyer",74181,-2.7166260522384,111.94610437478
6201012015,620101,6201,62,"Sungai Bedaun",74181,-2.7527374544599,111.81567094232
6201012017,620101,6201,62,"Bumi Harjo",74181,-2.6214095287792,111.75196997515
6201012032,620101,6201,62,"Pangkalan Satu",74181,-2.6462908245167,111.75628996758
6201012034,620101,6201,62,"Sabuai Timur",74181,-2.9193702049279,111.52942925277
6201021002,620102,6201,62,"Mendawai Seberang",74117,-2.6729797656035,111.51050048142
6201021003,620102,6201,62,Mendawai,74115,-2.7283608257547,111.58098393719
6201021005,620102,6201,62,Madurejo,74112,-2.7064473416405,111.63729501452
6201021006,620102,6201,62,Sidorejo,74111,-2.6981333588802,111.6243313974
6201021007,620102,6201,62,Raja,74114,-2.6772827348405,111.6334968585
6201021008,620102,6201,62,"Raja Seberang",74116,-2.5722058986896,111.60415916469
6201021009,620102,6201,62,Baru,74113,-2.6328595011898,111.66539144106
6201022001,620102,6201,62,"Tanjung Putri",74117,-2.8192102870425,111.44079646695
6201022004,620102,6201,62,"Pasir Panjang",74117,-2.7905275515565,111.62177893989
6201022010,620102,6201,62,Rangda,74117,-2.4178338294395,111.59584009873
6201022011,620102,6201,62,Kenambui,74117,-2.3584576832833,111.65586296939
6201022012,620102,6201,62,Runtu,74117,-2.3239883244355,111.70938040415
6201022013,620102,6201,62,Umpang,74117,-2.206894448599,111.73982807393
6201022014,620102,6201,62,"Kumpai Batu Bawah",74117,-2.7655147623973,111.54865919215
6201022015,620102,6201,62,"Kumpai Batu Atas",74117,-2.7796886162819,111.57536486258
6201022016,620102,6201,62,"Natai Raya",74117,-2.6627308237868,111.70935461317
6201022017,620102,6201,62,"Medang Sari",74117,-2.5020726912954,111.66499042611
6201022018,620102,6201,62,"Natai Baru",74117,-2.5800167342526,111.67414512071
6201022019,620102,6201,62,"Tanjung Terantang",74117,-2.8177354459641,111.51391400482
6201022020,620102,6201,62,Sulung,74117,-2.3021044628426,111.62189883302
6201031007,620103,6201,62,"Kotawaringin Hulu",74161,-2.4645946158413,111.48025308389
6201031008,620103,6201,62,"Kotawaringin Hilir",74161,-2.5345625507955,111.45826583425
6201032001,620103,6201,62,"Babual Baboti",74161,-2.5943602242731,111.39148675843
6201032002,620103,6201,62,Tempayung,74161,-2.5478866057595,111.29051382943
6201032003,620103,6201,62,Sakabulin,74161,-2.4903351176684,111.30920155237
6201032004,620103,6201,62,Kinjil,74161,-2.4730658976731,111.35142065761
6201032005,620103,6201,62,Dawak,74161,-2.4119089546094,111.31053230149
6201032006,620103,6201,62,"Riam Durian",74161,-2.4171481645702,111.35301304845
6201032009,620103,6201,62,Lalang,74161,-2.4182527182542,111.48288496844
6201032010,620103,6201,62,Rungun,74161,-2.3806561528739,111.45653159791
6201032011,620103,6201,62,Kondang,74161,-2.328625639338,111.46030409475
6201032012,620103,6201,62,"Suka Jaya",74161,-2.4509438097243,111.30873826185
6201032013,620103,6201,62,"Suka Makmur",74161,-2.3610257765498,111.36241220069
6201032014,620103,6201,62,"Sumber Mukti",74161,-2.53011721732,111.24436906708
6201032015,620103,6201,62,"Palih Baru",74161,-2.2916594700313,111.36729336389
6201032016,620103,6201,62,"Ipuh Bangun Jaya",74161,-2.3235544724157,111.36141417811
6201032017,620103,6201,62,"Sagu Suka Mulya",74161,-2.3612880474311,111.29563306848
6201041002,620104,6201,62,Pangkut,74152,-2.2508794851903,111.90442843535
6201042001,620104,6201,62,"Nanga Mua",74152,-2.1885682838609,111.81234283153
6201042003,620104,6201,62,Sukarami,74152,-2.1682812625899,111.9361763228
6201042004,620104,6201,62,Gandis,74152,-2.111431906209,111.92521463951
6201042005,620104,6201,62,Kerabu,74152,-2.054540294403,111.90838595739
6201042006,620104,6201,62,Sambi,74152,-1.9771593610971,112.00665211586
6201042007,620104,6201,62,Penyombaan,74152,-2.028555041685,111.95942143569
6201042008,620104,6201,62,Pandau,74152,-1.9579469379656,111.91801405201
6201042009,620104,6201,62,Riam,74152,-1.9402974294384,111.86073110958
6201042010,620104,6201,62,Panahan,74152,-1.71658048987,111.87005104766
6201042011,620104,6201,62,"Sungai Dau",74152,-1.9942271188963,112.05342896278
6201052001,620105,6201,62,"Pangkalan Tiga",74184,-2.3792393495643,111.81493274736
6201052002,620105,6201,62,"Pandu Sanjaya",74184,-2.4552471866671,111.77080977514
6201052003,620105,6201,62,"Lada Mandala Jaya",74184,-2.5230357327397,111.7865983617
6201052004,620105,6201,62,"Makarti Jaya",74184,-2.4553358826491,111.72185089041
6201052005,620105,6201,62,"Sumber Agung",74184,-2.5704127077371,111.72834426088
6201052006,620105,6201,62,Purbasari,74184,-2.6062489202451,111.71851005522
6201052007,620105,6201,62,"Sungai Rangit Jaya",74184,-2.5608257825552,111.77537078137
6201052008,620105,6201,62,"Pangkalan Dewa",74184,-2.5112157966742,111.82473413421
6201052009,620105,6201,62,"Kadipi Atas",74184,-2.5113444155803,111.71086299339
6201052010,620105,6201,62,"Sungai Melawen",74184,-2.5271145496961,111.73955247713
6201052011,620105,6201,62,"Pangkalan Durin",74184,-2.5884911208547,111.78254637945
6201062001,620106,6201,62,"Pangkalan Banteng",74183,-2.4700061138628,111.87031752782
6201062002,620106,6201,62,"Mulya Jadi",74183,-2.563306059533,111.85189575731
6201062003,620106,6201,62,"Karang Mulya",74183,-2.4721766698209,111.92803475114
6201062004,620106,6201,62,"Kebun Agung",74183,-2.3810397869784,111.90477249426
6201062005,620106,6201,62,"Sido Mulyo",74183,-2.3953271131181,111.87695889756
6201062006,620106,6201,62,"Marga Mulya",74183,-2.4686953777287,111.89210641694
6201062007,620106,6201,62,"Amin Jaya",74183,-2.4256600011621,112.00696413122
6201062008,620106,6201,62,"Arga Mulya",74183,-2.3848306970404,111.94326593194
6201062009,620106,6201,62,"Natai Kerbau",74183,-2.5482671431578,111.9198948504
6201062010,620106,6201,62,"Simpang Berambai",74183,-2.5025210652187,111.91793866947
6201062011,620106,6201,62,"Sungai Hijau",74183,-2.4277174106418,111.91435327616
6201062012,620106,6201,62,"Sungai Pakit",74183,-2.3859231856016,111.96963765194
6201062013,620106,6201,62,"Berambai Makmur",74183,-2.5335711632834,111.87741795156
6201062014,620106,6201,62,"Karang Sari",74183,-2.5941639903999,111.88971693624
6201062015,620106,6201,62,"Sungai Pulau",74183,-2.6116365239208,111.84926499957
6201062016,620106,6201,62,"Sungai Bengkuang",74183,-2.409764682749,111.86726248615
6201062017,620106,6201,62,"Sungai Kuning",74183,-2.3714094295235,111.87378677433
6202011009,620201,6202,62,"Kota Besi Hulu",74353,-2.4203592499104,112.96839543715
6202011010,620201,6202,62,"Kota Besi Hilir",74353,-2.4046751228957,112.99859730024
6202012003,620201,6202,62,Palangan,74353,-2.3660670044416,112.74979915099
6202012004,620201,6202,62,Hanjalipan,74353,-2.2232235741203,112.74396315355
6202012005,620201,6202,62,Simpur,74353,-2.3157407279823,112.80125039587
6202012006,620201,6202,62,Pamalian,74353,-2.2605929600963,112.85645860949
6202012007,620201,6202,62,Camba,74353,-2.3612211513029,112.86102676952
6202012008,620201,6202,62,Kandan,74353,-2.3987519400001,112.90454900524
6202012012,620201,6202,62,Bajarum,74353,-2.380055565271,112.952003331
6202012015,620201,6202,62,"Rasau Tumbuh",74353,-2.2606765868834,112.79686780294
6202012017,620201,6202,62,Soren,74353,-2.3377929153957,112.82320500046
6202022004,620202,6202,62,"Rubung Buyung",74354,-2.1691737929958,113.0050525276
6202022005,620202,6202,62,Patai,74354,-2.1990164730891,112.93591247281
6202022006,620202,6202,62,"Luwuk Ranggan",74354,-2.2494489704407,112.9974676267
6202022007,620202,6202,62,Jemaras,74354,-2.2932657260707,112.95587893716
6202022008,620202,6202,62,"Cempaka Mulia Timur",74354,-2.2787374667117,113.122119763
6202022009,620202,6202,62,"Cempaka Mulia Barat",74354,-2.3200315535126,112.98429862051
6202022010,620202,6202,62,"Luwuk Bunter",74354,-2.3703221139094,112.99242510048
6202022011,620202,6202,62,"Sungai Paring",74354,-2.346994290017,112.98349308269
6202031012,620203,6202,62,"Kuala Kuayan",74357,-1.9759525931299,112.44805193139
6202032001,620203,6202,62,Tangar,74357,-2.1822637984516,112.65999056036
6202032002,620203,6202,62,Baampah,74357,-2.1428253053139,112.6313587369
6202032003,620203,6202,62,"Kawan Batu",74357,-2.1209832211545,112.56239077032
6202032004,620203,6202,62,"Tanjung Bantur",74357,-2.0773585380319,112.55780772791
6202032005,620203,6202,62,"Penda Durian",74357,-2.0484524049903,112.61946373777
6202032006,620203,6202,62,Pahirangan,74357,-2.0368715051352,112.58309043037
6202032007,620203,6202,62,Satiung,74357,-2.007123246835,112.61550064836
6202032008,620203,6202,62,Santilik,74357,-1.9733056506333,112.62786410893
6202032009,620203,6202,62,"Tangka Robah",74357,-1.9885201052151,112.54838975301
6202032010,620203,6202,62,Pemantang,74357,-2.0552075740557,112.44266187915
6202032011,620203,6202,62,"Tumbang Sapiri",74357,-2.0378597309858,112.38622332481
6202032014,620203,6202,62,Bawan,74357,-1.9343511914311,112.59038325438
6202032015,620203,6202,62,"Tanjung Jariangau",74357,-1.8940467230523,112.59068629667
6202032031,620203,6202,62,Kapuk,74357,-2.1330999521422,112.41519343069
6202032032,620203,6202,62,Pantap,74357,-2.2020462434151,112.40345144329
6202041004,620204,6202,62,Parenggean,74355,-2.0090991745899,112.74837197845
6202042001,620204,6202,62,Tehang,74355,-2.1551068499225,112.77238571595
6202042002,620204,6202,62,Kabuau,74355,-2.082736890556,112.77099099613
6202042007,620204,6202,62,"Barunang Miri",74355,-1.9106794374975,112.77772439753
6202042009,620204,6202,62,"Sumber Makmur",74355,-1.9364663771386,112.87744676082
6202042010,620204,6202,62,"Mekar Jaya",74355,-1.9900501367053,112.72395561307
6202042011,620204,6202,62,"Karang Tunggal",74355,-1.9946518147335,112.85264739748
6202042012,620204,6202,62,"Bandar Agung",74355,-1.9170479573704,112.85263021446
6202042013,620204,6202,62,"Beringin Tunggal Jaya",74355,-1.8842697478033,112.85516033124
6202042015,620204,6202,62,"Sari Harapan",74355,-1.9881114942582,112.77826923353
6202042016,620204,6202,62,"Karang Sari",74355,-1.9679207465457,112.86342699566
6202042019,620204,6202,62,Bajarau,74355,-1.9842246509506,112.83693684538
6202042023,620204,6202,62,"Bukit Harapan",74355,-1.9673644921601,112.76234109597
6202042024,620204,6202,62,Manjalin,74355,-2.0491717406195,112.84191460677
6202042025,620204,6202,62,"Karya Bersama",74355,-1.9163860032079,112.69138782286
6202051001,620205,6202,62,"Baamang Hilir",74311,-2.532331055186,112.95726079177
6202051002,620205,6202,62,"Baamang Tengah",74312,-2.520976251707,112.95871828222
6202051003,620205,6202,62,"Baamang Hulu",74313,-2.465951259358,112.9048086208
6202051007,620205,6202,62,"Tanah Mas",74312,-2.4720736867032,113.00147066095
6202051008,620205,6202,62,"Baamang Barat",74312,-2.4987712615586,112.90683602141
6202052006,620205,6202,62,Tinduk,74316,-2.4326179715315,113.03009927018
6202061001,620206,6202,62,"Mentawa Baru Hulu",74322,-2.5398528703612,112.93037036589
6202061002,620206,6202,62,"Mentawa Baru Hilir",74323,-2.5493094592724,112.93173380406
6202061003,620206,6202,62,Ketapang,74325,-2.5654932132598,112.93310482208
6202061007,620206,6202,62,Sawahan,74321,-2.5316672723292,112.92541345838
6202061009,620206,6202,62,"Pasir Putih",74322,-2.5090780230051,112.83018481402
6202062005,620206,6202,62,Pelangsian,74326,-2.6055033809995,112.96911430232
6202062006,620206,6202,62,Bapeang,74326,-2.6608904415603,112.92429676136
6202062008,620206,6202,62,"Eka Bahurui",74326,-2.6039395893958,112.94008052183
6202062010,620206,6202,62,"Telaga baru",74326,-2.5798563726479,112.97640333004
6202062011,620206,6202,62,"Bangkuang Makmur",74326,-2.611526269511,112.91064120701
6202062012,620206,6202,62,"Bapanggang Raya",74326,-2.6907391403933,112.9130759367
6202072001,620207,6202,62,"Pondok Damar",74361,-2.5851788037282,112.5502155185
6202072002,620207,6202,62,"Bagendang Hilir",74361,-2.804332742649,112.87843966307
6202072003,620207,6202,62,"Bagendang Tengah",74361,-2.6852773919095,112.80316047281
6202072004,620207,6202,62,"Natai Baru",74361,-2.6181256973402,112.68259594272
6202072005,620207,6202,62,"Bagendang Hulu",74361,-2.6488848577942,112.86945675309
6202072006,620207,6202,62,"Sumber Makmur",74361,-2.7231059460409,112.89586235816
6202072007,620207,6202,62,"Bagendang Permai",74361,-2.7689144084286,112.87646514443
6202081008,620208,6202,62,"Samuda Kota",74363,-2.8741326068087,112.91155370568
6202081009,620208,6202,62,"Basirih Hilir",74363,-2.8570498060919,112.91722363953
6202082005,620208,6202,62,Sebamban,74363,-2.9209355193535,112.92473955042
6202082006,620208,6202,62,"Samuda Besar",74363,-2.9130203817143,112.92462953502
6202082007,620208,6202,62,"Samuda Kecil",74363,-2.9014658788334,112.92144234317
6202082010,620208,6202,62,"Jaya Kelapa",74363,-2.8507099466163,112.90869723715
6202082011,620208,6202,62,"Basirih Hulu",74363,-2.8389401834604,112.91310088648
6202082012,620208,6202,62,"Jaya Karet",74363,-2.8286203703143,112.90136960395
6202082013,620208,6202,62,"Handil Sohor",74363,-2.8893264833049,112.92444889205
6202082014,620208,6202,62,"Sei Ijum Raya",74363,-2.925484776846,112.94217943751
6202092001,620209,6202,62,"Bapinang Hulu",74362,-2.7805986660101,113.02527386729
6202092002,620209,6202,62,"Bapinang Hilir",74362,-2.8459684691938,113.04581271437
6202092003,620209,6202,62,"Bapinang Hilir Laut",74362,-2.9192048434407,113.09116871325
6202092004,620209,6202,62,Satiruk,74362,-3.038938857567,113.16055061057
6202092005,620209,6202,62,"Makarti Jaya",74362,-2.7510678897022,112.95618363975
6202092006,620209,6202,62,"Rawa Sari",74362,-2.723490174435,112.96043769962
6202092007,620209,6202,62,Hanaut,74362,-2.746181383763,113.00297037428
6202092008,620209,6202,62,Babirah,74362,-2.8760575908073,113.05936539711
6202092009,620209,6202,62,Serambut,74362,-2.9771984850826,113.10004546141
6202092010,620209,6202,62,Babaung,74362,-2.8158558822737,113.04310237031
6202092011,620209,6202,62,Bamadu,74362,-2.7962286088209,113.02985086636
6202092012,620209,6202,62,Penyaguan,74362,-2.8080343505481,113.01890058965
6202092013,620209,6202,62,Hantipan,74362,-2.8970022802548,113.07479552761
6202092014,620209,6202,62,Bantian,74362,-2.9492214982561,113.09453061336
6202102001,620210,6202,62,"Tumbang Kalang",74352,-1.4855872185061,112.69276873404
6202102002,620210,6202,62,"Kuluk Telawang",74352,-1.4318300298151,112.72013863268
6202102003,620210,6202,62,"Sungai Puring",74352,-1.3869680904666,112.65082589331
6202102004,620210,6202,62,"Tumbang Ngahan",74352,-1.336364766254,112.65484145793
6202102005,620210,6202,62,"Tumbang Ramei",74352,-1.2584855448379,112.62262083736
6202102006,620210,6202,62,"Tumbang Hejan",74352,-1.3063917980542,112.53146833246
6202102007,620210,6202,62,"Sungai Hanya",74352,-1.5477215918008,112.66110944012
6202102008,620210,6202,62,"Tumbang Sepayang",74352,-1.6310236278041,112.59156979137
6202102016,620210,6202,62,"Buntut Nusa",74352,-1.2932697183715,112.46656195747
6202102017,620210,6202,62,"Tumbang Gagu",74352,-1.256767791193,112.40650760192
6202102021,620210,6202,62,"Tumbang Manya",74352,-1.4816414124402,112.56884537411
6202102025,620210,6202,62,"Gunung Makmur",74352,-1.6121932103305,112.66458427368
6202102027,620210,6202,62,"Mulya Agung",74352,-1.6583917148852,112.68716236488
6202102028,620210,6202,62,"Bhakti Karya",74352,-1.6001642814752,112.71059439561
6202102029,620210,6202,62,"Waringin Agung",74352,-1.5413634382948,112.72488551383
6202112001,620211,6202,62,Parebok,74364,-2.9449667341703,112.92788306094
6202112002,620211,6202,62,Basawang,74364,-2.9518741859119,112.99590978931
6202112003,620211,6202,62,Lampuyang,74364,-3.0848098668322,112.88608602833
6202112004,620211,6202,62,"Ujung Pandaran",74364,-3.2186656011779,112.89284512961
6202112005,620211,6202,62,"Regei Lestari",74364,-2.9804984158308,113.00916849522
6202112006,620211,6202,62,"Kuin Permai",74364,-2.9969026633204,112.9664907327
6202121001,620212,6202,62,"Mentaya Seberang",74324,-2.5605582672696,113.07000406008
6202122002,620212,6202,62,Terantang,74314,-2.3729199982254,113.09051141945
6202122003,620212,6202,62,Batuah,74315,-2.4765140901709,113.12593621113
6202122004,620212,6202,62,"Terantang Hilir",74315,-2.4134009937853,113.14048652551
6202122005,620212,6202,62,Ganepo,74314,-2.6666489897764,113.02660162776
6202122006,620212,6202,62,"Seragam Jaya",74315,-2.5391611454149,113.03111395192
6202132001,620213,6202,62,Pundu,74359,-1.9215924719136,113.0872323267
6202132002,620213,6202,62,Keruing,74359,-2.083751555375,113.09226221395
6202132003,620213,6202,62,Parit,74359,-2.1507826633516,113.09145489906
6202132004,620213,6202,62,"Pantai Harapan",74359,-2.0155493384149,113.14769948672
6202132005,620213,6202,62,Pelantaran,74359,-2.0334933710146,112.94613962368
6202132006,620213,6202,62,"Tumbang Koling",74359,-1.7426029461406,112.9227007071
6202132007,620213,6202,62,Sudan,74359,-2.1386802221518,113.11553096798
6202132008,620213,6202,62,"Bukit Batu",74359,-1.9678051047349,112.97764886477
6202132009,620213,6202,62,"Bukit Raya",74359,-2.1125915577429,112.92826974209
6202132010,620213,6202,62,Selucing,74359,-1.842430128424,112.98647181898
6202132011,620213,6202,62,"Sungai Ubar Mandiiri",74359,-2.1148200120127,113.14322689686
6202142001,620214,6202,62,Sebabi,74350,-2.3363807618809,112.52842655694
6202142002,620214,6202,62,"Tanah Putih",74350,-2.4244339234729,112.6275929983
6202142003,620214,6202,62,"Sumber Makmur",74350,-2.3539363837541,112.47359862844
6202142004,620214,6202,62,Kenyala,74350,-2.2706996748621,112.66463889692
6202142005,620214,6202,62,Penyang,74350,-2.4946726649539,112.65504307934
6202142006,620214,6202,62,"Biru Maju",74350,-2.2817328091247,112.44408561013
6202152001,620215,6202,62,"Tumbang Tilap",74356,-1.9479361633023,112.41057930181
6202152002,620215,6202,62,"Tumbang Kaminting",74356,-1.8873761155584,112.44668595175
6202152003,620215,6202,62,"Tanah Haluan",74356,-1.8517005105177,112.43067343165
6202152004,620215,6202,62,"Tumbang Panyahuan",74356,-1.8382619202646,112.38016144956
6202152005,620215,6202,62,"Tumbang Sapia",74356,-1.7588310482912,112.39376460887
6202152006,620215,6202,62,"Tumbang Getas",74356,-1.7837582014516,112.36176881154
6202152007,620215,6202,62,"Tewai Hara",74356,-1.8209957893987,112.31645864071
6202152008,620215,6202,62,"Tumbang Payang",74356,-1.7298477560709,112.25168043181
6202152009,620215,6202,62,"Tumbang Kania",74356,-1.6658615055142,112.16561097748
6202152010,620215,6202,62,"Tumbang Tawan",74356,-1.6131838251341,112.28210408145
6202152011,620215,6202,62,"Lunuk Bagantung",74356,-1.6450978685317,112.33163093313
6202152012,620215,6202,62,"Tumbang Torung",74356,-1.6821598736881,112.36989283841
6202152013,620215,6202,62,"Tumbang Batu",74356,-1.6864005066272,112.43594460548
6202152014,620215,6202,62,"Tumbang Saluang",74356,-1.5231085152896,112.1979092032
6202162001,620216,6202,62,"Luwuk Sampun",74358,-1.7177427467061,112.75841355066
6202162002,620216,6202,62,"Tumbang Mujam",74358,-1.7765097998966,112.79008445228
6202162003,620216,6202,62,Merah,74358,-1.7455758421374,112.78838568972
6202162004,620216,6202,62,"Tanjung Jorong",74358,-1.5946336886569,112.79374467524
6202162005,620216,6202,62,Sebungsu,74358,-1.836742291751,112.77095339579
6202162006,620216,6202,62,"Bukit Makmur",74358,-1.777672988556,112.69019082046
6202162007,620216,6202,62,Wonosari,74358,-1.7456344487679,112.69766382223
6202162008,620216,6202,62,"Mekar Sari",74358,-1.6594781023997,112.87707231495
6202162009,620216,6202,62,"Damar Makmur",74358,-1.6980563196044,112.82977910689
6202162010,620216,6202,62,"Cempaka Putih",74358,-1.8695991031454,112.87874725513
6202162011,620216,6202,62,"Jati Waringin",74358,-1.9046021139928,112.88992133175
6202172001,620217,6202,62,"Tumbang Boloi",74352,-1.6895281139927,112.60119606158
6202172002,620217,6202,62,"Luwuk Kowan",74352,-1.7284255242386,112.57717870856
6202172003,620217,6202,62,"Rantau Tampang",74352,-1.7550506625212,112.57313398552
6202172004,620217,6202,62,"Tumbang Mangkup",74352,-1.7671234975249,112.55243533793
6202172005,620217,6202,62,"Rantau Katang",74352,-1.7764193638439,112.53458997674
6202172006,620217,6202,62,"Tumbang Sangai",74352,-1.8139218978819,112.53725492663
6202172007,620217,6202,62,"Tukang Langit",74352,-1.8603154980005,112.56978235279
6202172008,620217,6202,62,"Beringin Agung",74352,-1.8142936187326,112.61913220894
6202172009,620217,6202,62,"Agung Mulya",74352,-1.751405179877,112.64400680428
6202172010,620217,6202,62,"Batu Agung",74352,-1.683946448939,112.4914140099
6202172011,620217,6202,62,"Bukit Indah",74352,-1.5588661019656,112.43476217069
6202172012,620217,6202,62,"Tumbang Puan",74352,-1.4570055685823,112.48448418118
6202172013,620217,6202,62,"Rantau Suang",74352,-1.3950408271204,112.24516075513
6202172014,620217,6202,62,"Rantau Sawang",74352,-1.4282205102747,112.38030227426
6202172015,620217,6202,62,"Tanjung Harapan",74356,-1.8138403764076,112.65287753912
6202172016,620217,6202,62,"Buana Mustika",74356,-1.8657889391146,112.66680874447
6202172017,620217,6202,62,"Tri Buana",74352,-1.6432621578192,112.50623262979
6202172018,620217,6202,62,"Tumbang Bajanei",74352,-1.7065364896514,112.56950917907
6203011006,620301,6203,62,"Murung Keramat",73512,-3.0381571016277,114.35607323049
6203011007,620301,6203,62,"Selat Hilir",73513,-3.0174300511135,114.38080310408
6203011008,620301,6203,62,"Selat Tengah",73514,-3.0134493880147,114.39080027244
6203011009,620301,6203,62,"Selat Hulu",73515,-2.9986414417356,114.40733499307
6203011010,620301,6203,62,"Selat Dalam",73516,-2.9909993699832,114.39523249681
6203011021,620301,6203,62,"Selat Utara",73516,-2.9663681098773,114.41189954613
6203011022,620301,6203,62,"Selat Barat",73514,-3.0044785102152,114.37226639753
6203011023,620301,6203,62,Panamas,73514,-3.0377079277468,114.32830240601
6203012011,620301,6203,62,"Pulau Telo",73516,-2.9923214643217,114.37519336674
6203012020,620301,6203,62,"Pulau Telo Baru",73516,-2.9602183254016,114.3856140343
6203021001,620302,6203,62,Mambulau,73521,-3.0318397996972,114.40545761978
6203021002,620302,6203,62,Hampatung,73522,-3.0250337865437,114.41236161142
6203021003,620302,6203,62,Dahirang,73523,-3.0185404459609,114.41459528517
6203021004,620302,6203,62,Barimba,73524,-3.0165613490816,114.42433496872
6203021005,620302,6203,62,"Sei Pasah",73525,-3.0095399373307,114.44710271041
6203022006,620302,6203,62,Bakungin,73525,-2.9720847189656,114.46470901965
6203022007,620302,6203,62,"Sei Asam",73525,-2.9922672557634,114.46997341543
6203022008,620302,6203,62,"Saka Batur",73525,-2.9692711988883,114.48524425582
6203032001,620303,6203,62,"Anjir Serapat Timur",73581,-3.1152429525927,114.48316570927
6203032002,620303,6203,62,"Anjir Serapat Tengah",73581,-3.1006476696786,114.47196868864
6203032003,620303,6203,62,"Anjir Serapat Barat",73581,-3.0857608817624,114.45942395375
6203032004,620303,6203,62,"Anjir Mambulau Timur",73581,-3.0559682098846,114.45176410187
6203032005,620303,6203,62,"Anjir Mambulau Tengah",73581,-3.0584916906381,114.42715655518
6203032006,620303,6203,62,"Anjir Mambulau Barat",73581,-3.0474519764927,114.41760955378
6203032007,620303,6203,62,"Anjir Serapat Baru",73581,-3.0670942401218,114.46138698301
6203042001,620304,6203,62,Batanjung,73583,-3.3578371858235,114.21018060309
6203042002,620304,6203,62,"Cemara Labat",73583,-3.4149405491787,114.30110348691
6203042003,620304,6203,62,Palampai,73583,-3.4418371198087,114.3361420357
6203042004,620304,6203,62,"Sei Teras",73583,-3.3728904232802,114.32457585214
6203042005,620304,6203,62,"Lupak Dalam",73583,-3.2684234001917,114.29184722745
6203042008,620304,6203,62,"Tamban Baru Selatan",73583,-3.2561695657001,114.36466404368
6203042011,620304,6203,62,"Tamban Lupak",73583,-3.29831057666,114.32533174245
6203042014,620304,6203,62,"Lupak Timur",73583,-3.3126173275961,114.34004991073
6203042015,620304,6203,62,"Wargo Mulyo",73583,-3.257563881404,114.33972938354
6203042016,620304,6203,62,"Sei Bakut",73583,-3.2771373355006,114.34715435467
6203042018,620304,6203,62,Pematang,73583,-3.3766433478914,114.27087165273
6203042019,620304,6203,62,"Simpang Bunga Tanjung",73583,-3.3234853279408,114.21353653069
6203042020,620304,6203,62,Baranggau,73583,-3.3291636664346,114.31569630092
6203051004,620305,6203,62,Mandomai,73552,-2.8152859851944,114.38215690941
6203052001,620305,6203,62,"Sei Kayu",73552,-2.9012914535056,114.38491104849
6203052002,620305,6203,62,"Saka Mangkahai",73552,-2.855573246754,114.32300415049
6203052003,620305,6203,62,"Anjir Kalampan",73552,-2.7966344585453,114.32454675532
6203052005,620305,6203,62,Pantai,73552,-2.7911222127596,114.40485620456
6203052006,620305,6203,62,"Saka Tamiang",73552,-2.7802796008931,114.42889959281
6203052007,620305,6203,62,"Penda Katapi",73552,-2.7549937898009,114.44765019551
6203052008,620305,6203,62,"Teluk Hiri",73552,-2.726188212378,114.42081377982
6203052009,620305,6203,62,"Sei Dusun",73552,-2.706363178575,114.42250859411
6203052010,620305,6203,62,"Sei Pitung",73552,-2.8542882578115,114.38093229756
6203052011,620305,6203,62,"Maju Bersama",73552,-2.9000485116873,114.34019726802
6203052012,620305,6203,62,"Basuta Raya",73552,-2.716191892943,114.49214771881
6203062001,620306,6203,62,"Saka Lagon",73592,-2.9534246942385,114.49220278286
6203062002,620306,6203,62,"Bunga Mawar",73592,-2.9091884016258,114.44644534039
6203062003,620306,6203,62,"Sei Tatas",73592,-2.8722036599622,114.47886626896
6203062004,620306,6203,62,Narahan,73592,-2.9351704534407,114.49977364458
6203062005,620306,6203,62,Handiwung,73592,-2.8931980910708,114.52900593163
6203062006,620306,6203,62,"Anjir Palambang",73592,-2.8506294914482,114.48111195842
6203062007,620306,6203,62,Palangkai,73592,-2.9238987790301,114.51756805165
6203062008,620306,6203,62,"Teluk Palinget",73592,-2.9328519566965,114.42535790726
6203062009,620306,6203,62,"Sei Tatas Hilir",73592,-2.9048464001652,114.49422309712
6203062010,620306,6203,62,"Mawar Mekar",73592,-2.8868552655326,114.45380426485
6203062011,620306,6203,62,Banama,73592,-2.8937548909574,114.57503360326
6203062012,620306,6203,62,"Narahan Baru",73592,-2.9353533806325,114.51442054917
6203071001,620307,6203,62,"Palingkau Baru",73594,-2.840514715324,114.50787892421
6203071002,620307,6203,62,"Palingkau Lama",73594,-2.8559338518558,114.55180185725
6203072003,620307,6203,62,Tajepan,73594,-2.8080291913526,114.53990083843
6203072004,620307,6203,62,Mampai,73594,-2.7868926253742,114.5590259009
6203072005,620307,6203,62,"Muara Dadahup",73594,-2.7937992280165,114.6011765718
6203072006,620307,6203,62,Belawang,73594,-2.7603674449719,114.67393936949
6203072008,620307,6203,62,"Palangkau Lama",73594,-2.6997747402113,114.75472706536
6203072010,620307,6203,62,"Palangkau Baru",73594,-2.6281766276643,114.78621130589
6203072014,620307,6203,62,"Talekung Punei",73594,-2.7462082310942,114.60365964292
6203072015,620307,6203,62,"Karya Bersama",73594,-2.8403472177835,114.58681887146
6203072016,620307,6203,62,"Palingkau Jaya",73594,-2.8142503993724,114.482363981
6203072017,620307,6203,62,"Palingkau Asri",73594,-2.7885067332425,114.5178307155
6203072018,620307,6203,62,"Palingkau Sejahtera",73594,-2.772093945234,114.50507406053
6203072019,620307,6203,62,"Saka Binjai",73594,-2.6870553712112,114.69571699735
6203072020,620307,6203,62,"Bina Sejahtera",73594,-2.6991596037795,114.72027886969
6203072021,620307,6203,62,"Suka Reja",73594,-2.7212684725103,114.67510746968
6203072022,620307,6203,62,"Suka Mukti",73594,-2.7699418891864,114.64716327583
6203072023,620307,6203,62,"Bina Karya",73594,-2.6628915693576,114.74552881208
6203072024,620307,6203,62,"Bina Mekar",73594,-2.6267836243968,114.76651442084
6203072025,620307,6203,62,"Rawa Subur",73594,-2.6486169943666,114.71947850455
6203072026,620307,6203,62,"Sumber Mulya",73594,-2.6098951160636,114.74346642208
6203072027,620307,6203,62,"Bumi Rahayu",73594,-2.7274323633016,114.52383415567
6203072028,620307,6203,62,"Manggala Permai",73594,-2.7400022700484,114.55128951239
6203082001,620308,6203,62,"Pangkalan Rekan",73564,-3.0277237922032,114.32153677995
6203082002,620308,6203,62,Batuah,73564,-2.9912461779789,114.29184599257
6203082003,620308,6203,62,Basarang,73564,-3.0099220084411,114.31976521485
6203082004,620308,6203,62,Basungkai,73564,-2.9595195321684,114.36891099924
6203082005,620308,6203,62,Maluen,73564,-2.9799385803073,114.356467819
6203082006,620308,6203,62,"Pangkalan Sari",73564,-2.9430599874347,114.35305423887
6203082007,620308,6203,62,"Lunuk Ramba",73564,-2.9677275269917,114.3410659561
6203082008,620308,6203,62,"Batu Nindan",73564,-2.8988163307766,114.28587034584
6203082009,620308,6203,62,"Basarang Jaya",73564,-2.9318009541936,114.30265031587
6203082010,620308,6203,62,"Bungai Jaya",73564,-2.9377286085837,114.32043260306
6203082011,620308,6203,62,Panarung,73564,-2.9632905541156,114.26791476412
6203082012,620308,6203,62,"Tarung Manuah",73564,-2.9356290329968,114.24670931275
6203082013,620308,6203,62,"Tambun Raya",73564,-2.9586771198928,114.32584995842
6203082014,620308,6203,62,Naning,73564,-2.9217664966716,114.33314047944
6203092001,620309,6203,62,Manusup,73553,-2.6721893101744,114.38503782128
6203092002,620309,6203,62,"Sei Kapar",73553,-2.6446855824466,114.37542153809
6203092003,620309,6203,62,Tarantang,73553,-2.6145408868301,114.38146625615
6203092004,620309,6203,62,Lamunti,73553,-2.5883103151559,114.38147987445
6203092005,620309,6203,62,"Pulau Kaladan",73553,-2.5510333576485,114.40705904864
6203092006,620309,6203,62,"Mantangai Hilir",73553,-2.5245650854713,114.45122628426
6203092007,620309,6203,62,"Mantangai Tengah",73553,-2.3381315890546,114.58339015345
6203092008,620309,6203,62,"Mantangai Hulu",73553,-2.2894886729147,114.55284807679
6203092009,620309,6203,62,Kalumpang,73553,-2.4301696961768,114.46753532653
6203092010,620309,6203,62,"Sei Ahas",73553,-2.3349893938631,114.39723943539
6203092011,620309,6203,62,Katunjung,73553,-2.2640486122009,114.39393803485
6203092012,620309,6203,62,"Lahei Mangkutup",73553,-1.9877635298287,114.25320819787
6203092013,620309,6203,62,"Tumbang Muroi",73553,-2.0686372398149,114.47884904347
6203092014,620309,6203,62,"Danau Rawah",73553,-1.848676138946,114.35358753939
6203092015,620309,6203,62,"Muroi Raya",73553,-1.4204670252286,114.16022023357
6203092016,620309,6203,62,Katimpun,73553,-2.3893467373051,114.43724727335
6203092017,620309,6203,62,"Manusup Hilir",73553,-2.6865174041899,114.4107400085
6203092018,620309,6203,62,"Sei Gita",73553,-1.6424575559147,114.29775786324
6203092019,620309,6203,62,"Bukit Batu",73553,-1.7277373957874,114.29570197257
6203092020,620309,6203,62,"Sei Gawing",73553,-1.7910529231989,114.25801390018
6203092021,620309,6203,62,"Humbang Raya",73553,-1.7266938113231,114.10107557062
6203092022,620309,6203,62,Tabore,73553,-2.0336860686169,114.19585475632
6203092023,620309,6203,62,"Tumbang Mangkutup",73553,-2.1726114412085,114.35938156429
6203092024,620309,6203,62,Lapetan,73553,-1.9730465738933,114.4727980533
6203092025,620309,6203,62,"Lamunti Permai",73553,-2.603662050504,114.45181784321
6203092026,620309,6203,62,Manyahi,73553,-2.6129111150116,114.47977079594
6203092027,620309,6203,62,"Sekata Makmur",73553,-2.5689368445166,114.48509199765
6203092028,620309,6203,62,"Kaladan Jaya",73553,-2.5750623015677,114.50726021854
6203092029,620309,6203,62,"Rantau Jaya",73553,-2.5446129412172,114.52159865874
6203092030,620309,6203,62,"Warga Mulya",73553,-2.6238088251153,114.5052021997
6203092031,620309,6203,62,"Lamunti Baru",73553,-2.6325054231801,114.53006494037
6203092032,620309,6203,62,Sriwidadi,73553,-2.5832650530628,114.52667315194
6203092033,620309,6203,62,"Sumber Makmur",73553,-2.5908257737674,114.54891048242
6203092034,620309,6203,62,Sidomulyo,73553,-2.5456490447766,114.55570006818
6203092035,620309,6203,62,"Harapan Jaya",73553,-2.6360625740272,114.43738787073
6203092036,620309,6203,62,"Sekata Bangun",73553,-2.6528079622315,114.46300054806
6203092037,620309,6203,62,"Sari Makmur",73553,-2.6650371515304,114.48694700517
6203092038,620309,6203,62,"Suka Maju",73553,-2.6755459002141,114.51235993443
6203102001,620310,6203,62,"Petak Puti",73554,-1.9165956900946,114.53121912121
6203102002,620310,6203,62,Aruk,73554,-1.8410936781377,114.44475210574
6203102003,620310,6203,62,"Lawang Kajang",73554,-1.7978098400947,114.51624709077
6203102004,620310,6203,62,Timpah,73554,-1.7293502450042,114.50316279015
6203102005,620310,6203,62,"Lungkuh Layang",73554,-1.643722199352,114.52668071935
6203102006,620310,6203,62,"Lawang Kamah",73554,-1.5671946060941,114.55101160075
6203102007,620310,6203,62,"Tumbang Randang",73554,-1.542798051543,114.46723299033
6203102008,620310,6203,62,Batapah,73554,-1.3333320764554,114.58224252585
6203102009,620310,6203,62,"Danau Pantau",73554,-1.6138953542283,114.45785220388
6203112001,620311,6203,62,Masaran,73555,-1.5100464432284,114.44349167972
6203112002,620311,6203,62,"Kayu Bulan",73555,-1.4775530263147,114.42403912003
6203112003,620311,6203,62,"Kota Baru",73555,-1.4492515229889,114.40311502277
6203112004,620311,6203,62,"Penda Muntei",73555,-1.4075326642557,114.42142223944
6203112005,620311,6203,62,Tapen,73555,-1.3614825811534,114.39263809608
6203112006,620311,6203,62,Pujon,73555,-1.3059801081011,114.38788910923
6203112007,620311,6203,62,Marapit,73555,-1.2753091586402,114.36786936588
6203112008,620311,6203,62,Manis,73555,-1.1846362474406,114.357197285
6203112009,620311,6203,62,Karukus,73555,-1.1369839664064,114.37942755786
6203112010,620311,6203,62,Bajuh,73555,-1.2719612321079,114.26809002981
6203112011,620311,6203,62,Barunang,73555,-0.95423406993604,114.39610578121
6203112019,620311,6203,62,"Buhut Jaya",73555,-1.1163572106134,114.47417345619
6203112021,620311,6203,62,"Hurung Pukung",73555,-1.3752088642713,114.42021729176
6203122001,620312,6203,62,"Sei Hanyo",74581,-0.90667357921778,114.0454418199
6203122002,620312,6203,62,"Hurung Tabengan",74581,-0.93592361647551,114.11681384396
6203122003,620312,6203,62,"Rahung Bungai",74581,-0.93504127316642,114.07127981591
6203122005,620312,6203,62,"Bulau Ngandung",74581,-0.88514451071848,114.01722990586
6203122006,620312,6203,62,"Tumbang Puroh",74581,-0.88210868331211,113.94141852179
6203122008,620312,6203,62,Tangirang,74581,-0.99330415480599,113.9367533387
6203122013,620312,6203,62,"Barunang II",74581,-0.80194965883887,113.76842226019
6203122014,620312,6203,62,"Hurung Tampang",74581,-0.85620137001334,113.86126018335
6203122015,620312,6203,62,Supang,74581,-0.98074349151906,114.1096553568
6203122016,620312,6203,62,Katanjung,74581,-0.86640427645578,113.90909764628
6203122018,620312,6203,62,"Jakatan Pari",74581,-0.83290606378934,114.15793755544
6203122019,620312,6203,62,"Tumbang Sirat",74581,-0.86753948401868,114.0044054998
6203122021,620312,6203,62,"Dirung Koram",74581,-0.97226349303576,113.96419190332
6203122022,620312,6203,62,"Mampai Jaya",74581,-0.89120745192289,113.78837868082
6203132001,620313,6203,62,"Tamban Baru Timur",73582,-3.2432080104597,114.42156184784
6203132002,620313,6203,62,"Tamban Baru Tengah",73582,-3.216826104527,114.42666765008
6203132003,620313,6203,62,"Tamban Baru Mekar",73582,-3.2414509795924,114.38645880603
6203132004,620313,6203,62,Bandaraya,73582,-3.2039145422233,114.38289084279
6203132005,620313,6203,62,Sidorejo,73582,-3.1936424634308,114.40664602981
6203132006,620313,6203,62,"Warna Sari",73582,-3.1880991453634,114.38492859897
6203132007,620313,6203,62,"Bandar Mekar",73582,-3.2195950240777,114.35689529562
6203132008,620313,6203,62,"Tamban Makmur",73582,-3.2667666962446,114.39277685988
6203132009,620313,6203,62,Sidomulyo,73582,-3.1767633752986,114.40957770426
6203132010,620313,6203,62,"Tamban Jaya",73582,-3.2202495373205,114.40779395988
6203142001,620314,6203,62,Jangkang,73557,-1.0271456201118,114.22761705204
6203142002,620314,6203,62,"Tumbang Tukun",73557,-1.0609212087297,114.0849137769
6203142003,620314,6203,62,"Sei Ringin",73557,-1.1254943699155,114.09909075779
6203142004,620314,6203,62,Kaburan,73557,-1.1008184341034,114.18584186502
6203142005,620314,6203,62,"Balai Banjang",73557,-1.1942735383637,114.18285384207
6203142006,620314,6203,62,"Tumbang Diring",73557,-1.1047418374618,114.2745747244
6203142007,620314,6203,62,Dandang,73557,-1.2086579955098,114.22893005503
6203142008,620314,6203,62,"Hurung Kampin",73557,-1.0918263299013,114.15958770011
6203142009,620314,6203,62,"Batu Sambung",73557,-1.0875120907315,114.17445252221
6203142010,620314,6203,62,"Tumbang Nusa",73557,-1.0602776991972,114.26668110741
6203152001,620315,6203,62,Masaha,73556,-0.83602155900882,114.00538000087
6203152002,620315,6203,62,"Sei Pinang",73556,-0.78271445336685,114.04975895711
6203152003,620315,6203,62,"Lawang Tamang",73556,-0.75006048642789,113.90341075495
6203152004,620315,6203,62,"Karetau Manta'a",73556,-0.70200540552999,113.89107602511
6203152005,620315,6203,62,"Tumbang Bukoi",73556,-0.59389111176094,113.81778966976
6203152006,620315,6203,62,"Tumbang Tihis",73556,-0.72425353932719,113.99574201034
6203152007,620315,6203,62,"Tumbang Manyarung",73556,-0.62152882620245,114.00899393182
6203152008,620315,6203,62,"Tanjung Rendan",73556,-0.76127744441074,113.9474116298
6203152009,620315,6203,62,"Jakatan Masaha",73556,-0.83614794366279,114.05692315133
6203152010,620315,6203,62,"Masupa Ria",73556,-0.48384383888701,113.9872569562
6203162001,620316,6203,62,Dadahup,73593,-2.6016139174931,114.61933172897
6203162002,620316,6203,62,"Tambak Bajai",73593,-2.478585359487,114.67172857399
6203162003,620316,6203,62,"Bina Jaya",73593,-2.6557694763864,114.64312858741
6203162004,620316,6203,62,"Harapan Baru",73593,-2.7118190065053,114.64602479759
6203162005,620316,6203,62,"Bentuk Jaya",73593,-2.6739127274806,114.67115292667
6203162006,620316,6203,62,"Sumber Agung",73593,-2.6367763354197,114.69419150951
6203162007,620316,6203,62,"Petak Batuah",73593,-2.6956370365678,114.62237560905
6203162008,620316,6203,62,Manuntung,73593,-2.6202224435822,114.66633797203
6203162009,620316,6203,62,"Sumber Alaska",73593,-2.6413191223753,114.55790157309
6203162010,620316,6203,62,"Menteng Karya",73593,-2.6978183001102,114.54215896587
6203162011,620316,6203,62,"Tanjung Harapan",73593,-2.6066191446723,114.71174072642
6203162012,620316,6203,62,"Kahuripan Permai",73593,-2.5852331021432,114.72515098688
6203162013,620316,6203,62,"Dadahup Raya",73593,-2.6747634831001,114.54513174483
6203171001,620317,6203,62,"Pulau Kupang ",73511,-3.0914882217714,114.33003432305
6203172002,620317,6203,62,"Pulau Mambulau",73516,-3.0482800491186,114.39295411759
6203172003,620317,6203,62,"Sei Lunuk",73516,-3.0706098838086,114.38242331747
6203172004,620317,6203,62,"Sei Jangkit",73516,-3.1405382885073,114.36353780259
6203172005,620317,6203,62,"Tamban Luar",73516,-3.1514270964015,114.38807409788
6203172006,620317,6203,62,"Terusan Raya",73516,-3.1303574346497,114.29311078369
6203172007,620317,6203,62,"Terusan Karya",73516,-3.2394492128882,114.25333231486
6203172008,620317,6203,62,"Terusan Makmur",73516,-3.2260613795304,114.23301632923
6203172009,620317,6203,62,"Terusan Mulya",73516,-3.2721303077646,114.22400776592
6203172010,620317,6203,62,"Bamban Raya",73516,-3.1739461541957,114.33074429182
6203172011,620317,6203,62,"Bangun Harjo",73516,-3.1659562574412,114.39293803219
6203172012,620317,6203,62,"Terusan Baguntan Raya",73516,-3.1852226787833,114.27071671233
6203172013,620317,6203,62,"Terusan Raya Barat",73516,-3.2001937048084,114.19145366452
6203172014,620317,6203,62,"Terusan Raya Hulu",73516,-3.2566162422659,114.17382811641
6203172015,620317,6203,62,"Budi Mufakat",73516,-3.0612399233747,114.33004470007
6204011003,620401,6204,62,"Rantau Kujang",73763,-2.3754406861013,114.93578565924
6204012001,620401,6204,62,Tampulang,73763,-2.4621626231044,114.85420035169
6204012002,620401,6204,62,"Rantau Bahuang",73763,-2.4755899737472,114.88102860358
6204012004,620401,6204,62,"Rangga Ilung",73763,-2.3446383034067,114.87910060799
6204012005,620401,6204,62,Tabatan,73763,-2.5486877942438,114.7842845512
6204021003,620402,6204,62,Mengkatip,73762,-2.1874806580294,114.79007370769
6204022001,620402,6204,62,"Sungai Jaya",73762,-2.3742940188732,114.75455398466
6204022002,620402,6204,62,Mahajandau,73762,-2.2582881483455,114.76621566365
6204022004,620402,6204,62,Kalanis,73762,-2.2761538253999,114.89407949963
6204022005,620402,6204,62,Lehai,73762,-2.1668988501357,114.90935532064
6204022006,620402,6204,62,Damparan,73762,-2.1391792802373,114.84379034134
6204022007,620402,6204,62,"Teluk Timbau",73762,-2.0992563208063,114.8812573987
6204022008,620402,6204,62,Batilap,73762,-2.0600462771928,114.7417395982
6204022009,620402,6204,62,Batampang,73762,-1.9867185763681,114.73236800039
6204022010,620402,6204,62,Mangkatir,73762,-2.2297452265098,114.90739963015
6204031002,620403,6204,62,Bangkuang,73761,-2.0252052696809,114.91219106364
6204032001,620403,6204,62,"Salat Baru",73761,-2.0707841332978,114.89848121667
6204032003,620403,6204,62,"Teluk Betung",73761,-1.9931338000624,114.86664081753
6204032004,620403,6204,62,Babai,73761,-1.9191539488112,114.83842716722
6204032005,620403,6204,62,Janggi,73761,-1.949583273243,114.91330731912
6204032006,620403,6204,62,Malitin,73761,-1.8919242731876,114.916998291
6204032007,620403,6204,62,"Muara Arai",73761,-1.8321476046206,114.86754073732
6204032008,620403,6204,62,Talio,73761,-1.8644982234902,114.84937499584
6204032009,620403,6204,62,Tampijak,73761,-1.8679970542435,114.79173907358
6204032010,620403,6204,62,"Bintang Kurung",73761,-1.9032268244687,114.69952915357
6204032011,620403,6204,62,"Teluk Sampudau",73761,-1.8022219067391,114.6811174238
6204041005,620404,6204,62,Pendang,73752,-1.5119108428884,114.81080594019
6204042001,620404,6204,62,"Sungai Telang",73752,-1.5623266420278,114.95123535398
6204042002,620404,6204,62,Majundre,73752,-1.5524536853818,114.91450814347
6204042003,620404,6204,62,Bundar,73752,-1.4921785798681,114.99017238309
6204042004,620404,6204,62,Talekoi,73752,-1.5052339245095,114.9241111278
6204042006,620404,6204,62,"Marawan Lama",73752,-1.4755230803002,114.77286543251
6204042007,620404,6204,62,"Marawan Baru",73752,-1.4416922679642,114.78194867882
6204042008,620404,6204,62,Reong,73752,-1.4112786100382,114.78572023616
6204042009,620404,6204,62,Tarusan,73752,-1.365813881913,114.76558348431
6204042010,620404,6204,62,Panarukan,73752,-1.369367651465,114.95759313924
6204042011,620404,6204,62,Maruga,73752,-1.4277406030917,114.95015569841
6204042012,620404,6204,62,Hingan,73752,-1.4307425724597,114.99945869214
6204042013,620404,6204,62,"Danau Bambure",73752,-1.4572066529893,115.04339376826
6204042014,620404,6204,62,Tamparak,73752,-1.4800069357064,115.11003895603
6204042015,620404,6204,62,"Hulu Tampang",73752,-1.3521384457949,115.03918352387
6204042016,620404,6204,62,"Bantai Bambure",73752,-1.4063780401615,115.1175975694
6204042017,620404,6204,62,"Rampa Mea",73752,-1.3553002828699,115.12052342941
6204042018,620404,6204,62,"Gunung Rantau",73752,-1.4301856602175,114.91887183187
6204042019,620404,6204,62,"Tamparak Layung",73752,-1.4367720396006,115.11128887931
6204052001,620405,6204,62,Baruang,73753,-1.5703586616391,114.9765941277
6204052002,620405,6204,62,Kayumban,73753,-1.5407180554382,115.0191330902
6204052003,620405,6204,62,"Tabak Kanilan",73753,-1.5370286904296,115.06020494521
6204052004,620405,6204,62,Sarimbuah,73753,-1.6048507228957,115.05044200895
6204052005,620405,6204,62,Gagutur,73753,-1.603925801192,115.1218352063
6204052006,620405,6204,62,"Muka Haji",73753,-1.5344158334381,115.08548682335
6204052007,620405,6204,62,Sire,73753,-1.546856143333,115.10065484071
6204052008,620405,6204,62,"Muara Singan",73753,-1.5391796394263,115.15881402165
6204052009,620405,6204,62,"Patas I",73753,-1.5167545499516,115.15945457799
6204052010,620405,6204,62,"Patas II",73753,-1.498747735196,115.18476444659
6204052011,620405,6204,62,"Bintang Ara",73753,-1.4799512232874,115.32222912026
6204052012,620405,6204,62,"Ugang Sayu",73753,-1.6511631535611,115.10189827525
6204052013,620405,6204,62,Ngurit,73753,-1.3448068512949,115.29795219377
6204052014,620405,6204,62,"Wungkur Baru",73753,-1.5936488497925,114.99319339056
6204052015,620405,6204,62,"Bipak Kali",73753,-1.573506371825,115.27594127137
6204052016,620405,6204,62,"Malungai Raya",73753,-1.4201136156762,115.3265274854
6204052017,620405,6204,62,"Sei Paken",73753,-1.4513065477422,115.17871668902
6204052018,620405,6204,62,"Palu Rejo",73753,-1.6132616784476,115.17576191017
6204052019,620405,6204,62,Wayun,73753,-1.6249819595258,115.19452847584
6204052020,620405,6204,62,"Marga Jaya",73753,-1.63082949578,115.07600172923
6204052021,620405,6204,62,"Ruhing Raya",73753,-1.5775319432052,115.05325557623
6204061006,620406,6204,62,Jelapat,73713,-1.7316062576319,114.81510128161
6204061007,620406,6204,62,"Hilir Seper",73712,-1.7289631660706,114.84078956294
6204061008,620406,6204,62,"Buntok Kota",73711,-1.7070591014273,114.85375006169
6204062001,620406,6204,62,"Danau Ganting",73713,-1.784066316271,114.88988150653
6204062002,620406,6204,62,"Muara Talang",73713,-1.8071254114823,114.76883717797
6204062003,620406,6204,62,"Teluk Telaga",73713,-1.8002515717668,114.79524728606
6204062004,620406,6204,62,Baru,73713,-1.7522179423824,114.76540842019
6204062005,620406,6204,62,"Danau Sadar",73713,-1.7746619015124,114.82581417432
6204062009,620406,6204,62,Pamait,73751,-1.6923501616422,114.87715372796
6204062010,620406,6204,62,Sababilah,73751,-1.704591717443,114.91786909295
6204062011,620406,6204,62,Mangaris,73713,-1.7787417356776,114.97224595151
6204062012,620406,6204,62,"Tetei Lanan",73713,-1.6840521958685,115.00487830765
6204062013,620406,6204,62,Pamangka,73713,-1.7152603518167,114.96383651786
6204062014,620406,6204,62,Sanggu,73751,-1.6499468949442,114.90370293144
6204062015,620406,6204,62,Lembeng,73713,-1.6676585113742,114.85143481723
6204062016,620406,6204,62,"Muara Ripung",73751,-1.6977784624572,114.80763165728
6204062017,620406,6204,62,Madara,73713,-1.6854223590572,114.66416383971
6204062018,620406,6204,62,"Murung Paken",73713,-1.6819629446547,114.76737196813
6204062019,620406,6204,62,Mabuan,73751,-1.6620011984059,114.81662027975
6204062020,620406,6204,62,Kalahien,73751,-1.5987421801278,114.71825723691
6204062021,620406,6204,62,"Penda Asam",73751,-1.605138131984,114.88329456008
6204062022,620406,6204,62,Pararapak,73751,-1.5650052037267,114.75274306013
6204062023,620406,6204,62,"Teluk Mampun",73713,-1.596049449584,114.83950665119
6204062024,620406,6204,62,"Tanjung Jawa",73751,-1.5524229932956,114.81467689418
6204062025,620406,6204,62,"Telang Andrau",73713,-1.6341324038307,114.97343684476
6204062026,620406,6204,62,Dangka,73713,-1.6453302982516,115.03133384808
6204062027,620406,6204,62,"Danau Masura",73713,-1.6829769156413,114.7904347412
6205011001,620501,6205,62,"Montallat I",73861,-1.3424580305335,114.89418529688
6205011002,620501,6205,62,"Montallat II",73861,-1.3139046558388,114.90287889986
6205011003,620501,6205,62,"Tumpung Laung I",73861,-1.3228740044243,114.85008761358
6205011004,620501,6205,62,"Tumpung Laung II",73861,-1.3234058284353,114.81080285172
6205012005,620501,6205,62,Sikan,73861,-1.2355371624375,114.90278424856
6205012006,620501,6205,62,Rubei,73861,-1.2602390369067,114.81885270223
6205012007,620501,6205,62,Pepas,73861,-1.2893108300017,114.72877978103
6205012008,620501,6205,62,Ruji,73861,-1.2316953192526,114.74371547047
6205012009,620501,6205,62,"Paring Lahung",73861,-1.2029157256648,114.78934514779
6205012010,620501,6205,62,Kamawen,73861,-1.1625395361525,114.79985228245
6205022001,620502,6205,62,Malungai,73862,-1.2745602951549,114.9457592198
6205022002,620502,6205,62,Rarawa,73862,-1.2615246137592,114.96928776689
6205022003,620502,6205,62,Ketapang,73862,-1.2712412780493,114.98520524948
6205022004,620502,6205,62,Walur,73862,-1.264217997634,115.01445914072
6205022005,620502,6205,62,Baliti,73862,-1.2559689910599,115.04691118629
6205022006,620502,6205,62,Majangkan,73862,-1.2229367566873,115.08153315321
6205022007,620502,6205,62,Kandui,73862,-1.2728956873878,115.11488406293
6205022008,620502,6205,62,"Payang Ara",73862,-1.1927846436518,115.13892917596
6205022009,620502,6205,62,Jaman,73862,-1.2208471049057,115.18157198746
6205022010,620502,6205,62,Pelari,73862,-1.1589096183387,115.24324923808
6205022011,620502,6205,62,Sangkorang,73862,-1.2543055125583,115.22018046351
6205022012,620502,6205,62,Siwau,73862,-1.347153789863,115.25532278597
6205022013,620502,6205,62,Tongka,73862,-1.2185734767112,115.3354491295
6205022014,620502,6205,62,"Batu Raya I",73862,-1.3057998087868,115.29168413854
6205022015,620502,6205,62,"Batu Raya II",73862,-1.2990871461865,115.25730140185
6205022016,620502,6205,62,"Tapen Raya",73862,-1.2622885687224,115.14369305101
6205032001,620503,6205,62,"Tanjung Harapan",73871,-1.1371275750208,115.4942348
6205032002,620503,6205,62,"Linon Besi I",73871,-1.0539414674973,115.54033237244
6205032003,620503,6205,62,"Linon Besi II",73871,-1.1207766887259,115.57086462157
6205032004,620503,6205,62,"Muara Mea",73871,-1.2860168721768,115.50109539751
6205032005,620503,6205,62,Lawarang,73871,-1.0543465467476,115.59006146671
6205032006,620503,6205,62,"Lampeong I",73871,-1.1406343777122,115.59818093718
6205032007,620503,6205,62,"Lampeong II",73871,-1.150014911716,115.60563218191
6205032008,620503,6205,62,Payang,73871,-1.0576694938497,115.61853924814
6205032009,620503,6205,62,Berong,73871,-1.291238610501,115.62444517296
6205032010,620503,6205,62,Baok,73871,-1.1996105985452,115.74178466831
6205032011,620503,6205,62,Tambaba,73871,-1.1031111505361,115.72721757345
6205042001,620504,6205,62,"Sampirang I",73881,-1.0729282959826,115.3690290891
6205042002,620504,6205,62,"Sampirang II",73881,-1.1191758401199,115.44528225459
6205042003,620504,6205,62,Liju,73881,-1.0467195524385,115.33185537494
6205042004,620504,6205,62,"Benangin III",73881,-1.0287541585394,115.41019175325
6205042005,620504,6205,62,"Benangin II",73881,-0.94355822684408,115.49534903913
6205042006,620504,6205,62,"Benangin V",73881,-0.95562926977503,115.34130040012
6205042007,620504,6205,62,"Benangin I",73881,-0.92232028290113,115.39243197155
6205042008,620504,6205,62,"Muara Wakat",73881,-0.98091745869205,115.27820414088
6205042012,620504,6205,62,"Mampuak I",73881,-1.131632463639,115.36233679422
6205042013,620504,6205,62,Jamut,73881,-1.0676595063787,115.26840907672
6205042014,620504,6205,62,"Sei Liju",73881,-1.0563346543431,115.31342510211
6205042015,620504,6205,62,"Mampuak II",73881,-1.1133029647415,115.31269923403
6205051013,620505,6205,62,Lanjas,73812,-0.92814550170391,114.87195268721
6205051014,620505,6205,62,Melayu,73811,-0.92846535563081,114.8977712392
6205052010,620505,6205,62,"Lemo I",73814,-1.083870430291,114.65352173932
6205052011,620505,6205,62,"Lemo II",73814,-1.0343448519958,114.64914918105
6205052012,620505,6205,62,Pendreh,73814,-0.94962266966814,114.70027887596
6205052017,620505,6205,62,"Rimba Sari",73814,-0.89082043725464,114.66467128063
6205052018,620505,6205,62,"Sei Rahayu I",73814,-0.86244118589948,114.75747361276
6205052022,620505,6205,62,"Sei Rahayu II",73814,-0.85402689455575,114.68949659996
6205052024,620505,6205,62,"Beringin Raya",73814,-0.92238323405339,114.61856439719
6205052025,620505,6205,62,"Datai Nirui",73814,-0.9583231111202,114.63496938357
6205061015,620506,6205,62,"Lahei I",73852,-0.89531994960506,114.93723689603
6205061016,620506,6205,62,"Lahei II",73852,-0.86171768221174,114.93300716632
6205062001,620506,6205,62,Ipu,73852,-0.88607870318787,114.88034660827
6205062002,620506,6205,62,Mukut,73852,-0.84508776202986,114.88578579647
6205062014,620506,6205,62,"Muara Bakah",73852,-0.82742615057375,114.94896001631
6205062017,620506,6205,62,"Juju Baru",73852,-0.84947841248001,115.03068302311
6205062018,620506,6205,62,"Muara Inu",73852,-0.82261836051124,115.15745425377
6205062019,620506,6205,62,Bengahon,73852,-0.72704284370286,115.08808971211
6205062020,620506,6205,62,Rahaden,73852,-0.71004492957696,115.1601516436
6205062021,620506,6205,62,"Muara Pari",73852,-0.6745506752219,115.25079578904
6205062022,620506,6205,62,Haragandang,73852,-0.30831088996803,115.1508834398
6205062023,620506,6205,62,Karendan,73852,-0.54742483590302,115.16799995815
6205062024,620506,6205,62,"Hurung Enep",73852,-0.87663767444325,114.98240334478
6205071001,620507,6205,62,Jingah,73814,-0.98678907971307,114.89276035037
6205071002,620507,6205,62,Jambu,73813,-0.96150254018405,114.93066563899
6205072003,620507,6205,62,"Liang Naga",73814,-0.96781005241739,115.01496961844
6205072004,620507,6205,62,Sabuh,73814,-0.97290204371259,115.10326333887
6205072005,620507,6205,62,Hajak,73814,-1.0445650102202,115.00959953654
6205072006,620507,6205,62,Malawaken,73814,-0.92223080017617,114.97270934638
6205072007,620507,6205,62,Sikui,73814,-1.0932226856546,115.08916304834
6205072008,620507,6205,62,Panaen,73881,-1.0588296175371,115.19681692365
6205072009,620507,6205,62,"Liang Buah",73881,-0.93894761657227,115.22936053042
6205072010,620507,6205,62,Gandring,73881,-0.95940517580039,115.160636258
6205082001,620508,6205,62,Trahean,73814,-1.0387147999836,114.89803439771
6205082002,620508,6205,62,Trinsing,73814,-1.0369726028731,114.94201141238
6205082003,620508,6205,62,"Bintang Ninggi I",73814,-1.0442303585637,114.84645163902
6205082004,620508,6205,62,"Bintang Ninggi II",73814,-1.1077468688678,114.74886409696
6205082005,620508,6205,62,Butong,73814,-1.0964581221069,114.89636606736
6205082006,620508,6205,62,"Buntok Baru",73814,-1.1304735475382,114.80121441633
6205082007,620508,6205,62,"Bukit Sawit",73814,-1.1098475122706,114.97391334623
6205082008,620508,6205,62,"Tawan Jaya",73814,-1.1503041788808,114.91304031425
6205082009,620508,6205,62,"Pandran Raya",73814,-1.162926689396,115.02329049083
6205082010,620508,6205,62,"Pandran Permai",73814,-1.1521748652849,114.97170596853
6205092001,620509,6205,62,"Nihan Hilir",73853,-0.80991137018149,114.83675685797
6205092002,620509,6205,62,"Nihan Hulu",73853,-0.77861691745429,114.89059013482
6205092003,620509,6205,62,"Luwe Hilir",73853,-0.80665282031027,114.93863555254
6205092004,620509,6205,62,"Luwe Hulu",73853,-0.77501255942308,114.96970872467
6205092005,620509,6205,62,"Jangkang Baru",73853,-0.74920496024103,114.97453757263
6205092006,620509,6205,62,"Jangkang Lama",73853,-0.77307645553083,114.91294987446
6205092007,620509,6205,62,"Papar Pujung",73853,-0.70689807531228,114.98743469903
6205092008,620509,6205,62,"Teluk Malewai",73853,-0.66818181659718,114.98735893924
6205092009,620509,6205,62,"Benao Hilir",73853,-0.63610995944754,114.96277413571
6205092010,620509,6205,62,"Benao Hulu",73853,-0.71302001140672,114.88739304554
6205092011,620509,6205,62,Karamuan,73853,-0.76527886500881,114.81416059815
6206012001,620601,6206,62,Galinggang,74462,-2.57243076717,113.30020119091
6206012002,620601,6206,62,Tampelas,74462,-2.4835385223581,113.44850200145
6206012003,620601,6206,62,Telaga,74462,-2.3149109035938,113.32048141022
6206012004,620601,6206,62,Parupuk,74462,-2.4126060887805,113.55476718694
6206012005,620601,6206,62,Karuing,74462,-2.3827145571679,113.50417204372
6206012006,620601,6206,62,Jahanjang,74462,-2.3406384871715,113.55438547894
6206012007,620601,6206,62,"Tumbang Runen",74462,-2.2929841427808,113.5159926242
6206012008,620601,6206,62,"Baun Bango",74462,-2.2576621955775,113.54837117272
6206012009,620601,6206,62,"Asem Kumbang",74462,-2.1580094141595,113.57717876252
6206021003,620602,6206,62,"Kasongan Baru",74413,-1.921370821188,113.44706196424
6206021004,620602,6206,62,"Kasongan Lama",74413,-1.8605490141158,113.45398889624
6206022001,620602,6206,62,"Tewang Kadamba",74413,-2.0002103963474,113.34151310934
6206022002,620602,6206,62,"Tumbang Liting",74413,-1.9701220584417,113.31594933091
6206022005,620602,6206,62,"Talian Kereng",74413,-1.8369456548271,113.40432414285
6206022006,620602,6206,62,"Banut Kalanaman",74413,-1.8686642619748,113.34646552422
6206022007,620602,6206,62,Talangkah,74413,-1.8751647550289,113.31212281569
6206022008,620602,6206,62,Hampalit,74413,-1.9266871825549,113.23416922196
6206031006,620603,6206,62,"Pendahara ",74452,-1.7164521269494,113.36443900256
6206032001,620603,6206,62,"Tewang Baringin",74452,-1.8358653989902,113.31752061393
6206032002,620603,6206,62,Hapalam,74452,-1.7689587372219,113.40086707166
6206032003,620603,6206,62,"Tewang Rangas",74452,-1.8527117896234,113.22850900179
6206032004,620603,6206,62,Bangkuang,74452,-1.8161679857445,113.20494962312
6206032005,620603,6206,62,"Tarusan Danum",74452,-1.7306932699582,113.40855684052
6206032007,620603,6206,62,"Tumbang Tarusan",74452,-1.7050080063059,113.32740288117
6206032008,620603,6206,62,"Tewang Rangkang",74452,-1.6855543496056,113.32977784139
6206032009,620603,6206,62,"Tewang Manyangen",74452,-1.6838854852956,113.29020753374
6206032010,620603,6206,62,"Karya Unggang",74452,-1.7636390151473,113.10013510196
6206042001,620604,6206,62,"Tewang Papari",74453,-1.7019834710539,113.20006525152
6206042002,620604,6206,62,"Tewang Darayu",74453,-1.6918563177187,113.20590592311
6206042003,620604,6206,62,"Buntut Bali",74453,-1.6683438991441,113.25405726932
6206042004,620604,6206,62,"Kuluk Bali",74453,-1.662707322941,113.19287535628
6206042005,620604,6206,62,"Manduing Taheta",74453,-1.6268643368551,113.33880917842
6206042006,620604,6206,62,"Manduing Lama",74453,-1.6063217170825,113.34056858333
6206042007,620604,6206,62,"Tumbang Banjang",74453,-1.6346803528771,113.18770974012
6206042008,620604,6206,62,"Tumbang Lawang",74453,-1.5842905550596,113.32366035577
6206042009,620604,6206,62,"Dahian Tunggal",74453,-1.6027072348129,113.19123538449
6206042010,620604,6206,62,"Tewang Karangan",74453,-1.530065320654,113.29630982023
6206042011,620604,6206,62,"Tumbang Tungku",74453,-1.5731171025938,113.19731398794
6206042012,620604,6206,62,Geragu,74453,-1.55169883705,113.19033556381
6206042013,620604,6206,62,"Tumbang Tanjung",74453,-1.4948595553524,113.24342760944
6206042014,620604,6206,62,Tura,74453,-1.4781842094367,113.23175505026
6206051009,620605,6206,62,"Samba Kahayan",74454,-1.456756818209,113.07085362285
6206052001,620605,6206,62,"Tumbang Lahang",74454,-1.5310004343596,113.14800914196
6206052002,620605,6206,62,"Tewang Panjang",74454,-1.4768912735509,113.15647653506
6206052003,620605,6206,62,"Petak Puti",74454,-1.4513762791275,113.15856053638
6206052004,620605,6206,62,Telok,74454,-1.4503161177113,113.1317599244
6206052005,620605,6206,62,"Samba Danum",74454,-1.4733863290815,113.08377102834
6206052006,620605,6206,62,"Samba Bakumpai",74454,-1.4124503159266,113.15715706589
6206052007,620605,6206,62,"Samba Katung",74454,-1.4050846527962,113.13454240679
6206052008,620605,6206,62,"Napu Sahur",74454,-1.4549201094429,113.05612790233
6206052010,620605,6206,62,"Batu Badinding",74454,-1.4518123398331,113.0379132701
6206052011,620605,6206,62,"Rantau Asem",74454,-1.4432418979718,113.00009347736
6206052012,620605,6206,62,"Mirah Kalanaman",74454,-1.6159494617524,112.98966843606
6206052013,620605,6206,62,"Tumbang Kalemei",74454,-1.421909738042,112.94724542386
6206052014,620605,6206,62,"Tumbang Marak",74454,-1.3749951159801,112.90624300766
6206052015,620605,6206,62,"Tumbang Hangei",74454,-1.3328167247827,112.85358817698
6206052016,620605,6206,62,"Tumbang Pariyei",74454,-1.3152842034385,112.79389440128
6206062001,620606,6206,62,Dehes,74451,-1.3739517238504,113.16655184434
6206062002,620606,6206,62,"Tumbang Labehu",74451,-1.3420699817812,113.12875691173
6206062003,620606,6206,62,"Tumbang Kaman",74451,-1.3319085060333,113.0818026546
6206062004,620606,6206,62,"Tumbang Manggo",74451,-1.3025783227367,113.09467376425
6206062005,620606,6206,62,Kamanto,74451,-1.2753880716082,113.013557159
6206062006,620606,6206,62,"Kuluk Habuhus",74451,-1.2490743878321,113.02510867891
6206062007,620606,6206,62,"Tumbang Kanei",74451,-1.1967373107656,113.14879841733
6206062008,620606,6206,62,"Tumbang Taranei",74451,-1.1327840768855,113.17931401187
6206062009,620606,6206,62,"Tumbang Kawei",74451,-1.0602627963351,113.19507689412
6206062010,620606,6206,62,"Tumbang Mangara",74451,-1.0164913217776,113.23633455499
6206062011,620606,6206,62,"Tumbang Pangka",74451,-1.2228894898695,113.00201649164
6206062012,620606,6206,62,"Tumbang Atei",74451,-1.0384299325662,112.90959932913
6206062020,620606,6206,62,"Daya Manunggal",74451,-1.2570184378555,113.15021127377
6206062021,620606,6206,62,"Rantau Bangkiang",74451,-1.3569150613746,113.1440381341
6206072001,620607,6206,62,"Tumbang Mandurei",74456,-1.2643290647416,112.80690151176
6206072002,620607,6206,62,"Tumbang Paku",74456,-1.2442035020131,112.7743981443
6206072003,620607,6206,62,"Buntut Leleng",74456,-1.2232840465373,112.75912850108
6206072004,620607,6206,62,"Kuluk Leleng",74456,-1.1978094935475,112.76264894067
6206072005,620607,6206,62,Sabaung,74456,-0.87066528296984,112.69534688017
6206072006,620607,6206,62,"Tumbang Malawan",74456,-1.0708146725101,112.75990505957
6206072007,620607,6206,62,"Tumbang Taei",74456,-1.1074333068748,112.7276963728
6206072008,620607,6206,62,"Rangan Surai",74456,-1.1686796302444,112.76547768802
6206072009,620607,6206,62,"Tumbang Hiran",74456,-1.1957342467054,112.68573542006
6206072010,620607,6206,62,"Tumbang Pahanei",74456,-1.1451434375346,112.74763923544
6206072011,620607,6206,62,"Tumbang Dakei",74456,-1.1773996617145,112.65818572761
6206072012,620607,6206,62,"Rangan Burih",74456,-1.165565579834,112.64467814619
6206072013,620607,6206,62,"Tumbang Bemban",74456,-1.1560603669051,112.62261372149
6206072014,620607,6206,62,"Tumbang Lambi",74456,-1.0917203041572,112.64064372429
6206072015,620607,6206,62,"Rangan Tangko",74456,-1.087417348662,112.58813902532
6206072016,620607,6206,62,"Tumbang Tundu",74456,-1.0346628588986,112.57335885864
6206072017,620607,6206,62,"Batu Panahan",74456,-0.82977674576441,112.53696240031
6206072018,620607,6206,62,"Tumbang Tabulus",74456,-0.99209076221827,112.57305211625
6206081014,620608,6206,62,"Tumbang Sanamang",74458,-1.1728549974165,112.41710100756
6206082001,620608,6206,62,"Kiham Batang",74458,-0.82022567724823,112.37742021966
6206082002,620608,6206,62,"Tumbang Kabayan",74458,-1.1145920030381,112.4543794637
6206082003,620608,6206,62,"Rangan Kawit",74458,-0.91116804287286,112.38715955309
6206082004,620608,6206,62,"Dehes Asem",74458,-0.93561724937975,112.39281292059
6206082005,620608,6206,62,"Kuluk Sapangi",74458,-0.95484003498361,112.39423870177
6206082006,620608,6206,62,"Tumbang Kuai",74458,-0.9681341736325,112.39948145086
6206082007,620608,6206,62,"Tumbang Salaman",74458,-0.97993369883186,112.40391551139
6206082008,620608,6206,62,"Rantau Puka",74458,-1.017318575243,112.41103243491
6206082009,620608,6206,62,"Rantau Bahai",74458,-1.05316215244,112.41805369618
6206082010,620608,6206,62,"Rangan Ranjing",74458,-1.1878512874216,112.60571044612
6206082011,620608,6206,62,"Tumbang Labaning",74458,-1.1796655060752,112.56908828485
6206082012,620608,6206,62,"Batu Bango",74458,-1.1744337495128,112.55051486734
6206082013,620608,6206,62,"Tumbang Hangei II",74458,-1.1438525874088,112.48442033983
6206082015,620608,6206,62,"Sei Nanjan",74458,-1.0913599099435,112.41031144725
6206082016,620608,6206,62,"Tumbang Jiga",74458,-1.1768937950582,112.45074471864
6206082017,620608,6206,62,"Tumbang Mangketai",74458,-1.1826832631393,112.38659575071
6206082019,620608,6206,62,"Tumbang Mahop",74458,-1.2024174318038,112.25232008585
6206082020,620608,6206,62,"Tumbang Sabetung",74458,-1.2065857111187,112.15105615928
6206082030,620608,6206,62,"Penda Tanggaring Lama",74458,-1.1743950953137,112.52070254247
6206082031,620608,6206,62,"Penda Tanggaring Baru",74458,-1.1534332447494,112.50764951331
6206082032,620608,6206,62,"Teluk Tampang",74458,-0.99699090835404,112.40691688177
6206082033,620608,6206,62,"Tumbang Manangei",74458,-1.1923148176989,112.35056598873
6206092001,620609,6206,62,Mendawai,74464,-2.9288792267283,113.39425061964
6206092002,620609,6206,62,"Teluk Sebulu",74464,-3.0548448577386,113.23560907037
6206092003,620609,6206,62,"Kampung Melayu",74464,-2.9561973051896,113.21343780692
6206092004,620609,6206,62,"Tewang Kampung",74464,-2.8742377093503,113.37823487168
6206092005,620609,6206,62,Perigi,74464,-2.7894542319271,113.30107678702
6206092006,620609,6206,62,"Mekar Tani",74464,-2.9667681227713,113.2949543212
6206092007,620609,6206,62,"Tumbang Bulan",74464,-2.6382380297639,113.43181687414
6206101001,620610,6206,62,"Pagatan Hilir",74463,-3.2760294698365,113.37881794187
6206101002,620610,6206,62,"Pagatan Hulu",74463,-3.258046286695,113.3302938466
6206102003,620610,6206,62,"Kampung Keramat",74463,-3.2255378915226,113.31785010789
6206102004,620610,6206,62,"Kampung Tengah",74463,-3.1499340909181,113.27401654148
6206102005,620610,6206,62,"Jaya Makmur",74463,-3.1740818801677,113.38744697088
6206102006,620610,6206,62,"Subur Indah",74463,-3.1462633042624,113.3710761698
6206102007,620610,6206,62,"Kampung Baru",74463,-3.0335125837639,113.33407943071
6206102008,620610,6206,62,"Bangun Jaya",74463,-3.0634962139254,113.34453021879
6206102009,620610,6206,62,"Setia Mulia",74463,-3.0303265646064,113.27224236496
6206102010,620610,6206,62,"Singam Raya",74463,-3.09243349269,113.35465766305
6206102011,620610,6206,62,"Sebangau Jaya",74463,-2.9853164803845,113.60750719373
6206102012,620610,6206,62,"Sungai Kaki",74463,-3.0398049908486,113.48421432302
6206102013,620610,6206,62,"Selat Baning",74463,-3.2321375892427,113.38807296102
6206102014,620610,6206,62,"Makmur Utama",74463,-3.1991991790657,113.39447656368
6206102015,620610,6206,62,"Bumi Subur",74463,-3.1183728048733,113.36220283686
6206102016,620610,6206,62,"Bakung Raya",74463,-2.9971483682494,113.34533210463
6206112001,620611,6206,62,Talingke,74461,-2.1372692465821,113.43316780053
6206112002,620611,6206,62,"Hiyang Bana",74461,-2.1017574359541,113.447576933
6206112003,620611,6206,62,"Petak Bahandang",74461,-2.0647443268315,113.43835174784
6206112004,620611,6206,62,Handiwung,74461,-2.0036583919435,113.51607879654
6206112005,620611,6206,62,"Tumbang Panggo",74461,-2.0360323224637,113.36888146834
6206112006,620611,6206,62,"Tewang Tampang",74461,-1.9703246095401,113.5193716541
6206112007,620611,6206,62,"Luwuk Kanan",74461,-1.9344330748644,113.50912091229
6206112008,620611,6206,62,"Luwuk Kiri",74461,-1.9861458858388,113.41117368687
6206122001,620612,6206,62,"Tumbang Baraoi",74455,-1.0674545218198,112.99307917049
6206122002,620612,6206,62,"Tumbang Jala",74455,-0.93715225956578,112.89572613254
6206122003,620612,6206,62,"Batu Badak",74455,-0.80494374087831,112.92560828426
6206122004,620612,6206,62,"Batu Tukan",74455,-0.9843770102645,113.11003627933
6206122005,620612,6206,62,"Tumbang Tangoi",74455,-0.61736256292585,112.81214180666
6206122006,620612,6206,62,"Nusa Kutau",74455,-0.70999464262728,112.89482636351
6206122007,620612,6206,62,"Tumbang Habangoi",74455,-0.70002682387502,113.08243056676
6206132001,620613,6206,62,"Tumbang Gaei",74457,-1.0337857893201,112.22379745833
6206132002,620613,6206,62,"Tumbang Kataei",74457,-1.1040643518287,112.30830719021
6206132003,620613,6206,62,"Tumbang Karuei",74457,-0.89718612883692,112.216043788
6206132004,620613,6206,62,"Tumbang Dahuei",74457,-1.0625139396839,112.32554539653
6206132005,620613,6206,62,"Rantau Pandan",74457,-1.0754438965547,112.23622632978
6206132006,620613,6206,62,"Rangan Rondan",74457,-1.0172320837476,112.22617252862
6206132007,620613,6206,62,"Rangan Bahekang",74457,-0.99319564357209,112.22556147181
6206132008,620613,6206,62,"Tumbang Kajamei",74457,-0.9503680494897,112.2179539125
6206132009,620613,6206,62,"Tumbang Kaburai",74457,-0.72243226918905,112.25021994213
6206132010,620613,6206,62,"Tanjung Batik",74457,-0.83477367334465,112.23253784474
6206132011,620613,6206,62,"Penda Nange",74457,-1.0503079956686,112.22673799162
6207011001,620701,6207,62,"Kuala Pembuang I",74215,-3.3565163833033,112.48381060589
6207011002,620701,6207,62,"Kuala Pembuang II",74215,-3.376573404924,112.49098392625
6207012005,620701,6207,62,"Pematang Limau",74213,-3.058184097639,112.51948147081
6207012006,620701,6207,62,"Sungai Perlu",74215,-3.3855219140955,112.11356136916
6207012007,620701,6207,62,"Tanjung Rangas",74214,-3.0744326243518,112.39244688194
6207012008,620701,6207,62,"Muara Dua",74214,-3.0969041184736,112.25483065187
6207012009,620701,6207,62,Jahitan,74214,-2.9865209737729,112.27031450183
6207012010,620701,6207,62,Baung,74214,-2.8790236099236,112.29144422639
6207012015,620701,6207,62,"Persil Raya",74215,-3.3402267012308,112.49666301421
6207012016,620701,6207,62,"Sungai Undang",74215,-3.4099737657919,112.51276566539
6207021016,620702,6207,62,"Rantau Pulut",74280,-1.8849280202469,112.10520325678
6207022008,620702,6207,62,"Gantung Pangayuh",74280,-2.1269445498835,112.18469054812
6207022009,620702,6207,62,"Teluk Bayur",74280,-2.1092984608821,112.19194332375
6207022010,620702,6207,62,"Suka Mandang",74280,-2.0628323964935,112.19906009794
6207022011,620702,6207,62,Ayawan,74280,-2.0136272722964,112.22719451326
6207022012,620702,6207,62,"Mugi Panyuhu",74280,-1.9634357847918,112.24448107695
6207022013,620702,6207,62,"Bukit Buluh",74280,-1.9437488593998,112.2168756444
6207022014,620702,6207,62,"Tumbang Bai",74280,-1.8784650668632,112.21476029104
6207022015,620702,6207,62,"Durian Tunggal",74280,-1.9694691611473,112.12555104696
6207022017,620702,6207,62,Pangke,74280,-1.6366732778912,111.99781876954
6207022018,620702,6207,62,Panyumpa,74280,-1.7802257294362,112.04931529757
6207022022,620702,6207,62,Sukorejo,74280,-2.258838610489,112.07207107762
6207022023,620702,6207,62,"Bumi Jaya",74280,-2.2941131303582,112.0755089604
6207022024,620702,6207,62,"Suka Jaya",74280,-2.1528906800175,112.10522852338
6207022026,620702,6207,62,"Panca Jaya",74280,-2.1113871760505,112.05707328217
6207022029,620702,6207,62,"Tangga Batu",74280,-2.092496656119,112.19283610909
6207022030,620702,6207,62,"Ringin Agung",74280,-2.0758255099755,112.07978215037
6207022031,620702,6207,62,"Batu Agung",74280,-2.150399645153,112.0622952915
6207022032,620702,6207,62,"Suka Makmur",74280,-2.1818429668502,112.04456917957
6207022033,620702,6207,62,"Suka Maju",74280,-2.2221647226281,112.05566874475
6207032001,620703,6207,62,"Telaga Pulang",74261,-2.863551340026,112.23022235829
6207032002,620703,6207,62,"Cempaka Baru",74261,-2.8083630622903,112.2313409975
6207032003,620703,6207,62,Palingkau,74261,-2.7771039807057,112.19864712059
6207032004,620703,6207,62,"Ulak Batu",74261,-2.7434271505726,112.16285467331
6207032005,620703,6207,62,Paren,74261,-2.7148671800276,112.14631410286
6207032006,620703,6207,62,"Banua Usang",74261,-2.697263981814,112.24531315631
6207032013,620703,6207,62,"Sembuluh I",74261,-2.7500413410918,112.47108231565
6207032014,620703,6207,62,"Sembuluh II",74261,-2.7854596998634,112.37600472989
6207042001,620704,6207,62,"Tanjung Hanau",74270,-2.6727834774785,112.14594272288
6207042002,620704,6207,62,"Parang Batang",74270,-2.6219264720247,112.18258993392
6207042003,620704,6207,62,Bahaur,74270,-2.551531794374,112.14529385492
6207042004,620704,6207,62,"Pembuang Hulu I",74270,-2.5086782382466,112.11634274679
6207042005,620704,6207,62,"Pembuang Hulu II",74270,-2.4700298728545,112.12854269202
6207042006,620704,6207,62,Derangga,74270,-2.4149201133035,112.1228598793
6207042011,620704,6207,62,"Paring Raya",74270,-2.5774839950474,112.18057585865
6207052020,620705,6207,62,"Tumbang Bahan",74291,-1.1024039682704,112.01673207265
6207052021,620705,6207,62,"Tumbang Kalang",74291,-1.1580512060966,111.92204405026
6207052022,620705,6207,62,"Tusuk Belawan",74291,-1.2309881885668,111.90658413464
6207052023,620705,6207,62,Marandang,74291,-1.3985546476068,111.83928980052
6207052024,620705,6207,62,"Tumbang Suei",74291,-1.4494285286642,111.881893976
6207052025,620705,6207,62,"Tumbang Manjul",74291,-1.3927269001263,111.92479050734
6207052026,620705,6207,62,"Mojang Baru",74291,-1.4568616751113,112.03868770206
6207052027,620705,6207,62,"Rantau Panjang",74291,-1.310627086828,112.04823855732
6207052028,620705,6207,62,"Mongoh Juoi",74291,-1.2057886960304,112.04340451333
6207052030,620705,6207,62,"Sepundu Hantu",74291,-1.1604200832889,111.74940551821
6207052031,620705,6207,62,"Tumbang Kubang",74291,-1.1316070764212,111.83530470081
6207052032,620705,6207,62,"Tumbang Laku",74291,-1.0985516678905,111.74647195497
6207052033,620705,6207,62,"Tanjung Paku",74291,-0.74447652294127,112.09704377944
6207052034,620705,6207,62,"Buntut Sapau",74291,-1.0272182590957,111.71409251729
6207052035,620705,6207,62,"Tumbang Taberau",74291,-0.86224682414039,112.02667101012
6207052036,620705,6207,62,"Riam Batang",74291,-0.8021678299236,112.07289602793
6207052037,620705,6207,62,"Tumbang Sepan",74291,-0.91250691172127,111.97295434082
6207052038,620705,6207,62,"Tumbang Setawai",74291,-0.97530295808505,112.00209066882
6207052039,620705,6207,62,"Tumbang Kasai",74291,-1.0430857578547,112.07374419867
6207052040,620705,6207,62,"Tumbang Darap",74291,-1.0303765898422,111.94237992657
6207062001,620706,6207,62,"Mekar Indah",74215,-3.2001272711865,112.51600591355
6207062002,620706,6207,62,"Halimaung Jaya",74215,-3.2240540377366,112.58418293621
6207062003,620706,6207,62,"Bangun Harja",74215,-3.2756050121809,112.5889905076
6207062004,620706,6207,62,"Kartika Bhakti",74215,-3.3179955595874,112.59706093103
6207062005,620706,6207,62,"Pematang Panjang",74213,-3.3834458384666,112.59053519095
6207062006,620706,6207,62,"Sungai Bakau",74215,-3.2418945523468,112.71997239923
6207072001,620707,6207,62,Terawan,74260,-2.5073592134244,112.3605638874
6207072002,620707,6207,62,Selunuk,74260,-2.4263140071983,112.39725193761
6207072003,620707,6207,62,Lanpasa,74260,-2.6184336421721,112.33776161444
6207072005,620707,6207,62,Bangkal,74260,-2.5931257298175,112.45440067188
6207072006,620707,6207,62,Tabiku,74260,-2.6785724369615,112.48505723709
6207082001,620708,6207,62,"Asam Baru",74271,-2.4275621860383,112.24482162441
6207082002,620708,6207,62,"Tanjung Hara",74271,-2.3819864500481,112.17260927873
6207082003,620708,6207,62,"Tanjung Paring",74271,-2.35376913168,112.14743772737
6207082004,620708,6207,62,"Tanjung Rangas II",74271,-2.3222190693251,112.15295396859
6207082005,620708,6207,62,"Panimba Raya",74271,-2.3430186550175,112.20729114903
6207082006,620708,6207,62,"Rungau Raya",74271,-2.2832005532305,112.32067282695
6207092001,620709,6207,62,Sebabi,74281,-2.2905688454776,112.19538620072
6207092002,620709,6207,62,Sandul,74281,-2.2669789776282,112.15527928067
6207092003,620709,6207,62,Kalang,74281,-2.2301880532514,112.12407742139
6207092004,620709,6207,62,Derawa,74281,-2.1512400083847,112.16496667548
6207092005,620709,6207,62,"Wana Tirta",74281,-2.2067317452246,112.23922239148
6207092006,620709,6207,62,"Suka Mulya",74281,-2.2466304725677,112.23501525035
6207092007,620709,6207,62,"Durian Kait",74281,-2.1953989529387,112.1814205369
6207092008,620709,6207,62,Sahabu,74281,-2.1614783257158,112.22839691591
6207092009,620709,6207,62,"Batu Menangis",74281,-2.176027852104,112.15450115358
6207102001,620710,6207,62,"Tumbang Magin",74290,-1.2312824989351,111.60171559552
6207102002,620710,6207,62,"Tumbang Setoli",74290,-1.2872639190313,111.65779216012
6207102003,620710,6207,62,"Tumbang Hentas",74290,-1.3119724655294,111.69924693569
6207102004,620710,6207,62,"Tumbang Langkai",74290,-1.3752068041852,111.70238866096
6207102005,620710,6207,62,"Tumbang Salau",74290,-1.3908764387266,111.80406508605
6207102006,620710,6207,62,"Tumbang Gugup",74290,-1.2168798416332,111.81165451771
6207102007,620710,6207,62,"Rangkang Munduk",74290,-1.3980358910678,111.78038754758
6207102008,620710,6207,62,"Tanjung Tukal",74290,-1.3856161547684,111.76051415507
6207102009,620710,6207,62,"Rantau Betung",74290,-1.2665872772365,111.80837362869
6208011003,620801,6208,62,Mendawai,74172,-2.7273402343036,111.16598527655
6208011004,620801,6208,62,Padang,74172,-2.5730186607733,111.17282630579
6208012001,620801,6208,62,"Natai Sedawak",74172,-2.7881166794083,111.18586292915
6208012002,620801,6208,62,Pudu,74172,-2.7396550472439,111.19880812927
6208012005,620801,6208,62,Kartamulia,74172,-2.6767283636444,111.28892878617
6208012006,620801,6208,62,Sukaraja,74172,-2.5006528936019,111.23715166506
6208012007,620801,6208,62,"Pangkalan Muntai",74172,-2.404555617313,111.25072183733
6208012008,620801,6208,62,Petarikan,74172,-2.4532740966961,111.16809298072
6208021001,620802,6208,62,"Kuala Jelai",74171,-2.9528614188591,110.7853759961
6208022002,620802,6208,62,"Pulau Nibung",74171,-2.9060120230023,110.92665338991
6208022003,620802,6208,62,"Sungai Baru",74171,-2.9685242970619,110.84600641588
6208022004,620802,6208,62,"Sungai Bundung",74171,-2.9968312767367,110.88746431915
6208022005,620802,6208,62,"Sungai Raja",74171,-3.0239418893942,110.93181433612
6208032001,620803,6208,62,Jihing,74173,-2.4156299914416,111.14138880437
6208032002,620803,6208,62,"Air Dua",74173,-2.3744979590796,111.15905477146
6208032005,620803,6208,62,"Lupu Peruca",74173,-2.3286531942195,111.24378379286
6208032006,620803,6208,62,"Balai Riam",74173,-2.3189717680927,111.14811056982
6208032007,620803,6208,62,Pempaning,74173,-2.2939428510129,111.10989183541
6208032011,620803,6208,62,"Sekuningan Baru",74173,-2.3418889330042,111.18488907266
6208032012,620803,6208,62,"Bangun Jaya",74173,-2.30359175933,111.19826643529
6208032013,620803,6208,62,"Bukit Sungkai",74173,-2.3381380316237,111.21375586721
6208042001,620804,6208,62,"Sungai Damar",74170,-2.9671148679216,111.01251720476
6208042002,620804,6208,62,"Sungai Tabuk",74170,-2.933429495172,111.09924311407
6208042003,620804,6208,62,"Sungai Cabang Barat",74170,-2.9102820175151,111.15840688317
6208042004,620804,6208,62,"Sungai Pasir",74170,-2.8634607058285,111.27508690563
6208052001,620805,6208,62,Kenawan,74174,-2.2360354784497,111.34487834828
6208052002,620805,6208,62,"Laman Baru",74174,-2.226020799229,111.29029720792
6208052003,620805,6208,62,Ajang,74174,-2.1971945347375,111.22825904008
6208052004,620805,6208,62,Semantun,74174,-2.117888122152,111.16204452562
6208052005,620805,6208,62,"Nibung Terjun",74174,-2.1802032298009,111.08676685233
6208052006,620805,6208,62,"Natai Kondang",74174,-2.2579292464765,111.17627952264
6208052007,620805,6208,62,Sembikuan,74174,-2.2226902536367,111.1346419643
6209011012,620901,6209,62,"Tapin Bini",74660,-1.8501977943089,111.30238118958
6209012001,620901,6209,62,"Sungai Tuat",74660,-1.783026467438,111.07322391357
6209012002,620901,6209,62,"Tanjung Beringin",74660,-1.8138295178167,111.0467799113
6209012003,620901,6209,62,Cuhai,74660,-1.8539213043246,111.0411121138
6209012004,620901,6209,62,Kawa,74660,-1.8985348126506,111.042771567
6209012005,620901,6209,62,"Karang Taba",74660,-1.9005127259886,111.12322622794
6209012006,620901,6209,62,Penopa,74660,-1.9682572017436,111.16609746022
6209012007,620901,6209,62,Suja,74660,-1.9378312259618,111.24371523419
6209012008,620901,6209,62,Sekoban,74660,-1.8919468057209,111.36486017897
6209012009,620901,6209,62,Bakonsu,74660,-1.9809078289938,111.33196486526
6209012022,620901,6209,62,"Samu Jaya",74660,-1.8732839678166,111.33187693287
6209021017,620902,6209,62,Kudangan,74665,-1.5681704123123,111.00634090132
6209022004,620902,6209,62,"Riam Panahan",74665,-1.7409678319293,111.08193639314
6209022005,620902,6209,62,Sepoyu,74665,-1.6781434585421,111.10438317936
6209022010,620902,6209,62,Nyalang,74665,-1.6747561891958,111.0290198495
6209022011,620902,6209,62,"Riam Tinggi",74665,-1.7175850370801,111.04734388035
6209022012,620902,6209,62,"Landau Kantu",74665,-1.688467836444,111.05000123435
6209022013,620902,6209,62,Lopus,74665,-1.6343554852761,111.04356488429
6209022014,620902,6209,62,Kubung,74665,-1.6411832155159,110.95788185532
6209022015,620902,6209,62,Sekombulan,74665,-1.6426236178941,110.90584413619
6209022016,620902,6209,62,Penyombaan,74665,-1.5544130202636,111.08896575332
6209022020,620902,6209,62,"Hulu Jojabo",74665,-1.5963931793338,110.95071930267
6209031005,620903,6209,62,"Nanga Bulik",74611,-2.1399042827415,111.40278458306
6209032001,620903,6209,62,"Sungai Mentawa",74162,-2.0701184780362,111.41070818813
6209032002,620903,6209,62,Guci,74162,-2.2600445341228,111.41755239554
6209032003,620903,6209,62,"Batu Kotam",74162,-2.289410990938,111.47881067083
6209032004,620903,6209,62,Kujan,74612,-2.2107797146373,111.44850040626
6209032006,620903,6209,62,Bunut,74162,-2.0993389185311,111.43829517008
6209032007,620903,6209,62,Beruta,74162,-2.0261268061803,111.47276642134
6209032008,620903,6209,62,Tamiang,74162,-2.026510439359,111.36879342584
6209032031,620903,6209,62,"Bumi Agung",74162,-2.1492787660055,111.42020712627
6209032032,620903,6209,62,"Sumber Mulya",74162,-2.1601770772759,111.39048392227
6209032036,620903,6209,62,"Bukit Indah",74162,-2.1293230713304,111.36999586804
6209032037,620903,6209,62,"Arga Mulya",74162,-2.1237965932118,111.39847871997
6209032043,620903,6209,62,"Perigi Raya",74162,-2.0994256608589,111.54307070058
6209032044,620903,6209,62,"Nanga Pamalontian",74162,-2.0467320916188,111.54105616771
6209042001,620904,6209,62,"Nanga Palikodan",74163,-1.9808200808497,111.50403530765
6209042002,620904,6209,62,Sungkup,74163,-1.9642333943117,111.56263154788
6209042003,620904,6209,62,Nuangan,74163,-1.9275160770211,111.51817340393
6209042004,620904,6209,62,"Nanga Koring",74163,-1.901559555777,111.57525385467
6209042005,620904,6209,62,Toka,74163,-1.9029623778971,111.62184439576
6209042006,620904,6209,62,Sepondam,74163,-1.8520121196628,111.5745045807
6209042007,620904,6209,62,Merambang,74163,-1.7939065792084,111.61032237196
6209042008,620904,6209,62,Pedongatan,74163,-1.7864453963719,111.5329561876
6209042009,620904,6209,62,"Batu Tunggal",74163,-1.742901706935,111.63860569335
6209042010,620904,6209,62,"Nanga Kemujan",74163,-1.6032498332876,111.68152872071
6209042011,620904,6209,62,"Bukit Jaya",74163,-1.9123049322107,111.48160499162
6209042012,620904,6209,62,"Suka Maju",74163,-1.902166810168,111.50422378037
6209052001,620905,6209,62,Melata,74164,-1.9936794855086,111.62560473823
6209052002,620905,6209,62,Nanuah,74164,-1.9570410976471,111.67942488137
6209052003,620905,6209,62,"Batu Ampar",74164,-1.9626471094445,111.76413829162
6209052004,620905,6209,62,"Lubuk Hiju",74164,-1.7600368321041,111.77486767996
6209052005,620905,6209,62,Topalan,74164,-2.0296989976109,111.7315714054
6209052006,620905,6209,62,"Bukit Makmur",74164,-2.0835621673852,111.59270300024
6209052007,620905,6209,62,"Modang Mas",74164,-2.0311487155696,111.68807250504
6209052008,620905,6209,62,"Bukit Raya",74164,-2.0737797587349,111.63382031288
6209052009,620905,6209,62,"Mukti Manunggal",74164,-2.0433908346128,111.66243425273
6209052010,620905,6209,62,"Sumber Jaya",74164,-2.098223001252,111.69533895447
6209052011,620905,6209,62,"Bukit Harum",74164,-2.1322641708779,111.61280413949
6209062001,620906,6209,62,"Bina Bhakti",74165,-2.1964712998103,111.54064547307
6209062002,620906,6209,62,Wonorejo,74165,-2.2486482635569,111.57611080962
6209062003,620906,6209,62,"Mekar Mulya",74165,-2.2892440633909,111.56165185935
6209062004,620906,6209,62,"Jangkar Prima",74165,-2.2651949398704,111.54877254563
6209062005,620906,6209,62,Purwareja,74165,-2.2339691032471,111.52489599009
6209062006,620906,6209,62,"Tri Tunggal",74165,-2.1816991241324,111.57233012716
6209062007,620906,6209,62,"Batu Hambawang",74165,-2.2476343318441,111.48117355967
6209062008,620906,6209,62,"Rimba Jaya",74165,-2.1937097272875,111.61260450216
6209072001,620907,6209,62,"Nanga Belantikan",74663,-1.9644111939601,111.42366485715
6209072002,620907,6209,62,"Sungai Buluh",74663,-1.9155214389501,111.4313070396
6209072003,620907,6209,62,"Tangga Batu",74663,-1.8584554271641,111.42430403158
6209072004,620907,6209,62,Belibi,74663,-1.8259505311232,111.43957949771
6209072005,620907,6209,62,Bayat,74663,-1.7541486803445,111.3722148434
6209072006,620907,6209,62,"Karang Besi",74663,-1.7028591586501,111.48068774393
6209072007,620907,6209,62,Benuatan,74663,-1.6469248433933,111.41263811137
6209072008,620907,6209,62,Kahingai,74663,-1.5912745984716,111.42114790795
6209072009,620907,6209,62,"Nanga Matu",74663,-1.5618133861602,111.44108676221
6209072010,620907,6209,62,"Bintang Mangalih",74663,-1.4747548418513,111.30886748609
6209072011,620907,6209,62,Petarikan,74663,-1.4082944722162,111.47976877635
6209072012,620907,6209,62,"Sumber Cahaya",74663,-1.9634465781536,111.45785215533
6209082001,620908,6209,62,"Batu Tambun",74664,-1.7799594155749,111.13875129842
6209082002,620908,6209,62,Kinipan,74664,-1.7517432778389,111.21572896564
6209082003,620908,6209,62,Ginih,74664,-1.6930364230982,111.25530464507
6209082004,620908,6209,62,Benakitan,74664,-1.6879379499636,111.14777643037
6209082005,620908,6209,62,Liku,74664,-1.6639007511612,111.21019534892
6209082006,620908,6209,62,Mengkalang,74664,-1.6206558251671,111.19969653577
6209082007,620908,6209,62,"Karang Mas",74664,-1.5403042352966,111.22045700924
6209082008,620908,6209,62,Kina,74664,-1.5055180738991,111.16484198238
6209082009,620908,6209,62,Jamuat,74664,-1.4575971310113,111.16878971901
6210011001,621001,6210,62,"Sepang Simin",74570,-1.4821881125384,113.83073934756
6210012002,621001,6210,62,"Sepang Kota",74570,-1.4912485572579,113.95659269203
6210012003,621001,6210,62,"Tewai Baru",74570,-1.456533722041,113.95951469924
6210012004,621001,6210,62,"Tanjung Karitak",74570,-1.4472223303726,113.84315606176
6210012011,621001,6210,62,"Pamatang Limau",74570,-1.5628794984938,113.82787532044
6210012012,621001,6210,62,Tampelas,74570,-1.522979491614,113.88085024899
6210012014,621001,6210,62,Rabauh,74570,-1.428982373917,113.87228029938
6210021001,621002,6210,62,"Tampang Tumbang Anjir",74511,-1.1426251846596,113.84010252085
6210021012,621002,6210,62,"Kurun ",74511,-1.0931662297271,113.88661152929
6210022002,621002,6210,62,"Petak Bahandang",74511,-1.1475832317765,113.93995350958
6210022003,621002,6210,62,"Tanjung Riu",74511,-1.180247425154,113.79767513951
6210022004,621002,6210,62,"Teluk Nyatu",74511,-1.1748506122764,113.92558507879
6210022005,621002,6210,62,"Tumbang Lampahung",74511,-1.1963935375935,113.80783123856
6210022006,621002,6210,62,"Tewang Pajangan",74511,-1.2144470109964,113.86512324862
6210022007,621002,6210,62,"Tumbang Tariak",74511,-1.2671528800974,113.81626623777
6210022008,621002,6210,62,"Tumbang Miwan",74511,-1.2493657581163,113.79900586753
6210022009,621002,6210,62,"Hurung Bunut",74511,-1.2478727560056,113.94681961145
6210022010,621002,6210,62,"Tumbang Hakau",74511,-1.2823290401415,113.83174424844
6210022011,621002,6210,62,"Pilang Munduk",74511,-1.3000847262447,113.83712011706
6210022013,621002,6210,62,"Tumbang Manyangan",74511,-1.0592895232473,113.86187318766
6210022014,621002,6210,62,"Penda Pilang",74511,-1.0555409947483,113.84919904477
6210022015,621002,6210,62,"Tumbang Tambirah",74511,-1.0576316950132,113.88812967065
6210031005,621003,6210,62,Tewah,74552,-1.0330497255233,113.73864771647
6210032001,621003,6210,62,"Sare Rangan",74552,-1.0431517384473,113.83550296921
6210032002,621003,6210,62,"Tumbang Pajangei",74552,-1.0309294473654,113.79897679903
6210032003,621003,6210,62,Kasintu,74552,-0.95748231663199,113.72015600814
6210032004,621003,6210,62,"Batu Nyiwuh",74552,-1.0049539064619,113.62694363656
6210032006,621003,6210,62,"Tumbang Habaon",74552,-0.9479717574109,113.63716358599
6210032007,621003,6210,62,"Sei Riang",74552,-0.90938876250153,113.60087049046
6210032008,621003,6210,62,"Sandung Tambun",74552,-0.90196781571601,113.65875219106
6210032009,621003,6210,62,"Tanjung Untung",74552,-0.98024721063194,113.58833151667
6210032010,621003,6210,62,"Upon Batu",74552,-0.96631665479383,113.68440045999
6210032011,621003,6210,62,"Sumur Mas",74552,-1.0987079208239,113.66057794611
6210032012,621003,6210,62,"Batu Nyapau",74552,-1.1469522782778,113.72217729976
6210032013,621003,6210,62,"Taja Urap",74552,-0.90502055842432,113.73933367426
6210032014,621003,6210,62,"Teluk Lawah",74552,-1.0016887579722,113.70497584497
6210032015,621003,6210,62,"Karason Raya",74552,-0.84397574448002,113.69539410018
6210032016,621003,6210,62,"Rangan Mihing",74552,-0.95605144042283,113.65589737837
6210041001,621004,6210,62,"Tumbang Miri",74554,-0.8911102783017,113.55666418385
6210042002,621004,6210,62,"Batu Tangkoi",74554,-0.88849933235484,113.51826127013
6210042005,621004,6210,62,"Penda Rangas",74554,-0.86583172552601,113.6084596818
6210042006,621004,6210,62,"Tumbang Sian",74554,-0.83427656748796,113.57112963394
6210042008,621004,6210,62,"Tumbang Pasangon",74554,-0.96681881858461,113.52397613113
6210042012,621004,6210,62,"Tumbang Korik",74554,-0.78348884154969,113.48890180007
6210042014,621004,6210,62,"Tumbang Ponyoi",74554,-0.75069817176394,113.47666340863
6210042019,621004,6210,62,Dandang,74554,-0.93868308574557,113.49649050103
6210042020,621004,6210,62,"Tumbang Hamputung",74554,-0.90011426697733,113.48172204691
6210042021,621004,6210,62,"Tumbang Tajungan",74554,-0.83508619854319,113.48833443921
6210042028,621004,6210,62,"Tumbang Takaoi",74554,-0.79991124369451,113.49866580456
6210042029,621004,6210,62,"Teluk Kanduri",74554,-0.93900159729189,113.52757711256
6210051021,621005,6210,62,"Jakatan Raya",74560,-1.2756171793041,113.54806965968
6210052001,621005,6210,62,"Tumbang Jutuh",74560,-1.2679837656664,113.64130349068
6210052002,621005,6210,62,"Tumbang Baringei",74560,-1.2342868350895,113.55779896917
6210052009,621005,6210,62,"Tumbang Malahoi",74560,-1.2276160009747,113.52584212114
6210052014,621005,6210,62,"Tumbang Bunut",74560,-1.3003971625113,113.61725710197
6210052015,621005,6210,62,"Tumbang Kajuei",74560,-1.3660402441783,113.59220283209
6210052016,621005,6210,62,"Luwuk Kantor",74560,-1.3353832973608,113.65572971765
6210052017,621005,6210,62,"Luwuk Langkuas",74560,-1.4096251105238,113.63395427676
6210052018,621005,6210,62,Talangkah,74560,-1.4427103382425,113.65590682995
6210052019,621005,6210,62,Parempei,74560,-1.5044503671426,113.66844434797
6210052020,621005,6210,62,Linau,74560,-1.2398499834308,113.62372343226
6210052022,621005,6210,62,"Bereng Baru",74560,-1.4656836349705,113.66560032819
6210052023,621005,6210,62,"Bereng Malaka",74560,-1.5634821781707,113.72318327655
6210052027,621005,6210,62,"Karya Bhakti",74560,-1.3258215674038,113.53942293767
6210061001,621006,6210,62,"Tumbang Talaken",74562,-1.3741685388463,113.37934688147
6210062002,621006,6210,62,"Tumbang Sepan",74562,-1.4126448343984,113.42528524911
6210062003,621006,6210,62,"Tangki Dahuyan",74562,-1.3180873809704,113.40872312849
6210062004,621006,6210,62,"Bereng Balawan",74562,-1.4661603058192,113.50159502136
6210062005,621006,6210,62,"Bereng Jun",74562,-1.5403621368184,113.50269133236
6210062006,621006,6210,62,Takaras,74562,-1.6151059186129,113.57328520725
6210062012,621006,6210,62,"Belawan Mulia",74562,-1.4710582103208,113.41725291475
6210062013,621006,6210,62,Taringen,74562,-1.5829966657018,113.52887464064
6210062014,621006,6210,62,"Bangun Sari",74562,-1.4756199141594,113.36767267296
6210062015,621006,6210,62,"Fajar Harapan",74562,-1.5175678117815,113.40212975662
6210062017,621006,6210,62,Gohong,74562,-1.3388061672622,113.30943123994
6210062018,621006,6210,62,"Tumbang Jalemu",74562,-1.3849757207166,113.30885299715
6210071005,621007,6210,62,"Kampuri ",74571,-1.3525594652457,113.88907261225
6210072001,621007,6210,62,Tuyun,74571,-1.4109683760935,113.88608532406
6210072002,621007,6210,62,"Tumbang Empas",74571,-1.3912580443414,113.89140917781
6210072003,621007,6210,62,"Rangan Tate",74571,-1.3736017401237,113.88547707383
6210072004,621007,6210,62,"Dahian Tambuk",74571,-1.3069345671422,113.88113477209
6210072006,621007,6210,62,"Tumbang Danau",74571,-1.3309935800358,113.87647921264
6210081008,621008,6210,62,"Tumbang Marikoi ",74553,-0.96024884045488,113.39930199238
6210082001,621008,6210,62,"Lawang Kanji",74553,-0.89429533292217,113.33530071107
6210082002,621008,6210,62,"Tumbang Mahuroi",74553,-0.57126042648701,113.32741987594
6210082003,621008,6210,62,"Karetau Rambangun",74553,-0.86408776663675,113.340088339
6210082004,621008,6210,62,"Karetau Sarian",74553,-0.79109624069369,113.30254982795
6210082005,621008,6210,62,"Tumbang Posu",74553,-0.94613999426047,113.34252835313
6210082006,621008,6210,62,"Tumbang Maraya",74553,-0.9175463152981,113.33769215334
6210082007,621008,6210,62,"Tumbang Anoi",74553,-0.83231201324517,113.31824519665
6210091003,621009,6210,62,"Tumbang Napoi ",74555,-0.71028036450453,113.56453419097
6210092001,621009,6210,62,"Tumbang Siruk",74555,-0.75460374103939,113.6116499681
6210092002,621009,6210,62,Mangkuhung,74555,-0.63816854195608,113.56602909802
6210092004,621009,6210,62,"Tumbang Masukih",74555,-0.6077383313462,113.6722906531
6210092005,621009,6210,62,"Rangan Hiran",74555,-0.58926908608998,113.69094281541
6210092006,621009,6210,62,Harowo,74555,-0.46404425350686,113.60213848002
6210092007,621009,6210,62,"Tumbang Manyoi",74555,-0.61700636617181,113.57658930221
6210092008,621009,6210,62,"Tumbang Lapan",74555,-0.79933466328088,113.61353827024
6210092009,621009,6210,62,Buntoi,74555,-0.65731260573885,113.54160439368
6210092010,621009,6210,62,"Tumbang Koroi",74555,-0.67898087005995,113.54538038544
6210092011,621009,6210,62,"Tumbang Hatung",74555,-0.57426459756541,113.54469241577
6210101004,621010,6210,62,"Tumbang Rahuyan ",74561,-1.0917076236663,113.55548551309
6210102001,621010,6210,62,Jangkit,74561,-1.20486338314,113.60172523457
6210102002,621010,6210,62,"Tumbang Lapan",74561,-1.1428332562168,113.59391635844
6210102003,621010,6210,62,"Batu Puter",74561,-1.1129874188828,113.56788837063
6210102005,621010,6210,62,"Sei Antai",74561,-1.0554775809447,113.48974485826
6210102006,621010,6210,62,Hantapang,74561,-1.0553572908537,113.60590062464
6210102007,621010,6210,62,Sangal,74561,-1.1782938306057,113.59969981325
6210102008,621010,6210,62,"Tumbang Tuwe",74561,-1.0062510952537,113.50114185249
6210102012,621010,6210,62,"Tumbang Mujai",74561,-1.0728971030633,113.60452002591
6210111005,621011,6210,62,Tehang,74563,-1.0880584027912,113.33291264981
6210112002,621011,6210,62,"Tumbang Samui",74563,-1.2624986963745,113.28380667736
6210112003,621011,6210,62,"Tumbang Oroi",74563,-1.2284466528326,113.27510782359
6210112004,621011,6210,62,"Luwuk Tukau",74563,-1.1956185610837,113.28121082176
6210112006,621011,6210,62,"Putat Durei",74563,-1.2963414308397,113.2921512334
6210112007,621011,6210,62,"Tumbang Mantuhe",74563,-1.3246733129407,113.29226081105
6210121006,621012,6210,62,"Rabambang ",74561,-1.2242657372416,113.45074013673
6210122001,621012,6210,62,"Hujung Pata",74561,-1.3116973113782,113.47257375264
6210122002,621012,6210,62,"Tumbang Jalemu Kajuei",74561,-1.2818031453732,113.45572415577
6210122003,621012,6210,62,"Jalemu Raya",74561,-1.2410242679293,113.40544560766
6210122004,621012,6210,62,"Jalemu Masulan",74561,-1.2602893398124,113.47068856048
6210122005,621012,6210,62,Mangkawuk,74562,-1.1777021482759,113.40800229015
6210122007,621012,6210,62,"Tajah Antang Raya",74561,-1.2210519784003,113.49493842238
6210122008,621012,6210,62,"Tumbang Kuayan",74561,-1.1770814268788,113.48087634322
6210122009,621012,6210,62,"Tumbang Langgah",74561,-1.1450859006801,113.46744605104
6210122010,621012,6210,62,"Tusang Raya",74561,-1.1301619376091,113.40465756655
6210122011,621012,6210,62,"Tumbang Bahanei",74561,-1.1074727192804,113.44899148643
6211012001,621101,6211,62,Dandang,74871,-3.1289265832997,114.04296324903
6211012002,621101,6211,62,Talio,74871,-3.1222040245813,114.09815888617
6211012003,621101,6211,62,"Pangkoh Hilir",74871,-3.0948407881903,114.16123516617
6211012004,621101,6211,62,"Pangkoh Hulu",74871,-3.0401913737292,114.15768134078
6211012005,621101,6211,62,"Kantan Muara",74871,-3.0086596883863,114.11696486708
6211012006,621101,6211,62,"Talio Muara",74871,-3.093826788015,114.12094307094
6211012007,621101,6211,62,"Talio Hulu",74871,-3.0726932238453,114.04019025053
6211012008,621101,6211,62,"Pangkoh Sari",74871,-3.0539808797055,114.12813047292
6211012009,621101,6211,62,Sanggang,74871,-3.0877224389178,114.20053340929
6211012010,621101,6211,62,Pantik,74871,-3.117680132729,114.22906689286
6211012011,621101,6211,62,"Belanti Siam",74871,-3.1397315531076,114.19722861026
6211012012,621101,6211,62,Gadabung,74871,-3.1697044263929,114.2121140233
6211012013,621101,6211,62,Mulyasari,74871,-3.0325858135331,114.05123416275
6211012014,621101,6211,62,"Kantan Dalam",74871,-3.0030695237381,114.0959988851
6211012015,621101,6211,62,"Kantan Atas",74871,-2.9867130488045,114.03475900068
6211012016,621101,6211,62,"Karya Bersama",74871,-3.1740155455183,114.14010423549
6211021018,621102,6211,62,"Bahaur Basantan",74872,-3.2411981910844,114.0631558706
6211022001,621102,6211,62,Cemantan,74872,-3.4189950718154,113.74638892763
6211022002,621102,6211,62,"Papuyu II Sei. Barunai",74872,-3.2364008958577,113.96274674635
6211022003,621102,6211,62,Kiapak,74872,-3.3318152684474,114.12215187698
6211022005,621102,6211,62,"Papuyu I Sei. Pasanan",74872,-3.2624310644684,114.02281198501
6211022006,621102,6211,62,"Sei. Rungun",74872,-3.2714987362783,114.07161083624
6211022007,621102,6211,62,"Bahaur Hilir",74872,-3.207301854929,113.98554825888
6211022008,621102,6211,62,"Bahaur Tengah",74872,-3.2124986761356,114.05475630732
6211022009,621102,6211,62,"Bahaur Hulu",74872,-3.171142765023,114.01985602962
6211022014,621102,6211,62,"Papuyu III Sei. Pudak",74872,-3.3197083234547,113.90053187881
6211022015,621102,6211,62,"Tanjung Perawan",74872,-3.2529123119247,114.06241504837
6211022016,621102,6211,62,"Bahaur Hulu Permai",74872,-3.161015026792,114.04419875602
6211022017,621102,6211,62,"Bahaur Batu Raya",74872,-3.2030115899715,114.13151514916
6211032001,621103,6211,62,"Tanjung Sangalang",74862,-2.1535265527576,114.074294794
6211032002,621103,6211,62,"Penda Barania",74862,-2.1208831586126,114.03371767524
6211032003,621103,6211,62,"Bukit Rawi",74862,-2.0883071177075,114.02874452959
6211032004,621103,6211,62,Tuwung,74862,-2.0518500940838,113.98889611317
6211032005,621103,6211,62,Sigi,74862,-2.0257552583426,113.97696260509
6211032006,621103,6211,62,"Petuk Liti",74862,-2.0015511279616,113.96294245236
6211032007,621103,6211,62,"Bukit Liti",74862,-1.9734137434075,113.96902875144
6211032008,621103,6211,62,"Bahu Palawa",74862,-1.9520158785172,113.95266597756
6211032009,621103,6211,62,Pamarunan,74862,-1.9364649448405,113.94058455779
6211032010,621103,6211,62,Balukon,74862,-1.9208051609587,113.93205060682
6211032011,621103,6211,62,"Bukit Bamba",74862,-1.9032775012684,113.94696739697
6211032012,621103,6211,62,Tahawa,74862,-1.8810007959216,113.93510976588
6211032013,621103,6211,62,Parahangan,74862,-1.857790870702,113.92390258709
6211032014,621103,6211,62,"Bereng Rambang",74862,-1.8306654258316,113.95024779856
6211042001,621104,6211,62,"Manen Paduran",74863,-1.8241078157622,113.90585636396
6211042002,621104,6211,62,"Manen Kaleka",74863,-1.8040132508844,113.89113347352
6211042003,621104,6211,62,"Lawang Uru",74863,-1.779429905281,113.90911522951
6211042004,621104,6211,62,Hurung,74863,-1.7633346424011,113.88265490237
6211042005,621104,6211,62,Hanua,74863,-1.7383267012127,113.91534314805
6211042006,621104,6211,62,Ramang,74863,-1.7174872330162,113.89770145341
6211042007,621104,6211,62,Tambak,74863,-1.6986210637398,113.86067509851
6211042008,621104,6211,62,Pahawan,74863,-1.6710835866743,113.90105127667
6211042009,621104,6211,62,Goha,74863,-1.6386581612027,113.90758784822
6211042010,621104,6211,62,Bawan,74863,-1.6100529397207,113.90820801182
6211042011,621104,6211,62,"Tumbang Tarusan",74863,-1.5858756997374,113.96245555808
6211042012,621104,6211,62,Pandawei,74863,-1.5878808267997,113.89592842876
6211042013,621104,6211,62,Pangi,74863,-1.5647009646423,113.95289577782
6211042014,621104,6211,62,Tangkahen,74863,-1.5517322017051,113.90917859824
6211042015,621104,6211,62,"Kasali Baru",74863,-1.6918647175731,113.91611516636
6211051005,621105,6211,62,"Kahayan Hilir",74841,-2.762997053595,114.2589796471
6211051015,621105,6211,62,Kalawa,74812,-2.7175185711251,114.18778332903
6211051016,621105,6211,62,Bereng,74831,-2.7249927088459,114.282556115
6211052001,621105,6211,62,Buntoi,74861,-2.8017761459664,114.14296289877
