[
    {
        "code": 6201011011,
        "district_code": 620101,
        "regency_code": 6201,
        "province_code": 62,
        "name": "Candi",
        "postal_code": "74181",
        "latitude": -2.721966136637581,
        "longitude": 111.73117037963254
    },
    {
        "code": 6201011012,
        "district_code": 620101,
        "regency_code": 6201,
        "province_code": 62,
        "name": "Kumai Hulu",
        "postal_code": "74181",
        "latitude": -2.684122775157642,
        "longitude": 111.7893206980132
    },
    {
        "code": 6201011013,
        "district_code": 620101,
        "regency_code": 6201,
        "province_code": 62,
        "name": "Kumai Hilir",
        "postal_code": "74181",
        "latitude": -2.801624930299083,
        "longitude": 111.73743080361133
    },
    {
        "code": 6201012001,
        "district_code": 620101,
        "regency_code": 6201,
        "province_code": 62,
        "name": "Sungai Cabang",
        "postal_code": "74181",
        "latitude": -3.2821729863058993,
        "longitude": 111.91431870606311
    },
    {
        "code": 6201012002,
        "district_code": 620101,
        "regency_code": 6201,
        "province_code": 62,
        "name": "Teluk Pulai",
        "postal_code": "74181",
        "latitude": -2.982831763290319,
        "longitude": 111.9637322508738
    },
    {
        "code": 6201012003,
        "district_code": 620101,
        "regency_code": 6201,
        "province_code": 62,
        "name": "Sabuai",
        "postal_code": "74181",
        "latitude": -2.9027392665325404,
        "longitude": 111.50926178396124
    },
    {
        "code": 6201012004,
        "district_code": 620101,
        "regency_code": 6201,
        "province_code": 62,
        "name": "Keraya",
        "postal_code": "74181",
        "latitude": -2.9388114529624603,
        "longitude": 111.54746469576502
    },
    {
        "code": 6201012005,
        "district_code": 620101,
        "regency_code": 6201,
        "province_code": 62,
        "name": "Teluk Bogam",
        "postal_code": "74181",
        "latitude": -2.94290567627574,
        "longitude": 111.57278395974876
    },
    {
        "code": 6201012006,
        "district_code": 620101,
        "regency_code": 6201,
        "province_code": 62,
        "name": "Sungai Bakau",
        "postal_code": "74181",
        "latitude": -2.9344069988554966,
        "longitude": 111.60734559240396
    },
    {
        "code": 6201012007,
        "district_code": 620101,
        "regency_code": 6201,
        "province_code": 62,
        "name": "Kubu",
        "postal_code": "74181",
        "latitude": -2.8858472596295095,
        "longitude": 111.66699036442412
    },
    {
        "code": 6201012008,
        "district_code": 620101,
        "regency_code": 6201,
        "province_code": 62,
        "name": "Sungai Kapitan",
        "postal_code": "74181",
        "latitude": -2.787347548814593,
        "longitude": 111.69057726101059
    },
    {
        "code": 6201012009,
        "district_code": 620101,
        "regency_code": 6201,
        "province_code": 62,
        "name": "Batu Belaman",
        "postal_code": "74181",
        "latitude": -2.7379662672610756,
        "longitude": 111.68089781625987
    },
    {
        "code": 6201012010,
        "district_code": 620101,
        "regency_code": 6201,
        "province_code": 62,
        "name": "Sungai Tendang",
        "postal_code": "74181",
        "latitude": -2.7006931080759107,
        "longitude": 111.72390146694971
    },
    {
        "code": 6201012014,
        "district_code": 620101,
        "regency_code": 6201,
        "province_code": 62,
        "name": "Sungai Sekonyer",
        "postal_code": "74181",
        "latitude": -2.716626052238427,
        "longitude": 111.94610437478077
    },
    {
        "code": 6201012015,
        "district_code": 620101,
        "regency_code": 6201,
        "province_code": 62,
        "name": "Sungai Bedaun",
        "postal_code": "74181",
        "latitude": -2.7527374544599215,
        "longitude": 111.8156709423186
    },
    {
        "code": 6201012017,
        "district_code": 620101,
        "regency_code": 6201,
        "province_code": 62,
        "name": "Bumi Harjo",
        "postal_code": "74181",
        "latitude": -2.621409528779221,
        "longitude": 111.75196997514942
    },
    {
        "code": 6201012032,
        "district_code": 620101,
        "regency_code": 6201,
        "province_code": 62,
        "name": "Pangkalan Satu",
        "postal_code": "74181",
        "latitude": -2.6462908245166785,
        "longitude": 111.75628996758336
    },
    {
        "code": 6201012034,
        "district_code": 620101,
        "regency_code": 6201,
        "province_code": 62,
        "name": "Sabuai Timur",
        "postal_code": "74181",
        "latitude": -2.9193702049278567,
        "longitude": 111.52942925277456
    },
    {
        "code": 6201021002,
        "district_code": 620102,
        "regency_code": 6201,
        "province_code": 62,
        "name": "Mendawai Seberang",
        "postal_code": "74117",
        "latitude": -2.672979765603505,
        "longitude": 111.51050048141977
    },
    {
        "code": 6201021003,
        "district_code": 620102,
        "regency_code": 6201,
        "province_code": 62,
        "name": "Mendawai",
        "postal_code": "74115",
        "latitude": -2.7283608257547223,
        "longitude": 111.58098393718585
    },
    {
        "code": 6201021005,
        "district_code": 620102,
        "regency_code": 6201,
        "province_code": 62,
        "name": "Madurejo",
        "postal_code": "74112",
        "latitude": -2.7064473416404873,
        "longitude": 111.637295014525
    },
    {
        "code": 6201021006,
        "district_code": 620102,
        "regency_code": 6201,
        "province_code": 62,
        "name": "Sidorejo",
        "postal_code": "74111",
        "latitude": -2.6981333588801584,
        "longitude": 111.62433139739677
    },
    {
        "code": 6201021007,
        "district_code": 620102,
        "regency_code": 6201,
        "province_code": 62,
        "name": "Raja",
        "postal_code": "74114",
        "latitude": -2.677282734840495,
        "longitude": 111.63349685850183
    },
    {
        "code": 6201021008,
        "district_code": 620102,
        "regency_code": 6201,
        "province_code": 62,
        "name": "Raja Seberang",
        "postal_code": "74116",
        "latitude": -2.5722058986896212,
        "longitude": 111.60415916469451
    },
    {
        "code": 6201021009,
        "district_code": 620102,
        "regency_code": 6201,
        "province_code": 62,
        "name": "Baru",
        "postal_code": "74113",
        "latitude": -2.632859501189818,
        "longitude": 111.66539144106176
    },
    {
        "code": 6201022001,
        "district_code": 620102,
        "regency_code": 6201,
        "province_code": 62,
        "name": "Tanjung Putri",
        "postal_code": "74117",
        "latitude": -2.819210287042515,
        "longitude": 111.44079646695235
    },
    {
        "code": 6201022004,
        "district_code": 620102,
        "regency_code": 6201,
        "province_code": 62,
        "name": "Pasir Panjang",
        "postal_code": "74117",
        "latitude": -2.7905275515565107,
        "longitude": 111.6217789398918
    },
    {
        "code": 6201022010,
        "district_code": 620102,
        "regency_code": 6201,
        "province_code": 62,
        "name": "Rangda",
        "postal_code": "74117",
        "latitude": -2.4178338294394575,
        "longitude": 111.59584009873296
    },
    {
        "code": 6201022011,
        "district_code": 620102,
        "regency_code": 6201,
        "province_code": 62,
        "name": "Kenambui",
        "postal_code": "74117",
        "latitude": -2.3584576832832744,
        "longitude": 111.65586296938893
    },
    {
        "code": 6201022012,
        "district_code": 620102,
        "regency_code": 6201,
        "province_code": 62,
        "name": "Runtu",
        "postal_code": "74117",
        "latitude": -2.3239883244354798,
        "longitude": 111.70938040414516
    },
    {
        "code": 6201022013,
        "district_code": 620102,
        "regency_code": 6201,
        "province_code": 62,
        "name": "Umpang",
        "postal_code": "74117",
        "latitude": -2.2068944485989523,
        "longitude": 111.73982807392788
    },
    {
        "code": 6201022014,
        "district_code": 620102,
        "regency_code": 6201,
        "province_code": 62,
        "name": "Kumpai Batu Bawah",
        "postal_code": "74117",
        "latitude": -2.7655147623973284,
        "longitude": 111.54865919214781
    },
    {
        "code": 6201022015,
        "district_code": 620102,
        "regency_code": 6201,
        "province_code": 62,
        "name": "Kumpai Batu Atas",
        "postal_code": "74117",
        "latitude": -2.779688616281877,
        "longitude": 111.57536486258321
    },
    {
        "code": 6201022016,
        "district_code": 620102,
        "regency_code": 6201,
        "province_code": 62,
        "name": "Natai Raya",
        "postal_code": "74117",
        "latitude": -2.662730823786762,
        "longitude": 111.70935461317299
    },
    {
        "code": 6201022017,
        "district_code": 620102,
        "regency_code": 6201,
        "province_code": 62,
        "name": "Medang Sari",
        "postal_code": "74117",
        "latitude": -2.5020726912953895,
        "longitude": 111.66499042611223
    },
    {
        "code": 6201022018,
        "district_code": 620102,
        "regency_code": 6201,
        "province_code": 62,
        "name": "Natai Baru",
        "postal_code": "74117",
        "latitude": -2.5800167342525553,
        "longitude": 111.67414512071343
    },
    {
        "code": 6201022019,
        "district_code": 620102,
        "regency_code": 6201,
        "province_code": 62,
        "name": "Tanjung Terantang",
        "postal_code": "74117",
        "latitude": -2.8177354459641437,
        "longitude": 111.51391400481751
    },
    {
        "code": 6201022020,
        "district_code": 620102,
        "regency_code": 6201,
        "province_code": 62,
        "name": "Sulung",
        "postal_code": "74117",
        "latitude": -2.3021044628426464,
        "longitude": 111.62189883302122
    },
    {
        "code": 6201031007,
        "district_code": 620103,
        "regency_code": 6201,
        "province_code": 62,
        "name": "Kotawaringin Hulu",
        "postal_code": "74161",
        "latitude": -2.4645946158412846,
        "longitude": 111.48025308388839
    },
    {
        "code": 6201031008,
        "district_code": 620103,
        "regency_code": 6201,
        "province_code": 62,
        "name": "Kotawaringin Hilir",
        "postal_code": "74161",
        "latitude": -2.5345625507954823,
        "longitude": 111.45826583425396
    },
    {
        "code": 6201032001,
        "district_code": 620103,
        "regency_code": 6201,
        "province_code": 62,
        "name": "Babual Baboti",
        "postal_code": "74161",
        "latitude": -2.594360224273068,
        "longitude": 111.39148675842999
    },
    {
        "code": 6201032002,
        "district_code": 620103,
        "regency_code": 6201,
        "province_code": 62,
        "name": "Tempayung",
        "postal_code": "74161",
        "latitude": -2.5478866057595204,
        "longitude": 111.29051382943028
    },
    {
        "code": 6201032003,
        "district_code": 620103,
        "regency_code": 6201,
        "province_code": 62,
        "name": "Sakabulin",
        "postal_code": "74161",
        "latitude": -2.490335117668382,
        "longitude": 111.30920155236566
    },
    {
        "code": 6201032004,
        "district_code": 620103,
        "regency_code": 6201,
        "province_code": 62,
        "name": "Kinjil",
        "postal_code": "74161",
        "latitude": -2.473065897673059,
        "longitude": 111.35142065760783
    },
    {
        "code": 6201032005,
        "district_code": 620103,
        "regency_code": 6201,
        "province_code": 62,
        "name": "Dawak",
        "postal_code": "74161",
        "latitude": -2.4119089546094434,
        "longitude": 111.31053230148632
    },
    {
        "code": 6201032006,
        "district_code": 620103,
        "regency_code": 6201,
        "province_code": 62,
        "name": "Riam Durian",
        "postal_code": "74161",
        "latitude": -2.417148164570154,
        "longitude": 111.35301304845161
    },
    {
        "code": 6201032009,
        "district_code": 620103,
        "regency_code": 6201,
        "province_code": 62,
        "name": "Lalang",
        "postal_code": "74161",
        "latitude": -2.4182527182542004,
        "longitude": 111.48288496844104
    },
    {
        "code": 6201032010,
        "district_code": 620103,
        "regency_code": 6201,
        "province_code": 62,
        "name": "Rungun",
        "postal_code": "74161",
        "latitude": -2.380656152873949,
        "longitude": 111.4565315979106
    },
    {
        "code": 6201032011,
        "district_code": 620103,
        "regency_code": 6201,
        "province_code": 62,
        "name": "Kondang",
        "postal_code": "74161",
        "latitude": -2.3286256393380387,
        "longitude": 111.46030409475154
    },
    {
        "code": 6201032012,
        "district_code": 620103,
        "regency_code": 6201,
        "province_code": 62,
        "name": "Suka Jaya",
        "postal_code": "74161",
        "latitude": -2.450943809724278,
        "longitude": 111.30873826185197
    },
    {
        "code": 6201032013,
        "district_code": 620103,
        "regency_code": 6201,
        "province_code": 62,
        "name": "Suka Makmur",
        "postal_code": "74161",
        "latitude": -2.361025776549801,
        "longitude": 111.36241220068588
    },
    {
        "code": 6201032014,
        "district_code": 620103,
        "regency_code": 6201,
        "province_code": 62,
        "name": "Sumber Mukti",
        "postal_code": "74161",
        "latitude": -2.530117217319957,
        "longitude": 111.24436906707571
    },
    {
        "code": 6201032015,
        "district_code": 620103,
        "regency_code": 6201,
        "province_code": 62,
        "name": "Palih Baru",
        "postal_code": "74161",
        "latitude": -2.2916594700312896,
        "longitude": 111.3672933638886
    },
    {
        "code": 6201032016,
        "district_code": 620103,
        "regency_code": 6201,
        "province_code": 62,
        "name": "Ipuh Bangun Jaya",
        "postal_code": "74161",
        "latitude": -2.3235544724156765,
        "longitude": 111.36141417810916
    },
    {
        "code": 6201032017,
        "district_code": 620103,
        "regency_code": 6201,
        "province_code": 62,
        "name": "Sagu Suka Mulya",
        "postal_code": "74161",
        "latitude": -2.361288047431113,
        "longitude": 111.29563306848365
    },
    {
        "code": 6201041002,
        "district_code": 620104,
        "regency_code": 6201,
        "province_code": 62,
        "name": "Pangkut",
        "postal_code": "74152",
        "latitude": -2.250879485190346,
        "longitude": 111.90442843534859
    },
    {
        "code": 6201042001,
        "district_code": 620104,
        "regency_code": 6201,
        "province_code": 62,
        "name": "Nanga Mua",
        "postal_code": "74152",
        "latitude": -2.1885682838608522,
        "longitude": 111.81234283152841
    },
    {
        "code": 6201042003,
        "district_code": 620104,
        "regency_code": 6201,
        "province_code": 62,
        "name": "Sukarami",
        "postal_code": "74152",
        "latitude": -2.1682812625899395,
        "longitude": 111.93617632279644
    },
    {
        "code": 6201042004,
        "district_code": 620104,
        "regency_code": 6201,
        "province_code": 62,
        "name": "Gandis",
        "postal_code": "74152",
        "latitude": -2.1114319062089724,
        "longitude": 111.92521463950804
    },
    {
        "code": 6201042005,
        "district_code": 620104,
        "regency_code": 6201,
        "province_code": 62,
        "name": "Kerabu",
        "postal_code": "74152",
        "latitude": -2.054540294402957,
        "longitude": 111.90838595739147
    },
    {
        "code": 6201042006,
        "district_code": 620104,
        "regency_code": 6201,
        "province_code": 62,
        "name": "Sambi",
        "postal_code": "74152",
        "latitude": -1.9771593610970617,
        "longitude": 112.00665211586053
    },
    {
        "code": 6201042007,
        "district_code": 620104,
        "regency_code": 6201,
        "province_code": 62,
        "name": "Penyombaan",
        "postal_code": "74152",
        "latitude": -2.028555041684992,
        "longitude": 111.95942143568672
    },
    {
        "code": 6201042008,
        "district_code": 620104,
        "regency_code": 6201,
        "province_code": 62,
        "name": "Pandau",
        "postal_code": "74152",
        "latitude": -1.9579469379656362,
        "longitude": 111.91801405200802
    },
    {
        "code": 6201042009,
        "district_code": 620104,
        "regency_code": 6201,
        "province_code": 62,
        "name": "Riam",
        "postal_code": "74152",
        "latitude": -1.940297429438436,
        "longitude": 111.86073110958326
    },
    {
        "code": 6201042010,
        "district_code": 620104,
        "regency_code": 6201,
        "province_code": 62,
        "name": "Panahan",
        "postal_code": "74152",
        "latitude": -1.7165804898700006,
        "longitude": 111.87005104766344
    },
    {
        "code": 6201042011,
        "district_code": 620104,
        "regency_code": 6201,
        "province_code": 62,
        "name": "Sungai Dau",
        "postal_code": "74152",
        "latitude": -1.9942271188963012,
        "longitude": 112.05342896277782
    },
    {
        "code": 6201052001,
        "district_code": 620105,
        "regency_code": 6201,
        "province_code": 62,
        "name": "Pangkalan Tiga",
        "postal_code": "74184",
        "latitude": -2.3792393495642528,
        "longitude": 111.81493274736049
    },
    {
        "code": 6201052002,
        "district_code": 620105,
        "regency_code": 6201,
        "province_code": 62,
        "name": "Pandu Sanjaya",
        "postal_code": "74184",
        "latitude": -2.455247186667128,
        "longitude": 111.77080977514215
    },
    {
        "code": 6201052003,
        "district_code": 620105,
        "regency_code": 6201,
        "province_code": 62,
        "name": "Lada Mandala Jaya",
        "postal_code": "74184",
        "latitude": -2.5230357327397024,
        "longitude": 111.78659836170263
    },
    {
        "code": 6201052004,
        "district_code": 620105,
        "regency_code": 6201,
        "province_code": 62,
        "name": "Makarti Jaya",
        "postal_code": "74184",
        "latitude": -2.455335882649119,
        "longitude": 111.72185089040889
    },
    {
        "code": 6201052005,
        "district_code": 620105,
        "regency_code": 6201,
        "province_code": 62,
        "name": "Sumber Agung",
        "postal_code": "74184",
        "latitude": -2.5704127077371255,
        "longitude": 111.72834426087692
    },
    {
        "code": 6201052006,
        "district_code": 620105,
        "regency_code": 6201,
        "province_code": 62,
        "name": "Purbasari",
        "postal_code": "74184",
        "latitude": -2.606248920245148,
        "longitude": 111.7185100552223
    },
    {
        "code": 6201052007,
        "district_code": 620105,
        "regency_code": 6201,
        "province_code": 62,
        "name": "Sungai Rangit Jaya",
        "postal_code": "74184",
        "latitude": -2.5608257825551948,
        "longitude": 111.7753707813716
    },
    {
        "code": 6201052008,
        "district_code": 620105,
        "regency_code": 6201,
        "province_code": 62,
        "name": "Pangkalan Dewa",
        "postal_code": "74184",
        "latitude": -2.5112157966741533,
        "longitude": 111.82473413421359
    },
    {
        "code": 6201052009,
        "district_code": 620105,
        "regency_code": 6201,
        "province_code": 62,
        "name": "Kadipi Atas",
        "postal_code": "74184",
        "latitude": -2.51134441558029,
        "longitude": 111.71086299338542
    },
    {
        "code": 6201052010,
        "district_code": 620105,
        "regency_code": 6201,
        "province_code": 62,
        "name": "Sungai Melawen",
        "postal_code": "74184",
        "latitude": -2.52711454969614,
        "longitude": 111.73955247713452
    },
    {
        "code": 6201052011,
        "district_code": 620105,
        "regency_code": 6201,
        "province_code": 62,
        "name": "Pangkalan Durin",
        "postal_code": "74184",
        "latitude": -2.5884911208546826,
        "longitude": 111.78254637944623
    },
    {
        "code": 6201062001,
        "district_code": 620106,
        "regency_code": 6201,
        "province_code": 62,
        "name": "Pangkalan Banteng",
        "postal_code": "74183",
        "latitude": -2.470006113862834,
        "longitude": 111.87031752782423
    },
    {
        "code": 6201062002,
        "district_code": 620106,
        "regency_code": 6201,
        "province_code": 62,
        "name": "Mulya Jadi",
        "postal_code": "74183",
        "latitude": -2.5633060595330073,
        "longitude": 111.85189575731044
    },
    {
        "code": 6201062003,
        "district_code": 620106,
        "regency_code": 6201,
        "province_code": 62,
        "name": "Karang Mulya",
        "postal_code": "74183",
        "latitude": -2.472176669820857,
        "longitude": 111.92803475114256
    },
    {
        "code": 6201062004,
        "district_code": 620106,
        "regency_code": 6201,
        "province_code": 62,
        "name": "Kebun Agung",
        "postal_code": "74183",
        "latitude": -2.3810397869783873,
        "longitude": 111.90477249425562
    },
    {
        "code": 6201062005,
        "district_code": 620106,
        "regency_code": 6201,
        "province_code": 62,
        "name": "Sido Mulyo",
        "postal_code": "74183",
        "latitude": -2.3953271131181415,
        "longitude": 111.87695889756435
    },
    {
        "code": 6201062006,
        "district_code": 620106,
        "regency_code": 6201,
        "province_code": 62,
        "name": "Marga Mulya",
        "postal_code": "74183",
        "latitude": -2.4686953777286744,
        "longitude": 111.8921064169361
    },
    {
        "code": 6201062007,
        "district_code": 620106,
        "regency_code": 6201,
        "province_code": 62,
        "name": "Amin Jaya",
        "postal_code": "74183",
        "latitude": -2.425660001162108,
        "longitude": 112.00696413121628
    },
    {
        "code": 6201062008,
        "district_code": 620106,
        "regency_code": 6201,
        "province_code": 62,
        "name": "Arga Mulya",
        "postal_code": "74183",
        "latitude": -2.3848306970404103,
        "longitude": 111.94326593193836
    },
    {
        "code": 6201062009,
        "district_code": 620106,
        "regency_code": 6201,
        "province_code": 62,
        "name": "Natai Kerbau",
        "postal_code": "74183",
        "latitude": -2.5482671431578017,
        "longitude": 111.9198948504035
    },
    {
        "code": 6201062010,
        "district_code": 620106,
        "regency_code": 6201,
        "province_code": 62,
        "name": "Simpang Berambai",
        "postal_code": "74183",
        "latitude": -2.502521065218675,
        "longitude": 111.91793866947263
    },
    {
        "code": 6201062011,
        "district_code": 620106,
        "regency_code": 6201,
        "province_code": 62,
        "name": "Sungai Hijau",
        "postal_code": "74183",
        "latitude": -2.427717410641783,
        "longitude": 111.91435327615876
    },
    {
        "code": 6201062012,
        "district_code": 620106,
        "regency_code": 6201,
        "province_code": 62,
        "name": "Sungai Pakit",
        "postal_code": "74183",
        "latitude": -2.3859231856016168,
        "longitude": 111.96963765193709
    },
    {
        "code": 6201062013,
        "district_code": 620106,
        "regency_code": 6201,
        "province_code": 62,
        "name": "Berambai Makmur",
        "postal_code": "74183",
        "latitude": -2.533571163283433,
        "longitude": 111.87741795156487
    },
    {
        "code": 6201062014,
        "district_code": 620106,
        "regency_code": 6201,
        "province_code": 62,
        "name": "Karang Sari",
        "postal_code": "74183",
        "latitude": -2.5941639903998936,
        "longitude": 111.88971693623851
    },
    {
        "code": 6201062015,
        "district_code": 620106,
        "regency_code": 6201,
        "province_code": 62,
        "name": "Sungai Pulau",
        "postal_code": "74183",
        "latitude": -2.6116365239208172,
        "longitude": 111.84926499957142
    },
    {
        "code": 6201062016,
        "district_code": 620106,
        "regency_code": 6201,
        "province_code": 62,
        "name": "Sungai Bengkuang",
        "postal_code": "74183",
        "latitude": -2.4097646827489854,
        "longitude": 111.86726248614508
    },
    {
        "code": 6201062017,
        "district_code": 620106,
        "regency_code": 6201,
        "province_code": 62,
        "name": "Sungai Kuning",
        "postal_code": "74183",
        "latitude": -2.371409429523469,
        "longitude": 111.87378677433179
    },
    {
        "code": 6202011009,
        "district_code": 620201,
        "regency_code": 6202,
        "province_code": 62,
        "name": "Kota Besi Hulu",
        "postal_code": "74353",
        "latitude": -2.4203592499104127,
        "longitude": 112.96839543715345
    },
    {
        "code": 6202011010,
        "district_code": 620201,
        "regency_code": 6202,
        "province_code": 62,
        "name": "Kota Besi Hilir",
        "postal_code": "74353",
        "latitude": -2.4046751228957364,
        "longitude": 112.99859730024069
    },
    {
        "code": 6202012003,
        "district_code": 620201,
        "regency_code": 6202,
        "province_code": 62,
        "name": "Palangan",
        "postal_code": "74353",
        "latitude": -2.3660670044416117,
        "longitude": 112.74979915099394
    },
    {
        "code": 6202012004,
        "district_code": 620201,
        "regency_code": 6202,
        "province_code": 62,
        "name": "Hanjalipan",
        "postal_code": "74353",
        "latitude": -2.2232235741202717,
        "longitude": 112.7439631535517
    },
    {
        "code": 6202012005,
        "district_code": 620201,
        "regency_code": 6202,
        "province_code": 62,
        "name": "Simpur",
        "postal_code": "74353",
        "latitude": -2.315740727982272,
        "longitude": 112.80125039586763
    },
    {
        "code": 6202012006,
        "district_code": 620201,
        "regency_code": 6202,
        "province_code": 62,
        "name": "Pamalian",
        "postal_code": "74353",
        "latitude": -2.2605929600963286,
        "longitude": 112.85645860948557
    },
    {
        "code": 6202012007,
        "district_code": 620201,
        "regency_code": 6202,
        "province_code": 62,
        "name": "Camba",
        "postal_code": "74353",
        "latitude": -2.3612211513028605,
        "longitude": 112.86102676952328
    },
    {
        "code": 6202012008,
        "district_code": 620201,
        "regency_code": 6202,
        "province_code": 62,
        "name": "Kandan",
        "postal_code": "74353",
        "latitude": -2.398751940000071,
        "longitude": 112.90454900523963
    },
    {
        "code": 6202012012,
        "district_code": 620201,
        "regency_code": 6202,
        "province_code": 62,
        "name": "Bajarum",
        "postal_code": "74353",
        "latitude": -2.3800555652710313,
        "longitude": 112.95200333100007
    },
    {
        "code": 6202012015,
        "district_code": 620201,
        "regency_code": 6202,
        "province_code": 62,
        "name": "Rasau Tumbuh",
        "postal_code": "74353",
        "latitude": -2.2606765868833625,
        "longitude": 112.7968678029415
    },
    {
        "code": 6202012017,
        "district_code": 620201,
        "regency_code": 6202,
        "province_code": 62,
        "name": "Soren",
        "postal_code": "74353",
        "latitude": -2.337792915395749,
        "longitude": 112.82320500045947
    },
    {
        "code": 6202022004,
        "district_code": 620202,
        "regency_code": 6202,
        "province_code": 62,
        "name": "Rubung Buyung",
        "postal_code": "74354",
        "latitude": -2.1691737929958315,
        "longitude": 113.00505252759649
    },
    {
        "code": 6202022005,
        "district_code": 620202,
        "regency_code": 6202,
        "province_code": 62,
        "name": "Patai",
        "postal_code": "74354",
        "latitude": -2.199016473089109,
        "longitude": 112.93591247280801
    },
    {
        "code": 6202022006,
        "district_code": 620202,
        "regency_code": 6202,
        "province_code": 62,
        "name": "Luwuk Ranggan",
        "postal_code": "74354",
        "latitude": -2.249448970440717,
        "longitude": 112.99746762670436
    },
    {
        "code": 6202022007,
        "district_code": 620202,
        "regency_code": 6202,
        "province_code": 62,
        "name": "Jemaras",
        "postal_code": "74354",
        "latitude": -2.2932657260706977,
        "longitude": 112.95587893715786
    },
    {
        "code": 6202022008,
        "district_code": 620202,
        "regency_code": 6202,
        "province_code": 62,
        "name": "Cempaka Mulia Timur",
        "postal_code": "74354",
        "latitude": -2.2787374667117213,
        "longitude": 113.12211976299807
    },
    {
        "code": 6202022009,
        "district_code": 620202,
        "regency_code": 6202,
        "province_code": 62,
        "name": "Cempaka Mulia Barat",
        "postal_code": "74354",
        "latitude": -2.320031553512572,
        "longitude": 112.98429862051105
    },
    {
        "code": 6202022010,
        "district_code": 620202,
        "regency_code": 6202,
        "province_code": 62,
        "name": "Luwuk Bunter",
        "postal_code": "74354",
        "latitude": -2.370322113909422,
        "longitude": 112.99242510047507
    },
    {
        "code": 6202022011,
        "district_code": 620202,
        "regency_code": 6202,
        "province_code": 62,
        "name": "Sungai Paring",
        "postal_code": "74354",
        "latitude": -2.3469942900169936,
        "longitude": 112.98349308268703
    },
    {
        "code": 6202031012,
        "district_code": 620203,
        "regency_code": 6202,
        "province_code": 62,
        "name": "Kuala Kuayan",
        "postal_code": "74357",
        "latitude": -1.9759525931299164,
        "longitude": 112.44805193139013
    },
    {
        "code": 6202032001,
        "district_code": 620203,
        "regency_code": 6202,
        "province_code": 62,
        "name": "Tangar",
        "postal_code": "74357",
        "latitude": -2.1822637984515567,
        "longitude": 112.65999056036381
    },
    {
        "code": 6202032002,
        "district_code": 620203,
        "regency_code": 6202,
        "province_code": 62,
        "name": "Baampah",
        "postal_code": "74357",
        "latitude": -2.142825305313938,
        "longitude": 112.63135873690476
    },
    {
        "code": 6202032003,
        "district_code": 620203,
        "regency_code": 6202,
        "province_code": 62,
        "name": "Kawan Batu",
        "postal_code": "74357",
        "latitude": -2.1209832211545403,
        "longitude": 112.56239077032178
    },
    {
        "code": 6202032004,
        "district_code": 620203,
        "regency_code": 6202,
        "province_code": 62,
        "name": "Tanjung Bantur",
        "postal_code": "74357",
        "latitude": -2.077358538031945,
        "longitude": 112.55780772790726
    },
    {
        "code": 6202032005,
        "district_code": 620203,
        "regency_code": 6202,
        "province_code": 62,
        "name": "Penda Durian",
        "postal_code": "74357",
        "latitude": -2.048452404990323,
        "longitude": 112.61946373776985
    },
    {
        "code": 6202032006,
        "district_code": 620203,
        "regency_code": 6202,
        "province_code": 62,
        "name": "Pahirangan",
        "postal_code": "74357",
        "latitude": -2.0368715051352018,
        "longitude": 112.58309043036911
    },
    {
        "code": 6202032007,
        "district_code": 620203,
        "regency_code": 6202,
        "province_code": 62,
        "name": "Satiung",
        "postal_code": "74357",
        "latitude": -2.0071232468349587,
        "longitude": 112.61550064835826
    },
    {
        "code": 6202032008,
        "district_code": 620203,
        "regency_code": 6202,
        "province_code": 62,
        "name": "Santilik",
        "postal_code": "74357",
        "latitude": -1.9733056506332767,
        "longitude": 112.62786410893284
    },
    {
        "code": 6202032009,
        "district_code": 620203,
        "regency_code": 6202,
        "province_code": 62,
        "name": "Tangka Robah",
        "postal_code": "74357",
        "latitude": -1.9885201052151442,
        "longitude": 112.54838975301402
    },
    {
        "code": 6202032010,
        "district_code": 620203,
        "regency_code": 6202,
        "province_code": 62,
        "name": "Pemantang",
        "postal_code": "74357",
        "latitude": -2.0552075740557405,
        "longitude": 112.4426618791517
    },
    {
        "code": 6202032011,
        "district_code": 620203,
        "regency_code": 6202,
        "province_code": 62,
        "name": "Tumbang Sapiri",
        "postal_code": "74357",
        "latitude": -2.03785973098584,
        "longitude": 112.38622332481002
    },
    {
        "code": 6202032014,
        "district_code": 620203,
        "regency_code": 6202,
        "province_code": 62,
        "name": "Bawan",
        "postal_code": "74357",
        "latitude": -1.9343511914310965,
        "longitude": 112.59038325437999
    },
    {
        "code": 6202032015,
        "district_code": 620203,
        "regency_code": 6202,
        "province_code": 62,
        "name": "Tanjung Jariangau",
        "postal_code": "74357",
        "latitude": -1.8940467230523321,
        "longitude": 112.59068629667057
    },
    {
        "code": 6202032031,
        "district_code": 620203,
        "regency_code": 6202,
        "province_code": 62,
        "name": "Kapuk",
        "postal_code": "74357",
        "latitude": -2.1330999521422407,
        "longitude": 112.41519343068946
    },
    {
        "code": 6202032032,
        "district_code": 620203,
        "regency_code": 6202,
        "province_code": 62,
        "name": "Pantap",
        "postal_code": "74357",
        "latitude": -2.20204624341506,
        "longitude": 112.40345144329495
    },
    {
        "code": 6202041004,
        "district_code": 620204,
        "regency_code": 6202,
        "province_code": 62,
        "name": "Parenggean",
        "postal_code": "74355",
        "latitude": -2.0090991745898825,
        "longitude": 112.74837197845073
    },
    {
        "code": 6202042001,
        "district_code": 620204,
        "regency_code": 6202,
        "province_code": 62,
        "name": "Tehang",
        "postal_code": "74355",
        "latitude": -2.155106849922481,
        "longitude": 112.77238571594968
    },
    {
        "code": 6202042002,
        "district_code": 620204,
        "regency_code": 6202,
        "province_code": 62,
        "name": "Kabuau",
        "postal_code": "74355",
        "latitude": -2.0827368905559616,
        "longitude": 112.7709909961266
    },
    {
        "code": 6202042007,
        "district_code": 620204,
        "regency_code": 6202,
        "province_code": 62,
        "name": "Barunang Miri",
        "postal_code": "74355",
        "latitude": -1.9106794374974587,
        "longitude": 112.77772439753107
    },
    {
        "code": 6202042009,
        "district_code": 620204,
        "regency_code": 6202,
        "province_code": 62,
        "name": "Sumber Makmur",
        "postal_code": "74355",
        "latitude": -1.9364663771385657,
        "longitude": 112.87744676082112
    },
    {
        "code": 6202042010,
        "district_code": 620204,
        "regency_code": 6202,
        "province_code": 62,
        "name": "Mekar Jaya",
        "postal_code": "74355",
        "latitude": -1.9900501367052619,
        "longitude": 112.7239556130734
    },
    {
        "code": 6202042011,
        "district_code": 620204,
        "regency_code": 6202,
        "province_code": 62,
        "name": "Karang Tunggal",
        "postal_code": "74355",
        "latitude": -1.99465181473352,
        "longitude": 112.8526473974814
    },
    {
        "code": 6202042012,
        "district_code": 620204,
        "regency_code": 6202,
        "province_code": 62,
        "name": "Bandar Agung",
        "postal_code": "74355",
        "latitude": -1.9170479573703556,
        "longitude": 112.85263021445594
    },
    {
        "code": 6202042013,
        "district_code": 620204,
        "regency_code": 6202,
        "province_code": 62,
        "name": "Beringin Tunggal Jaya",
        "postal_code": "74355",
        "latitude": -1.8842697478032981,
        "longitude": 112.85516033124146
    },
    {
        "code": 6202042015,
        "district_code": 620204,
        "regency_code": 6202,
        "province_code": 62,
        "name": "Sari Harapan",
        "postal_code": "74355",
        "latitude": -1.9881114942582478,
        "longitude": 112.77826923352788
    },
    {
        "code": 6202042016,
        "district_code": 620204,
        "regency_code": 6202,
        "province_code": 62,
        "name": "Karang Sari",
        "postal_code": "74355",
        "latitude": -1.9679207465456936,
        "longitude": 112.86342699565903
    },
    {
        "code": 6202042019,
        "district_code": 620204,
        "regency_code": 6202,
        "province_code": 62,
        "name": "Bajarau",
        "postal_code": "74355",
        "latitude": -1.9842246509505848,
        "longitude": 112.83693684538109
    },
    {
        "code": 6202042023,
        "district_code": 620204,
        "regency_code": 6202,
        "province_code": 62,
        "name": "Bukit Harapan",
        "postal_code": "74355",
        "latitude": -1.967364492160111,
        "longitude": 112.76234109596552
    },
    {
        "code": 6202042024,
        "district_code": 620204,
        "regency_code": 6202,
        "province_code": 62,
        "name": "Manjalin",
        "postal_code": "74355",
        "latitude": -2.0491717406194536,
        "longitude": 112.84191460676821
    },
    {
        "code": 6202042025,
        "district_code": 620204,
        "regency_code": 6202,
        "province_code": 62,
        "name": "Karya Bersama",
        "postal_code": "74355",
        "latitude": -1.9163860032079114,
        "longitude": 112.69138782286421
    },
    {
        "code": 6202051001,
        "district_code": 620205,
        "regency_code": 6202,
        "province_code": 62,
        "name": "Baamang Hilir",
        "postal_code": "74311",
        "latitude": -2.5323310551860034,
        "longitude": 112.95726079177159
    },
    {
        "code": 6202051002,
        "district_code": 620205,
        "regency_code": 6202,
        "province_code": 62,
        "name": "Baamang Tengah",
        "postal_code": "74312",
        "latitude": -2.5209762517070344,
        "longitude": 112.95871828221635
    },
    {
        "code": 6202051003,
        "district_code": 620205,
        "regency_code": 6202,
        "province_code": 62,
        "name": "Baamang Hulu",
        "postal_code": "74313",
        "latitude": -2.4659512593580146,
        "longitude": 112.90480862079897
    },
    {
        "code": 6202051007,
        "district_code": 620205,
        "regency_code": 6202,
        "province_code": 62,
        "name": "Tanah Mas",
        "postal_code": "74312",
        "latitude": -2.472073686703235,
        "longitude": 113.00147066095441
    },
    {
        "code": 6202051008,
        "district_code": 620205,
        "regency_code": 6202,
        "province_code": 62,
        "name": "Baamang Barat",
        "postal_code": "74312",
        "latitude": -2.498771261558562,
        "longitude": 112.90683602140821
    },
    {
        "code": 6202052006,
        "district_code": 620205,
        "regency_code": 6202,
        "province_code": 62,
        "name": "Tinduk",
        "postal_code": "74316",
        "latitude": -2.4326179715315286,
        "longitude": 113.03009927017715
    },
    {
        "code": 6202061001,
        "district_code": 620206,
        "regency_code": 6202,
        "province_code": 62,
        "name": "Mentawa Baru Hulu",
        "postal_code": "74322",
        "latitude": -2.539852870361207,
        "longitude": 112.93037036589338
    },
    {
        "code": 6202061002,
        "district_code": 620206,
        "regency_code": 6202,
        "province_code": 62,
        "name": "Mentawa Baru Hilir",
        "postal_code": "74323",
        "latitude": -2.5493094592724352,
        "longitude": 112.93173380406043
    },
    {
        "code": 6202061003,
        "district_code": 620206,
        "regency_code": 6202,
        "province_code": 62,
        "name": "Ketapang",
        "postal_code": "74325",
        "latitude": -2.565493213259784,
        "longitude": 112.93310482207943
    },
    {
        "code": 6202061007,
        "district_code": 620206,
        "regency_code": 6202,
        "province_code": 62,
        "name": "Sawahan",
        "postal_code": "74321",
        "latitude": -2.5316672723292095,
        "longitude": 112.92541345838363
    },
    {
        "code": 6202061009,
        "district_code": 620206,
        "regency_code": 6202,
        "province_code": 62,
        "name": "Pasir Putih",
        "postal_code": "74322",
        "latitude": -2.50907802300506,
        "longitude": 112.83018481401942
    },
    {
        "code": 6202062005,
        "district_code": 620206,
        "regency_code": 6202,
        "province_code": 62,
        "name": "Pelangsian",
        "postal_code": "74326",
        "latitude": -2.6055033809994788,
        "longitude": 112.96911430232117
    },
    {
        "code": 6202062006,
        "district_code": 620206,
        "regency_code": 6202,
        "province_code": 62,
        "name": "Bapeang",
        "postal_code": "74326",
        "latitude": -2.6608904415602646,
        "longitude": 112.92429676136493
    },
    {
        "code": 6202062008,
        "district_code": 620206,
        "regency_code": 6202,
        "province_code": 62,
        "name": "Eka Bahurui",
        "postal_code": "74326",
        "latitude": -2.603939589395829,
        "longitude": 112.94008052182784
    },
    {
        "code": 6202062010,
        "district_code": 620206,
        "regency_code": 6202,
        "province_code": 62,
        "name": "Telaga baru",
        "postal_code": "74326",
        "latitude": -2.5798563726478685,
        "longitude": 112.97640333004438
    },
    {
        "code": 6202062011,
        "district_code": 620206,
        "regency_code": 6202,
        "province_code": 62,
        "name": "Bangkuang Makmur",
        "postal_code": "74326",
        "latitude": -2.6115262695109704,
        "longitude": 112.91064120700626
    },
    {
        "code": 6202062012,
        "district_code": 620206,
        "regency_code": 6202,
        "province_code": 62,
        "name": "Bapanggang Raya",
        "postal_code": "74326",
        "latitude": -2.6907391403932595,
        "longitude": 112.91307593670308
    },
    {
        "code": 6202072001,
        "district_code": 620207,
        "regency_code": 6202,
        "province_code": 62,
        "name": "Pondok Damar",
        "postal_code": "74361",
        "latitude": -2.5851788037282204,
        "longitude": 112.55021551849627
    },
    {
        "code": 6202072002,
        "district_code": 620207,
        "regency_code": 6202,
        "province_code": 62,
        "name": "Bagendang Hilir",
        "postal_code": "74361",
        "latitude": -2.80433274264899,
        "longitude": 112.87843966306606
    },
    {
        "code": 6202072003,
        "district_code": 620207,
        "regency_code": 6202,
        "province_code": 62,
        "name": "Bagendang Tengah",
        "postal_code": "74361",
        "latitude": -2.685277391909506,
        "longitude": 112.8031604728126
    },
    {
        "code": 6202072004,
        "district_code": 620207,
        "regency_code": 6202,
        "province_code": 62,
        "name": "Natai Baru",
        "postal_code": "74361",
        "latitude": -2.6181256973402243,
        "longitude": 112.68259594272075
    },
    {
        "code": 6202072005,
        "district_code": 620207,
        "regency_code": 6202,
        "province_code": 62,
        "name": "Bagendang Hulu",
        "postal_code": "74361",
        "latitude": -2.6488848577942385,
        "longitude": 112.86945675309288
    },
    {
        "code": 6202072006,
        "district_code": 620207,
        "regency_code": 6202,
        "province_code": 62,
        "name": "Sumber Makmur",
        "postal_code": "74361",
        "latitude": -2.7231059460409024,
        "longitude": 112.89586235816282
    },
    {
        "code": 6202072007,
        "district_code": 620207,
        "regency_code": 6202,
        "province_code": 62,
        "name": "Bagendang Permai",
        "postal_code": "74361",
        "latitude": -2.768914408428616,
        "longitude": 112.8764651444321
    },
    {
        "code": 6202081008,
        "district_code": 620208,
        "regency_code": 6202,
        "province_code": 62,
        "name": "Samuda Kota",
        "postal_code": "74363",
        "latitude": -2.874132606808714,
        "longitude": 112.91155370568323
    },
    {
        "code": 6202081009,
        "district_code": 620208,
        "regency_code": 6202,
        "province_code": 62,
        "name": "Basirih Hilir",
        "postal_code": "74363",
        "latitude": -2.8570498060918763,
        "longitude": 112.91722363952994
    },
    {
        "code": 6202082005,
        "district_code": 620208,
        "regency_code": 6202,
        "province_code": 62,
        "name": "Sebamban",
        "postal_code": "74363",
        "latitude": -2.9209355193534567,
        "longitude": 112.92473955041777
    },
    {
        "code": 6202082006,
        "district_code": 620208,
        "regency_code": 6202,
        "province_code": 62,
        "name": "Samuda Besar",
        "postal_code": "74363",
        "latitude": -2.9130203817142966,
        "longitude": 112.92462953502185
    },
    {
        "code": 6202082007,
        "district_code": 620208,
        "regency_code": 6202,
        "province_code": 62,
        "name": "Samuda Kecil",
        "postal_code": "74363",
        "latitude": -2.901465878833421,
        "longitude": 112.92144234316582
    },
    {
        "code": 6202082010,
        "district_code": 620208,
        "regency_code": 6202,
        "province_code": 62,
        "name": "Jaya Kelapa",
        "postal_code": "74363",
        "latitude": -2.8507099466163077,
        "longitude": 112.90869723715025
    },
    {
        "code": 6202082011,
        "district_code": 620208,
        "regency_code": 6202,
        "province_code": 62,
        "name": "Basirih Hulu",
        "postal_code": "74363",
        "latitude": -2.8389401834604353,
        "longitude": 112.91310088648167
    },
    {
        "code": 6202082012,
        "district_code": 620208,
        "regency_code": 6202,
        "province_code": 62,
        "name": "Jaya Karet",
        "postal_code": "74363",
        "latitude": -2.8286203703142534,
        "longitude": 112.90136960395093
    },
    {
        "code": 6202082013,
        "district_code": 620208,
        "regency_code": 6202,
        "province_code": 62,
        "name": "Handil Sohor",
        "postal_code": "74363",
        "latitude": -2.8893264833049024,
        "longitude": 112.92444889205399
    },
    {
        "code": 6202082014,
        "district_code": 620208,
        "regency_code": 6202,
        "province_code": 62,
        "name": "Sei Ijum Raya",
        "postal_code": "74363",
        "latitude": -2.925484776845999,
        "longitude": 112.94217943751154
    },
    {
        "code": 6202092001,
        "district_code": 620209,
        "regency_code": 6202,
        "province_code": 62,
        "name": "Bapinang Hulu",
        "postal_code": "74362",
        "latitude": -2.7805986660101265,
        "longitude": 113.02527386729213
    },
    {
        "code": 6202092002,
        "district_code": 620209,
        "regency_code": 6202,
        "province_code": 62,
        "name": "Bapinang Hilir",
        "postal_code": "74362",
        "latitude": -2.84596846919377,
        "longitude": 113.04581271437031
    },
    {
        "code": 6202092003,
        "district_code": 620209,
        "regency_code": 6202,
        "province_code": 62,
        "name": "Bapinang Hilir Laut",
        "postal_code": "74362",
        "latitude": -2.9192048434406717,
        "longitude": 113.09116871325463
    },
    {
        "code": 6202092004,
        "district_code": 620209,
        "regency_code": 6202,
        "province_code": 62,
        "name": "Satiruk",
        "postal_code": "74362",
        "latitude": -3.038938857567026,
        "longitude": 113.1605506105652
    },
    {
        "code": 6202092005,
        "district_code": 620209,
        "regency_code": 6202,
        "province_code": 62,
        "name": "Makarti Jaya",
        "postal_code": "74362",
        "latitude": -2.7510678897022425,
        "longitude": 112.9561836397519
    },
    {
        "code": 6202092006,
        "district_code": 620209,
        "regency_code": 6202,
        "province_code": 62,
        "name": "Rawa Sari",
        "postal_code": "74362",
        "latitude": -2.723490174435001,
        "longitude": 112.96043769961817
    },
    {
        "code": 6202092007,
        "district_code": 620209,
        "regency_code": 6202,
        "province_code": 62,
        "name": "Hanaut",
        "postal_code": "74362",
        "latitude": -2.7461813837629667,
        "longitude": 113.00297037427949
    },
    {
        "code": 6202092008,
        "district_code": 620209,
        "regency_code": 6202,
        "province_code": 62,
        "name": "Babirah",
        "postal_code": "74362",
        "latitude": -2.876057590807289,
        "longitude": 113.05936539711148
    },
    {
        "code": 6202092009,
        "district_code": 620209,
        "regency_code": 6202,
        "province_code": 62,
        "name": "Serambut",
        "postal_code": "74362",
        "latitude": -2.977198485082569,
        "longitude": 113.10004546140688
    },
    {
        "code": 6202092010,
        "district_code": 620209,
        "regency_code": 6202,
        "province_code": 62,
        "name": "Babaung",
        "postal_code": "74362",
        "latitude": -2.815855882273693,
        "longitude": 113.04310237031339
    },
    {
        "code": 6202092011,
        "district_code": 620209,
        "regency_code": 6202,
        "province_code": 62,
        "name": "Bamadu",
        "postal_code": "74362",
        "latitude": -2.7962286088208694,
        "longitude": 113.02985086635664
    },
    {
        "code": 6202092012,
        "district_code": 620209,
        "regency_code": 6202,
        "province_code": 62,
        "name": "Penyaguan",
        "postal_code": "74362",
        "latitude": -2.808034350548073,
        "longitude": 113.01890058964989
    },
    {
        "code": 6202092013,
        "district_code": 620209,
        "regency_code": 6202,
        "province_code": 62,
        "name": "Hantipan",
        "postal_code": "74362",
        "latitude": -2.8970022802547617,
        "longitude": 113.07479552761247
    },
    {
        "code": 6202092014,
        "district_code": 620209,
        "regency_code": 6202,
        "province_code": 62,
        "name": "Bantian",
        "postal_code": "74362",
        "latitude": -2.9492214982560996,
        "longitude": 113.0945306133567
    },
    {
        "code": 6202102001,
        "district_code": 620210,
        "regency_code": 6202,
        "province_code": 62,
        "name": "Tumbang Kalang",
        "postal_code": "74352",
        "latitude": -1.4855872185061019,
        "longitude": 112.69276873404499
    },
    {
        "code": 6202102002,
        "district_code": 620210,
        "regency_code": 6202,
        "province_code": 62,
        "name": "Kuluk Telawang",
        "postal_code": "74352",
        "latitude": -1.4318300298150737,
        "longitude": 112.72013863267657
    },
    {
        "code": 6202102003,
        "district_code": 620210,
        "regency_code": 6202,
        "province_code": 62,
        "name": "Sungai Puring",
        "postal_code": "74352",
        "latitude": -1.386968090466645,
        "longitude": 112.65082589331178
    },
    {
        "code": 6202102004,
        "district_code": 620210,
        "regency_code": 6202,
        "province_code": 62,
        "name": "Tumbang Ngahan",
        "postal_code": "74352",
        "latitude": -1.3363647662539977,
        "longitude": 112.65484145793253
    },
    {
        "code": 6202102005,
        "district_code": 620210,
        "regency_code": 6202,
        "province_code": 62,
        "name": "Tumbang Ramei",
        "postal_code": "74352",
        "latitude": -1.2584855448378878,
        "longitude": 112.62262083736151
    },
    {
        "code": 6202102006,
        "district_code": 620210,
        "regency_code": 6202,
        "province_code": 62,
        "name": "Tumbang Hejan",
        "postal_code": "74352",
        "latitude": -1.3063917980542197,
        "longitude": 112.5314683324644
    },
    {
        "code": 6202102007,
        "district_code": 620210,
        "regency_code": 6202,
        "province_code": 62,
        "name": "Sungai Hanya",
        "postal_code": "74352",
        "latitude": -1.5477215918007625,
        "longitude": 112.66110944012173
    },
    {
        "code": 6202102008,
        "district_code": 620210,
        "regency_code": 6202,
        "province_code": 62,
        "name": "Tumbang Sepayang",
        "postal_code": "74352",
        "latitude": -1.6310236278041392,
        "longitude": 112.5915697913705
    },
    {
        "code": 6202102016,
        "district_code": 620210,
        "regency_code": 6202,
        "province_code": 62,
        "name": "Buntut Nusa",
        "postal_code": "74352",
        "latitude": -1.2932697183714703,
        "longitude": 112.46656195747188
    },
    {
        "code": 6202102017,
        "district_code": 620210,
        "regency_code": 6202,
        "province_code": 62,
        "name": "Tumbang Gagu",
        "postal_code": "74352",
        "latitude": -1.256767791193046,
        "longitude": 112.40650760192088
    },
    {
        "code": 6202102021,
        "district_code": 620210,
        "regency_code": 6202,
        "province_code": 62,
        "name": "Tumbang Manya",
        "postal_code": "74352",
        "latitude": -1.4816414124402388,
        "longitude": 112.56884537411463
    },
    {
        "code": 6202102025,
        "district_code": 620210,
        "regency_code": 6202,
        "province_code": 62,
        "name": "Gunung Makmur",
        "postal_code": "74352",
        "latitude": -1.6121932103305048,
        "longitude": 112.66458427368232
    },
    {
        "code": 6202102027,
        "district_code": 620210,
        "regency_code": 6202,
        "province_code": 62,
        "name": "Mulya Agung",
        "postal_code": "74352",
        "latitude": -1.6583917148852334,
        "longitude": 112.68716236487654
    },
    {
        "code": 6202102028,
        "district_code": 620210,
        "regency_code": 6202,
        "province_code": 62,
        "name": "Bhakti Karya",
        "postal_code": "74352",
        "latitude": -1.6001642814752022,
        "longitude": 112.71059439561337
    },
    {
        "code": 6202102029,
        "district_code": 620210,
        "regency_code": 6202,
        "province_code": 62,
        "name": "Waringin Agung",
        "postal_code": "74352",
        "latitude": -1.5413634382948138,
        "longitude": 112.7248855138324
    },
    {
        "code": 6202112001,
        "district_code": 620211,
        "regency_code": 6202,
        "province_code": 62,
        "name": "Parebok",
        "postal_code": "74364",
        "latitude": -2.944966734170336,
        "longitude": 112.92788306094072
    },
    {
        "code": 6202112002,
        "district_code": 620211,
        "regency_code": 6202,
        "province_code": 62,
        "name": "Basawang",
        "postal_code": "74364",
        "latitude": -2.951874185911912,
        "longitude": 112.99590978931239
    },
    {
        "code": 6202112003,
        "district_code": 620211,
        "regency_code": 6202,
        "province_code": 62,
        "name": "Lampuyang",
        "postal_code": "74364",
        "latitude": -3.0848098668321717,
        "longitude": 112.88608602832568
    },
    {
        "code": 6202112004,
        "district_code": 620211,
        "regency_code": 6202,
        "province_code": 62,
        "name": "Ujung Pandaran",
        "postal_code": "74364",
        "latitude": -3.2186656011779236,
        "longitude": 112.8928451296061
    },
    {
        "code": 6202112005,
        "district_code": 620211,
        "regency_code": 6202,
        "province_code": 62,
        "name": "Regei Lestari",
        "postal_code": "74364",
        "latitude": -2.9804984158307812,
        "longitude": 113.00916849522422
    },
    {
        "code": 6202112006,
        "district_code": 620211,
        "regency_code": 6202,
        "province_code": 62,
        "name": "Kuin Permai",
        "postal_code": "74364",
        "latitude": -2.9969026633204385,
        "longitude": 112.9664907327013
    },
    {
        "code": 6202121001,
        "district_code": 620212,
        "regency_code": 6202,
        "province_code": 62,
        "name": "Mentaya Seberang",
        "postal_code": "74324",
        "latitude": -2.5605582672696077,
        "longitude": 113.070004060077
    },
    {
        "code": 6202122002,
        "district_code": 620212,
        "regency_code": 6202,
        "province_code": 62,
        "name": "Terantang",
        "postal_code": "74314",
        "latitude": -2.3729199982254348,
        "longitude": 113.09051141944987
    },
    {
        "code": 6202122003,
        "district_code": 620212,
        "regency_code": 6202,
        "province_code": 62,
        "name": "Batuah",
        "postal_code": "74315",
        "latitude": -2.4765140901709266,
        "longitude": 113.1259362111269
    },
    {
        "code": 6202122004,
        "district_code": 620212,
        "regency_code": 6202,
        "province_code": 62,
        "name": "Terantang Hilir",
        "postal_code": "74315",
        "latitude": -2.413400993785281,
        "longitude": 113.14048652550841
    },
    {
        "code": 6202122005,
        "district_code": 620212,
        "regency_code": 6202,
        "province_code": 62,
        "name": "Ganepo",
        "postal_code": "74314",
        "latitude": -2.66664898977638,
        "longitude": 113.02660162776091
    },
    {
        "code": 6202122006,
        "district_code": 620212,
        "regency_code": 6202,
        "province_code": 62,
        "name": "Seragam Jaya",
        "postal_code": "74315",
        "latitude": -2.5391611454148517,
        "longitude": 113.03111395191915
    },
    {
        "code": 6202132001,
        "district_code": 620213,
        "regency_code": 6202,
        "province_code": 62,
        "name": "Pundu",
        "postal_code": "74359",
        "latitude": -1.9215924719136175,
        "longitude": 113.08723232670164
    },
    {
        "code": 6202132002,
        "district_code": 620213,
        "regency_code": 6202,
        "province_code": 62,
        "name": "Keruing",
        "postal_code": "74359",
        "latitude": -2.0837515553749797,
        "longitude": 113.0922622139489
    },
    {
        "code": 6202132003,
        "district_code": 620213,
        "regency_code": 6202,
        "province_code": 62,
        "name": "Parit",
        "postal_code": "74359",
        "latitude": -2.1507826633516154,
        "longitude": 113.09145489905806
    },
    {
        "code": 6202132004,
        "district_code": 620213,
        "regency_code": 6202,
        "province_code": 62,
        "name": "Pantai Harapan",
        "postal_code": "74359",
        "latitude": -2.015549338414862,
        "longitude": 113.14769948671933
    },
    {
        "code": 6202132005,
        "district_code": 620213,
        "regency_code": 6202,
        "province_code": 62,
        "name": "Pelantaran",
        "postal_code": "74359",
        "latitude": -2.0334933710146177,
        "longitude": 112.94613962367765
    },
    {
        "code": 6202132006,
        "district_code": 620213,
        "regency_code": 6202,
        "province_code": 62,
        "name": "Tumbang Koling",
        "postal_code": "74359",
        "latitude": -1.742602946140616,
        "longitude": 112.92270070709611
    },
    {
        "code": 6202132007,
        "district_code": 620213,
        "regency_code": 6202,
        "province_code": 62,
        "name": "Sudan",
        "postal_code": "74359",
        "latitude": -2.1386802221517582,
        "longitude": 113.11553096797704
    },
    {
        "code": 6202132008,
        "district_code": 620213,
        "regency_code": 6202,
        "province_code": 62,
        "name": "Bukit Batu",
        "postal_code": "74359",
        "latitude": -1.9678051047349177,
        "longitude": 112.97764886477407
    },
    {
        "code": 6202132009,
        "district_code": 620213,
        "regency_code": 6202,
        "province_code": 62,
        "name": "Bukit Raya",
        "postal_code": "74359",
        "latitude": -2.112591557742878,
        "longitude": 112.9282697420894
    },
    {
        "code": 6202132010,
        "district_code": 620213,
        "regency_code": 6202,
        "province_code": 62,
        "name": "Selucing",
        "postal_code": "74359",
        "latitude": -1.8424301284239843,
        "longitude": 112.98647181897726
    },
    {
        "code": 6202132011,
        "district_code": 620213,
        "regency_code": 6202,
        "province_code": 62,
        "name": "Sungai Ubar Mandiiri",
        "postal_code": "74359",
        "latitude": -2.11482001201268,
        "longitude": 113.1432268968585
    },
    {
        "code": 6202142001,
        "district_code": 620214,
        "regency_code": 6202,
        "province_code": 62,
        "name": "Sebabi",
        "postal_code": "74350",
        "latitude": -2.3363807618808954,
        "longitude": 112.52842655694441
    },
    {
        "code": 6202142002,
        "district_code": 620214,
        "regency_code": 6202,
        "province_code": 62,
        "name": "Tanah Putih",
        "postal_code": "74350",
        "latitude": -2.4244339234729173,
        "longitude": 112.62759299830229
    },
    {
        "code": 6202142003,
        "district_code": 620214,
        "regency_code": 6202,
        "province_code": 62,
        "name": "Sumber Makmur",
        "postal_code": "74350",
        "latitude": -2.353936383754117,
        "longitude": 112.47359862843584
    },
    {
        "code": 6202142004,
        "district_code": 620214,
        "regency_code": 6202,
        "province_code": 62,
        "name": "Kenyala",
        "postal_code": "74350",
        "latitude": -2.2706996748621036,
        "longitude": 112.66463889692494
    },
    {
        "code": 6202142005,
        "district_code": 620214,
        "regency_code": 6202,
        "province_code": 62,
        "name": "Penyang",
        "postal_code": "74350",
        "latitude": -2.4946726649539315,
        "longitude": 112.65504307933686
    },
    {
        "code": 6202142006,
        "district_code": 620214,
        "regency_code": 6202,
        "province_code": 62,
        "name": "Biru Maju",
        "postal_code": "74350",
        "latitude": -2.281732809124727,
        "longitude": 112.44408561013284
    },
    {
        "code": 6202152001,
        "district_code": 620215,
        "regency_code": 6202,
        "province_code": 62,
        "name": "Tumbang Tilap",
        "postal_code": "74356",
        "latitude": -1.9479361633022856,
        "longitude": 112.41057930180655
    },
    {
        "code": 6202152002,
        "district_code": 620215,
        "regency_code": 6202,
        "province_code": 62,
        "name": "Tumbang Kaminting",
        "postal_code": "74356",
        "latitude": -1.8873761155583773,
        "longitude": 112.44668595175023
    },
    {
        "code": 6202152003,
        "district_code": 620215,
        "regency_code": 6202,
        "province_code": 62,
        "name": "Tanah Haluan",
        "postal_code": "74356",
        "latitude": -1.8517005105176934,
        "longitude": 112.430673431648
    },
    {
        "code": 6202152004,
        "district_code": 620215,
        "regency_code": 6202,
        "province_code": 62,
        "name": "Tumbang Panyahuan",
        "postal_code": "74356",
        "latitude": -1.8382619202646024,
        "longitude": 112.38016144956296
    },
    {
        "code": 6202152005,
        "district_code": 620215,
        "regency_code": 6202,
        "province_code": 62,
        "name": "Tumbang Sapia",
        "postal_code": "74356",
        "latitude": -1.7588310482912344,
        "longitude": 112.39376460886896
    },
    {
        "code": 6202152006,
        "district_code": 620215,
        "regency_code": 6202,
        "province_code": 62,
        "name": "Tumbang Getas",
        "postal_code": "74356",
        "latitude": -1.783758201451563,
        "longitude": 112.36176881153574
    },
    {
        "code": 6202152007,
        "district_code": 620215,
        "regency_code": 6202,
        "province_code": 62,
        "name": "Tewai Hara",
        "postal_code": "74356",
        "latitude": -1.820995789398708,
        "longitude": 112.31645864070771
    },
    {
        "code": 6202152008,
        "district_code": 620215,
        "regency_code": 6202,
        "province_code": 62,
        "name": "Tumbang Payang",
        "postal_code": "74356",
        "latitude": -1.7298477560709358,
        "longitude": 112.2516804318134
    },
    {
        "code": 6202152009,
        "district_code": 620215,
        "regency_code": 6202,
        "province_code": 62,
        "name": "Tumbang Kania",
        "postal_code": "74356",
        "latitude": -1.6658615055141504,
        "longitude": 112.16561097748094
    },
    {
        "code": 6202152010,
        "district_code": 620215,
        "regency_code": 6202,
        "province_code": 62,
        "name": "Tumbang Tawan",
        "postal_code": "74356",
        "latitude": -1.6131838251340922,
        "longitude": 112.2821040814473
    },
    {
        "code": 6202152011,
        "district_code": 620215,
        "regency_code": 6202,
        "province_code": 62,
        "name": "Lunuk Bagantung",
        "postal_code": "74356",
        "latitude": -1.6450978685317466,
        "longitude": 112.33163093313392
    },
    {
        "code": 6202152012,
        "district_code": 620215,
        "regency_code": 6202,
        "province_code": 62,
        "name": "Tumbang Torung",
        "postal_code": "74356",
        "latitude": -1.6821598736880987,
        "longitude": 112.36989283841052
    },
    {
        "code": 6202152013,
        "district_code": 620215,
        "regency_code": 6202,
        "province_code": 62,
        "name": "Tumbang Batu",
        "postal_code": "74356",
        "latitude": -1.6864005066272203,
        "longitude": 112.4359446054842
    },
    {
        "code": 6202152014,
        "district_code": 620215,
        "regency_code": 6202,
        "province_code": 62,
        "name": "Tumbang Saluang",
        "postal_code": "74356",
        "latitude": -1.523108515289594,
        "longitude": 112.1979092031966
    },
    {
        "code": 6202162001,
        "district_code": 620216,
        "regency_code": 6202,
        "province_code": 62,
        "name": "Luwuk Sampun",
        "postal_code": "74358",
        "latitude": -1.7177427467061073,
        "longitude": 112.7584135506593
    },
    {
        "code": 6202162002,
        "district_code": 620216,
        "regency_code": 6202,
        "province_code": 62,
        "name": "Tumbang Mujam",
        "postal_code": "74358",
        "latitude": -1.776509799896615,
        "longitude": 112.79008445227656
    },
    {
        "code": 6202162003,
        "district_code": 620216,
        "regency_code": 6202,
        "province_code": 62,
        "name": "Merah",
        "postal_code": "74358",
        "latitude": -1.7455758421374494,
        "longitude": 112.78838568972206
    },
    {
        "code": 6202162004,
        "district_code": 620216,
        "regency_code": 6202,
        "province_code": 62,
        "name": "Tanjung Jorong",
        "postal_code": "74358",
        "latitude": -1.5946336886569037,
        "longitude": 112.79374467524484
    },
    {
        "code": 6202162005,
        "district_code": 620216,
        "regency_code": 6202,
        "province_code": 62,
        "name": "Sebungsu",
        "postal_code": "74358",
        "latitude": -1.8367422917509797,
        "longitude": 112.77095339579482
    },
    {
        "code": 6202162006,
        "district_code": 620216,
        "regency_code": 6202,
        "province_code": 62,
        "name": "Bukit Makmur",
        "postal_code": "74358",
        "latitude": -1.7776729885559863,
        "longitude": 112.69019082046468
    },
    {
        "code": 6202162007,
        "district_code": 620216,
        "regency_code": 6202,
        "province_code": 62,
        "name": "Wonosari",
        "postal_code": "74358",
        "latitude": -1.7456344487678548,
        "longitude": 112.6976638222297
    },
    {
        "code": 6202162008,
        "district_code": 620216,
        "regency_code": 6202,
        "province_code": 62,
        "name": "Mekar Sari",
        "postal_code": "74358",
        "latitude": -1.659478102399729,
        "longitude": 112.87707231494706
    },
    {
        "code": 6202162009,
        "district_code": 620216,
        "regency_code": 6202,
        "province_code": 62,
        "name": "Damar Makmur",
        "postal_code": "74358",
        "latitude": -1.6980563196043719,
        "longitude": 112.8297791068913
    },
    {
        "code": 6202162010,
        "district_code": 620216,
        "regency_code": 6202,
        "province_code": 62,
        "name": "Cempaka Putih",
        "postal_code": "74358",
        "latitude": -1.869599103145389,
        "longitude": 112.87874725512529
    },
    {
        "code": 6202162011,
        "district_code": 620216,
        "regency_code": 6202,
        "province_code": 62,
        "name": "Jati Waringin",
        "postal_code": "74358",
        "latitude": -1.904602113992761,
        "longitude": 112.88992133174536
    },
    {
        "code": 6202172001,
        "district_code": 620217,
        "regency_code": 6202,
        "province_code": 62,
        "name": "Tumbang Boloi",
        "postal_code": "74352",
        "latitude": -1.689528113992714,
        "longitude": 112.60119606158202
    },
    {
        "code": 6202172002,
        "district_code": 620217,
        "regency_code": 6202,
        "province_code": 62,
        "name": "Luwuk Kowan",
        "postal_code": "74352",
        "latitude": -1.72842552423857,
        "longitude": 112.57717870856004
    },
    {
        "code": 6202172003,
        "district_code": 620217,
        "regency_code": 6202,
        "province_code": 62,
        "name": "Rantau Tampang",
        "postal_code": "74352",
        "latitude": -1.7550506625212046,
        "longitude": 112.57313398552418
    },
    {
        "code": 6202172004,
        "district_code": 620217,
        "regency_code": 6202,
        "province_code": 62,
        "name": "Tumbang Mangkup",
        "postal_code": "74352",
        "latitude": -1.767123497524879,
        "longitude": 112.55243533792661
    },
    {
        "code": 6202172005,
        "district_code": 620217,
        "regency_code": 6202,
        "province_code": 62,
        "name": "Rantau Katang",
        "postal_code": "74352",
        "latitude": -1.7764193638439474,
        "longitude": 112.53458997673904
    },
    {
        "code": 6202172006,
        "district_code": 620217,
        "regency_code": 6202,
        "province_code": 62,
        "name": "Tumbang Sangai",
        "postal_code": "74352",
        "latitude": -1.8139218978819323,
        "longitude": 112.5372549266263
    },
    {
        "code": 6202172007,
        "district_code": 620217,
        "regency_code": 6202,
        "province_code": 62,
        "name": "Tukang Langit",
        "postal_code": "74352",
        "latitude": -1.860315498000479,
        "longitude": 112.56978235279462
    },
    {
        "code": 6202172008,
        "district_code": 620217,
        "regency_code": 6202,
        "province_code": 62,
        "name": "Beringin Agung",
        "postal_code": "74352",
        "latitude": -1.8142936187325605,
        "longitude": 112.61913220894417
    },
    {
        "code": 6202172009,
        "district_code": 620217,
        "regency_code": 6202,
        "province_code": 62,
        "name": "Agung Mulya",
        "postal_code": "74352",
        "latitude": -1.7514051798769954,
        "longitude": 112.64400680428422
    },
    {
        "code": 6202172010,
        "district_code": 620217,
        "regency_code": 6202,
        "province_code": 62,
        "name": "Batu Agung",
        "postal_code": "74352",
        "latitude": -1.6839464489389877,
        "longitude": 112.49141400989905
    },
    {
        "code": 6202172011,
        "district_code": 620217,
        "regency_code": 6202,
        "province_code": 62,
        "name": "Bukit Indah",
        "postal_code": "74352",
        "latitude": -1.5588661019656405,
        "longitude": 112.43476217069097
    },
    {
        "code": 6202172012,
        "district_code": 620217,
        "regency_code": 6202,
        "province_code": 62,
        "name": "Tumbang Puan",
        "postal_code": "74352",
        "latitude": -1.4570055685823229,
        "longitude": 112.48448418118265
    },
    {
        "code": 6202172013,
        "district_code": 620217,
        "regency_code": 6202,
        "province_code": 62,
        "name": "Rantau Suang",
        "postal_code": "74352",
        "latitude": -1.3950408271204047,
        "longitude": 112.24516075513493
    },
    {
        "code": 6202172014,
        "district_code": 620217,
        "regency_code": 6202,
        "province_code": 62,
        "name": "Rantau Sawang",
        "postal_code": "74352",
        "latitude": -1.4282205102746517,
        "longitude": 112.38030227426306
    },
    {
        "code": 6202172015,
        "district_code": 620217,
        "regency_code": 6202,
        "province_code": 62,
        "name": "Tanjung Harapan",
        "postal_code": "74356",
        "latitude": -1.8138403764075672,
        "longitude": 112.65287753911755
    },
    {
        "code": 6202172016,
        "district_code": 620217,
        "regency_code": 6202,
        "province_code": 62,
        "name": "Buana Mustika",
        "postal_code": "74356",
        "latitude": -1.8657889391146376,
        "longitude": 112.66680874446503
    },
    {
        "code": 6202172017,
        "district_code": 620217,
        "regency_code": 6202,
        "province_code": 62,
        "name": "Tri Buana",
        "postal_code": "74352",
        "latitude": -1.6432621578191788,
        "longitude": 112.50623262978863
    },
    {
        "code": 6202172018,
        "district_code": 620217,
        "regency_code": 6202,
        "province_code": 62,
        "name": "Tumbang Bajanei",
        "postal_code": "74352",
        "latitude": -1.706536489651425,
        "longitude": 112.56950917906714
    },
    {
        "code": 6203011006,
        "district_code": 620301,
        "regency_code": 6203,
        "province_code": 62,
        "name": "Murung Keramat",
        "postal_code": "73512",
        "latitude": -3.0381571016276907,
        "longitude": 114.35607323048745
    },
    {
        "code": 6203011007,
        "district_code": 620301,
        "regency_code": 6203,
        "province_code": 62,
        "name": "Selat Hilir",
        "postal_code": "73513",
        "latitude": -3.017430051113464,
        "longitude": 114.38080310407719
    },
    {
        "code": 6203011008,
        "district_code": 620301,
        "regency_code": 6203,
        "province_code": 62,
        "name": "Selat Tengah",
        "postal_code": "73514",
        "latitude": -3.0134493880146582,
        "longitude": 114.39080027243537
    },
    {
        "code": 6203011009,
        "district_code": 620301,
        "regency_code": 6203,
        "province_code": 62,
        "name": "Selat Hulu",
        "postal_code": "73515",
        "latitude": -2.99864144173555,
        "longitude": 114.40733499307227
    },
    {
        "code": 6203011010,
        "district_code": 620301,
        "regency_code": 6203,
        "province_code": 62,
        "name": "Selat Dalam",
        "postal_code": "73516",
        "latitude": -2.9909993699832116,
        "longitude": 114.39523249680835
    },
    {
        "code": 6203011021,
        "district_code": 620301,
        "regency_code": 6203,
        "province_code": 62,
        "name": "Selat Utara",
        "postal_code": "73516",
        "latitude": -2.966368109877259,
        "longitude": 114.41189954612527
    },
    {
        "code": 6203011022,
        "district_code": 620301,
        "regency_code": 6203,
        "province_code": 62,
        "name": "Selat Barat",
        "postal_code": "73514",
        "latitude": -3.004478510215214,
        "longitude": 114.37226639752774
    },
    {
        "code": 6203011023,
        "district_code": 620301,
        "regency_code": 6203,
        "province_code": 62,
        "name": "Panamas",
        "postal_code": "73514",
        "latitude": -3.03770792774678,
        "longitude": 114.3283024060136
    },
    {
        "code": 6203012011,
        "district_code": 620301,
        "regency_code": 6203,
        "province_code": 62,
        "name": "Pulau Telo",
        "postal_code": "73516",
        "latitude": -2.992321464321729,
        "longitude": 114.37519336674336
    },
    {
        "code": 6203012020,
        "district_code": 620301,
        "regency_code": 6203,
        "province_code": 62,
        "name": "Pulau Telo Baru",
        "postal_code": "73516",
        "latitude": -2.9602183254016263,
        "longitude": 114.38561403429925
    },
    {
        "code": 6203021001,
        "district_code": 620302,
        "regency_code": 6203,
        "province_code": 62,
        "name": "Mambulau",
        "postal_code": "73521",
        "latitude": -3.0318397996972415,
        "longitude": 114.40545761977933
    },
    {
        "code": 6203021002,
        "district_code": 620302,
        "regency_code": 6203,
        "province_code": 62,
        "name": "Hampatung",
        "postal_code": "73522",
        "latitude": -3.0250337865436667,
        "longitude": 114.41236161141728
    },
    {
        "code": 6203021003,
        "district_code": 620302,
        "regency_code": 6203,
        "province_code": 62,
        "name": "Dahirang",
        "postal_code": "73523",
        "latitude": -3.018540445960874,
        "longitude": 114.41459528516535
    },
    {
        "code": 6203021004,
        "district_code": 620302,
        "regency_code": 6203,
        "province_code": 62,
        "name": "Barimba",
        "postal_code": "73524",
        "latitude": -3.016561349081636,
        "longitude": 114.42433496872104
    },
    {
        "code": 6203021005,
        "district_code": 620302,
        "regency_code": 6203,
        "province_code": 62,
        "name": "Sei Pasah",
        "postal_code": "73525",
        "latitude": -3.0095399373306617,
        "longitude": 114.44710271041112
    },
    {
        "code": 6203022006,
        "district_code": 620302,
        "regency_code": 6203,
        "province_code": 62,
        "name": "Bakungin",
        "postal_code": "73525",
        "latitude": -2.9720847189655886,
        "longitude": 114.4647090196496
    },
    {
        "code": 6203022007,
        "district_code": 620302,
        "regency_code": 6203,
        "province_code": 62,
        "name": "Sei Asam",
        "postal_code": "73525",
        "latitude": -2.992267255763381,
        "longitude": 114.46997341542988
    },
    {
        "code": 6203022008,
        "district_code": 620302,
        "regency_code": 6203,
        "province_code": 62,
        "name": "Saka Batur",
        "postal_code": "73525",
        "latitude": -2.9692711988882947,
        "longitude": 114.48524425581833
    },
    {
        "code": 6203032001,
        "district_code": 620303,
        "regency_code": 6203,
        "province_code": 62,
        "name": "Anjir Serapat Timur",
        "postal_code": "73581",
        "latitude": -3.115242952592659,
        "longitude": 114.48316570927442
    },
    {
        "code": 6203032002,
        "district_code": 620303,
        "regency_code": 6203,
        "province_code": 62,
        "name": "Anjir Serapat Tengah",
        "postal_code": "73581",
        "latitude": -3.100647669678634,
        "longitude": 114.4719686886402
    },
    {
        "code": 6203032003,
        "district_code": 620303,
        "regency_code": 6203,
        "province_code": 62,
        "name": "Anjir Serapat Barat",
        "postal_code": "73581",
        "latitude": -3.08576088176241,
        "longitude": 114.45942395374611
    },
    {
        "code": 6203032004,
        "district_code": 620303,
        "regency_code": 6203,
        "province_code": 62,
        "name": "Anjir Mambulau Timur",
        "postal_code": "73581",
        "latitude": -3.0559682098845684,
        "longitude": 114.45176410186865
    },
    {
        "code": 6203032005,
        "district_code": 620303,
        "regency_code": 6203,
        "province_code": 62,
        "name": "Anjir Mambulau Tengah",
        "postal_code": "73581",
        "latitude": -3.058491690638063,
        "longitude": 114.4271565551755
    },
    {
        "code": 6203032006,
        "district_code": 620303,
        "regency_code": 6203,
        "province_code": 62,
        "name": "Anjir Mambulau Barat",
        "postal_code": "73581",
        "latitude": -3.0474519764926726,
        "longitude": 114.41760955377539
    },
    {
        "code": 6203032007,
        "district_code": 620303,
        "regency_code": 6203,
        "province_code": 62,
        "name": "Anjir Serapat Baru",
        "postal_code": "73581",
        "latitude": -3.0670942401218135,
        "longitude": 114.46138698300793
    },
    {
        "code": 6203042001,
        "district_code": 620304,
        "regency_code": 6203,
        "province_code": 62,
        "name": "Batanjung",
        "postal_code": "73583",
        "latitude": -3.3578371858234766,
        "longitude": 114.2101806030858
    },
    {
        "code": 6203042002,
        "district_code": 620304,
        "regency_code": 6203,
        "province_code": 62,
        "name": "Cemara Labat",
        "postal_code": "73583",
        "latitude": -3.4149405491786555,
        "longitude": 114.30110348691468
    },
    {
        "code": 6203042003,
        "district_code": 620304,
        "regency_code": 6203,
        "province_code": 62,
        "name": "Palampai",
        "postal_code": "73583",
        "latitude": -3.4418371198086697,
        "longitude": 114.33614203569682
    },
    {
        "code": 6203042004,
        "district_code": 620304,
        "regency_code": 6203,
        "province_code": 62,
        "name": "Sei Teras",
        "postal_code": "73583",
        "latitude": -3.372890423280196,
        "longitude": 114.32457585214101
    },
    {
        "code": 6203042005,
        "district_code": 620304,
        "regency_code": 6203,
        "province_code": 62,
        "name": "Lupak Dalam",
        "postal_code": "73583",
        "latitude": -3.268423400191744,
        "longitude": 114.29184722745342
    },
    {
        "code": 6203042008,
        "district_code": 620304,
        "regency_code": 6203,
        "province_code": 62,
        "name": "Tamban Baru Selatan",
        "postal_code": "73583",
        "latitude": -3.2561695657000644,
        "longitude": 114.36466404367752
    },
    {
        "code": 6203042011,
        "district_code": 620304,
        "regency_code": 6203,
        "province_code": 62,
        "name": "Tamban Lupak",
        "postal_code": "73583",
        "latitude": -3.298310576660007,
        "longitude": 114.32533174245268
    },
    {
        "code": 6203042014,
        "district_code": 620304,
        "regency_code": 6203,
        "province_code": 62,
        "name": "Lupak Timur",
        "postal_code": "73583",
        "latitude": -3.31261732759605,
        "longitude": 114.34004991073093
    },
    {
        "code": 6203042015,
        "district_code": 620304,
        "regency_code": 6203,
        "province_code": 62,
        "name": "Wargo Mulyo",
        "postal_code": "73583",
        "latitude": -3.257563881403993,
        "longitude": 114.3397293835381
    },
    {
        "code": 6203042016,
        "district_code": 620304,
        "regency_code": 6203,
        "province_code": 62,
        "name": "Sei Bakut",
        "postal_code": "73583",
        "latitude": -3.2771373355006492,
        "longitude": 114.34715435466745
    },
    {
        "code": 6203042018,
        "district_code": 620304,
        "regency_code": 6203,
        "province_code": 62,
        "name": "Pematang",
        "postal_code": "73583",
        "latitude": -3.376643347891387,
        "longitude": 114.27087165272549
    },
    {
        "code": 6203042019,
        "district_code": 620304,
        "regency_code": 6203,
        "province_code": 62,
        "name": "Simpang Bunga Tanjung",
        "postal_code": "73583",
        "latitude": -3.323485327940784,
        "longitude": 114.21353653069467
    },
    {
        "code": 6203042020,
        "district_code": 620304,
        "regency_code": 6203,
        "province_code": 62,
        "name": "Baranggau",
        "postal_code": "73583",
        "latitude": -3.329163666434563,
        "longitude": 114.31569630092163
    },
    {
        "code": 6203051004,
        "district_code": 620305,
        "regency_code": 6203,
        "province_code": 62,
        "name": "Mandomai",
        "postal_code": "73552",
        "latitude": -2.815285985194433,
        "longitude": 114.38215690940525
    },
    {
        "code": 6203052001,
        "district_code": 620305,
        "regency_code": 6203,
        "province_code": 62,
        "name": "Sei Kayu",
        "postal_code": "73552",
        "latitude": -2.901291453505602,
        "longitude": 114.38491104848609
    },
    {
        "code": 6203052002,
        "district_code": 620305,
        "regency_code": 6203,
        "province_code": 62,
        "name": "Saka Mangkahai",
        "postal_code": "73552",
        "latitude": -2.855573246753972,
        "longitude": 114.32300415048725
    },
    {
        "code": 6203052003,
        "district_code": 620305,
        "regency_code": 6203,
        "province_code": 62,
        "name": "Anjir Kalampan",
        "postal_code": "73552",
        "latitude": -2.7966344585452902,
        "longitude": 114.32454675532455
    },
    {
        "code": 6203052005,
        "district_code": 620305,
        "regency_code": 6203,
        "province_code": 62,
        "name": "Pantai",
        "postal_code": "73552",
        "latitude": -2.791122212759566,
        "longitude": 114.4048562045593
    },
    {
        "code": 6203052006,
        "district_code": 620305,
        "regency_code": 6203,
        "province_code": 62,
        "name": "Saka Tamiang",
        "postal_code": "73552",
        "latitude": -2.7802796008930795,
        "longitude": 114.42889959281051
    },
    {
        "code": 6203052007,
        "district_code": 620305,
        "regency_code": 6203,
        "province_code": 62,
        "name": "Penda Katapi",
        "postal_code": "73552",
        "latitude": -2.7549937898008947,
        "longitude": 114.44765019550589
    },
    {
        "code": 6203052008,
        "district_code": 620305,
        "regency_code": 6203,
        "province_code": 62,
        "name": "Teluk Hiri",
        "postal_code": "73552",
        "latitude": -2.7261882123780206,
        "longitude": 114.42081377981536
    },
    {
        "code": 6203052009,
        "district_code": 620305,
        "regency_code": 6203,
        "province_code": 62,
        "name": "Sei Dusun",
        "postal_code": "73552",
        "latitude": -2.706363178575005,
        "longitude": 114.42250859411058
    },
    {
        "code": 6203052010,
        "district_code": 620305,
        "regency_code": 6203,
        "province_code": 62,
        "name": "Sei Pitung",
        "postal_code": "73552",
        "latitude": -2.8542882578114885,
        "longitude": 114.38093229755661
    },
    {
        "code": 6203052011,
        "district_code": 620305,
        "regency_code": 6203,
        "province_code": 62,
        "name": "Maju Bersama",
        "postal_code": "73552",
        "latitude": -2.9000485116873445,
        "longitude": 114.34019726801887
    },
    {
        "code": 6203052012,
        "district_code": 620305,
        "regency_code": 6203,
        "province_code": 62,
        "name": "Basuta Raya",
        "postal_code": "73552",
        "latitude": -2.716191892942972,
        "longitude": 114.4921477188101
    },
    {
        "code": 6203062001,
        "district_code": 620306,
        "regency_code": 6203,
        "province_code": 62,
        "name": "Saka Lagon",
        "postal_code": "73592",
        "latitude": -2.9534246942385236,
        "longitude": 114.49220278286408
    },
    {
        "code": 6203062002,
        "district_code": 620306,
        "regency_code": 6203,
        "province_code": 62,
        "name": "Bunga Mawar",
        "postal_code": "73592",
        "latitude": -2.9091884016257863,
        "longitude": 114.44644534038596
    },
    {
        "code": 6203062003,
        "district_code": 620306,
        "regency_code": 6203,
        "province_code": 62,
        "name": "Sei Tatas",
        "postal_code": "73592",
        "latitude": -2.8722036599621967,
        "longitude": 114.47886626895851
    },
    {
        "code": 6203062004,
        "district_code": 620306,
        "regency_code": 6203,
        "province_code": 62,
        "name": "Narahan",
        "postal_code": "73592",
        "latitude": -2.935170453440738,
        "longitude": 114.49977364457732
    },
    {
        "code": 6203062005,
        "district_code": 620306,
        "regency_code": 6203,
        "province_code": 62,
        "name": "Handiwung",
        "postal_code": "73592",
        "latitude": -2.8931980910707864,
        "longitude": 114.52900593163109
    },
    {
        "code": 6203062006,
        "district_code": 620306,
        "regency_code": 6203,
        "province_code": 62,
        "name": "Anjir Palambang",
        "postal_code": "73592",
        "latitude": -2.8506294914482453,
        "longitude": 114.48111195841511
    },
    {
        "code": 6203062007,
        "district_code": 620306,
        "regency_code": 6203,
        "province_code": 62,
        "name": "Palangkai",
        "postal_code": "73592",
        "latitude": -2.9238987790301114,
        "longitude": 114.51756805165257
    },
    {
        "code": 6203062008,
        "district_code": 620306,
        "regency_code": 6203,
        "province_code": 62,
        "name": "Teluk Palinget",
        "postal_code": "73592",
        "latitude": -2.932851956696525,
        "longitude": 114.42535790725589
    },
    {
        "code": 6203062009,
        "district_code": 620306,
        "regency_code": 6203,
        "province_code": 62,
        "name": "Sei Tatas Hilir",
        "postal_code": "73592",
        "latitude": -2.904846400165158,
        "longitude": 114.4942230971191
    },
    {
        "code": 6203062010,
        "district_code": 620306,
        "regency_code": 6203,
        "province_code": 62,
        "name": "Mawar Mekar",
        "postal_code": "73592",
        "latitude": -2.8868552655325734,
        "longitude": 114.45380426484698
    },
    {
        "code": 6203062011,
        "district_code": 620306,
        "regency_code": 6203,
        "province_code": 62,
        "name": "Banama",
        "postal_code": "73592",
        "latitude": -2.8937548909574247,
        "longitude": 114.57503360326172
    },
    {
        "code": 6203062012,
        "district_code": 620306,
        "regency_code": 6203,
        "province_code": 62,
        "name": "Narahan Baru",
        "postal_code": "73592",
        "latitude": -2.935353380632514,
        "longitude": 114.51442054917061
    },
    {
        "code": 6203071001,
        "district_code": 620307,
        "regency_code": 6203,
        "province_code": 62,
        "name": "Palingkau Baru",
        "postal_code": "73594",
        "latitude": -2.8405147153240016,
        "longitude": 114.50787892420637
    },
    {
        "code": 6203071002,
        "district_code": 620307,
        "regency_code": 6203,
        "province_code": 62,
        "name": "Palingkau Lama",
        "postal_code": "73594",
        "latitude": -2.8559338518558377,
        "longitude": 114.55180185725403
    },
    {
        "code": 6203072003,
        "district_code": 620307,
        "regency_code": 6203,
        "province_code": 62,
        "name": "Tajepan",
        "postal_code": "73594",
        "latitude": -2.808029191352566,
        "longitude": 114.53990083842771
    },
    {
        "code": 6203072004,
        "district_code": 620307,
        "regency_code": 6203,
        "province_code": 62,
        "name": "Mampai",
        "postal_code": "73594",
        "latitude": -2.7868926253742354,
        "longitude": 114.55902590089808
    },
    {
        "code": 6203072005,
        "district_code": 620307,
        "regency_code": 6203,
        "province_code": 62,
        "name": "Muara Dadahup",
        "postal_code": "73594",
        "latitude": -2.793799228016455,
        "longitude": 114.6011765718031
    },
    {
        "code": 6203072006,
        "district_code": 620307,
        "regency_code": 6203,
        "province_code": 62,
        "name": "Belawang",
        "postal_code": "73594",
        "latitude": -2.7603674449718723,
        "longitude": 114.67393936949047
    },
    {
        "code": 6203072008,
        "district_code": 620307,
        "regency_code": 6203,
        "province_code": 62,
        "name": "Palangkau Lama",
        "postal_code": "73594",
        "latitude": -2.699774740211341,
        "longitude": 114.75472706536385
    },
    {
        "code": 6203072010,
        "district_code": 620307,
        "regency_code": 6203,
        "province_code": 62,
        "name": "Palangkau Baru",
        "postal_code": "73594",
        "latitude": -2.628176627664318,
        "longitude": 114.7862113058914
    },
    {
        "code": 6203072014,
        "district_code": 620307,
        "regency_code": 6203,
        "province_code": 62,
        "name": "Talekung Punei",
        "postal_code": "73594",
        "latitude": -2.7462082310941978,
        "longitude": 114.603659642917
    },
    {
        "code": 6203072015,
        "district_code": 620307,
        "regency_code": 6203,
        "province_code": 62,
        "name": "Karya Bersama",
        "postal_code": "73594",
        "latitude": -2.840347217783524,
        "longitude": 114.58681887146061
    },
    {
        "code": 6203072016,
        "district_code": 620307,
        "regency_code": 6203,
        "province_code": 62,
        "name": "Palingkau Jaya",
        "postal_code": "73594",
        "latitude": -2.814250399372372,
        "longitude": 114.48236398099571
    },
    {
        "code": 6203072017,
        "district_code": 620307,
        "regency_code": 6203,
        "province_code": 62,
        "name": "Palingkau Asri",
        "postal_code": "73594",
        "latitude": -2.7885067332425146,
        "longitude": 114.51783071550032
    },
    {
        "code": 6203072018,
        "district_code": 620307,
        "regency_code": 6203,
        "province_code": 62,
        "name": "Palingkau Sejahtera",
        "postal_code": "73594",
        "latitude": -2.772093945233972,
        "longitude": 114.50507406052854
    },
    {
        "code": 6203072019,
        "district_code": 620307,
        "regency_code": 6203,
        "province_code": 62,
        "name": "Saka Binjai",
        "postal_code": "73594",
        "latitude": -2.687055371211241,
        "longitude": 114.69571699735349
    },
    {
        "code": 6203072020,
        "district_code": 620307,
        "regency_code": 6203,
        "province_code": 62,
        "name": "Bina Sejahtera",
        "postal_code": "73594",
        "latitude": -2.699159603779526,
        "longitude": 114.72027886968591
    },
    {
        "code": 6203072021,
        "district_code": 620307,
        "regency_code": 6203,
        "province_code": 62,
        "name": "Suka Reja",
        "postal_code": "73594",
        "latitude": -2.721268472510306,
        "longitude": 114.67510746968426
    },
    {
        "code": 6203072022,
        "district_code": 620307,
        "regency_code": 6203,
        "province_code": 62,
        "name": "Suka Mukti",
        "postal_code": "73594",
        "latitude": -2.7699418891864025,
        "longitude": 114.6471632758312
    },
    {
        "code": 6203072023,
        "district_code": 620307,
        "regency_code": 6203,
        "province_code": 62,
        "name": "Bina Karya",
        "postal_code": "73594",
        "latitude": -2.66289156935757,
        "longitude": 114.74552881208095
    },
    {
        "code": 6203072024,
        "district_code": 620307,
        "regency_code": 6203,
        "province_code": 62,
        "name": "Bina Mekar",
        "postal_code": "73594",
        "latitude": -2.6267836243967855,
        "longitude": 114.76651442084491
    },
    {
        "code": 6203072025,
        "district_code": 620307,
        "regency_code": 6203,
        "province_code": 62,
        "name": "Rawa Subur",
        "postal_code": "73594",
        "latitude": -2.6486169943665785,
        "longitude": 114.71947850454913
    },