[
    {
        "code": 3501,
        "province_code": 35,
        "name": "Kab. Pacitan",
        "latitude": -8.124952119730581,
        "longitude": 111.1780856391636
    },
    {
        "code": 3502,
        "province_code": 35,
        "name": "Kab. Ponorogo",
        "latitude": -7.931327949447231,
        "longitude": 111.4995304316846
    },
    {
        "code": 3503,
        "province_code": 35,
        "name": "Kab. Trenggalek",
        "latitude": -8.160655712373636,
        "longitude": 111.62732146474757
    },
    {
        "code": 3504,
        "province_code": 35,
        "name": "Kab. Tulungagung",
        "latitude": -8.113471029366075,
        "longitude": 111.88772275127678
    },
    {
        "code": 3505,
        "province_code": 35,
        "name": "Kab. Blitar",
        "latitude": -8.131008442675247,
        "longitude": 112.23722109650977
    },
    {
        "code": 3506,
        "province_code": 35,
        "name": "Kab. Kediri",
        "latitude": -7.828693403789815,
        "longitude": 112.08922074799715
    },
    {
        "code": 3507,
        "province_code": 35,
        "name": "Kab. Malang",
        "latitude": -8.125916993732273,
        "longitude": 112.64091218224341
    },
    {
        "code": 3508,
        "province_code": 35,
        "name": "Kab. Lumajang",
        "latitude": -8.125443593037627,
        "longitude": 113.1384962451385
    },
    {
        "code": 3509,
        "province_code": 35,
        "name": "Kab. Jember",
        "latitude": -8.23513638687671,
        "longitude": 113.6559519968585
    },
    {
        "code": 3510,
        "province_code": 35,
        "name": "Kab. Banyuwangi",
        "latitude": -8.364660048320326,
        "longitude": 114.20589727388659
    },
    {
        "code": 3511,
        "province_code": 35,
        "name": "Kab. Bondowoso",
        "latitude": -7.943685821878538,
        "longitude": 113.9476982116547
    },
    {
        "code": 3512,
        "province_code": 35,
        "name": "Kab. Situbondo",
        "latitude": -7.801438530042718,
        "longitude": 114.05136405329577
    },
    {
        "code": 3513,
        "province_code": 35,
        "name": "Kab. Probolinggo",
        "latitude": -7.866411109808781,
        "longitude": 113.32023406480856
    },
    {
        "code": 3514,
        "province_code": 35,
        "name": "Kab. Pasuruan",
        "latitude": -7.742430912511771,
        "longitude": 112.8318441016922
    },
    {
        "code": 3515,
        "province_code": 35,
        "name": "Kab. Sidoarjo",
        "latitude": -7.451472833864771,
        "longitude": 112.70030279079559
    },
    {
        "code": 3516,
        "province_code": 35,
        "name": "Kab. Mojokerto",
        "latitude": -7.5506917534365625,
        "longitude": 112.48443825629958
    },
    {
        "code": 3517,
        "province_code": 35,
        "name": "Kab. Jombang",
        "latitude": -7.544634889859412,
        "longitude": 112.26408497780137
    },
    {
        "code": 3518,
        "province_code": 35,
        "name": "Kab. Nganjuk",
        "latitude": -7.597495579235766,
        "longitude": 111.9385462072378
    },
    {
        "code": 3519,
        "province_code": 35,
        "name": "Kab. Madiun",
        "latitude": -7.623615892933428,
        "longitude": 111.64585875830551
    },
    {
        "code": 3520,
        "province_code": 35,
        "name": "Kab. Magetan",
        "latitude": -7.663380036623219,
        "longitude": 111.35743424446322
    },
    {
        "code": 3521,
        "province_code": 35,
        "name": "Kab. Ngawi",
        "latitude": -7.438824403789792,
        "longitude": 111.34341383304817
    },
    {
        "code": 3522,
        "province_code": 35,
        "name": "Kab. Bojonegoro",
        "latitude": -7.255575904171538,
        "longitude": 111.80986997600675
    },
    {
        "code": 3523,
        "province_code": 35,
        "name": "Kab. Tuban",
        "latitude": -6.9534129686812065,
        "longitude": 111.89224221212113
    },
    {
        "code": 3524,
        "province_code": 35,
        "name": "Kab. Lamongan",
        "latitude": -7.131410514989188,
        "longitude": 112.30074592146252
    },
    {
        "code": 3525,
        "province_code": 35,
        "name": "Kab. Gresik",
        "latitude": -6.926256532331929,
        "longitude": 112.55864603414607
    },
    {
        "code": 3526,
        "province_code": 35,
        "name": "Kab. Bangkalan",
        "latitude": -7.044336159120006,
        "longitude": 112.92953638360994
    },
    {
        "code": 3527,
        "province_code": 35,
        "name": "Kab. Sampang",
        "latitude": -7.052024464132133,
        "longitude": 113.25634302531333
    },
    {
        "code": 3528,
        "province_code": 35,
        "name": "Kab. Pamekasan",
        "latitude": -7.065223893199625,
        "longitude": 113.5040466553042
    },
    {
        "code": 3529,
        "province_code": 35,
        "name": "Kab. Sumenep",
        "latitude": -6.966307060923299,
        "longitude": 114.40313360696307
    },
    {
        "code": 3571,
        "province_code": 35,
        "name": "Kota Kediri",
        "latitude": -7.826370090103971,
        "longitude": 112.01612339924802
    },
    {
        "code": 3572,
        "province_code": 35,
        "name": "Kota Blitar",
        "latitude": -8.094766713715375,
        "longitude": 112.16697121377153
    },
    {
        "code": 3573,
        "province_code": 35,
        "name": "Kota Malang",
        "latitude": -7.978300291719902,
        "longitude": 112.63590685472691
    },
    {
        "code": 3574,
        "province_code": 35,
        "name": "Kota Probolinggo",
        "latitude": -7.773810528662421,
        "longitude": 113.20546894160377
    },
    {
        "code": 3575,
        "province_code": 35,
        "name": "Kota Pasuruan",
        "latitude": -7.649572436747946,
        "longitude": 112.91000464212
    },
    {
        "code": 3576,
        "province_code": 35,
        "name": "Kota Mojokerto",
        "latitude": -7.471389237257247,
        "longitude": 112.43750790606278
    },
    {
        "code": 3577,
        "province_code": 35,
        "name": "Kota Madiun",
        "latitude": -7.629454061309314,
        "longitude": 111.52726721367931
    },
    {
        "code": 3578,
        "province_code": 35,
        "name": "Kota Surabaya",
        "latitude": -7.274322819003532,
        "longitude": 112.72358412445607
    },
    {
        "code": 3579,
        "province_code": 35,
        "name": "Kota Batu",
        "latitude": -7.8346737976087795,
        "longitude": 112.53375557411108
    }
]