[
    {
        "code": 3501,
        "province_code": 35,
        "name": "Kab. Pacitan",
        "latitude": -8.194484702033753,
        "longitude": 111.10316522606453
    },
    {
        "code": 3502,
        "province_code": 35,
        "name": "Kab. Ponorogo",
        "latitude": -7.870873802089809,
        "longitude": 111.46254871373611
    },
    {
        "code": 3503,
        "province_code": 35,
        "name": "Kab. Trenggalek",
        "latitude": -8.047910064122286,
        "longitude": 111.70915082348205
    },
    {
        "code": 3504,
        "province_code": 35,
        "name": "Kab. Tulungagung",
        "latitude": -8.064364715839401,
        "longitude": 111.90068000547873
    },
    {
        "code": 3505,
        "province_code": 35,
        "name": "Kab. Blitar",
        "latitude": -8.12393088642822,
        "longitude": 112.21307421019162
    },
    {
        "code": 3506,
        "province_code": 35,
        "name": "Kab. Kediri",
        "latitude": -7.80216489245253,
        "longitude": 112.04111356733358
    },
    {
        "code": 3507,
        "province_code": 35,
        "name": "Kab. Malang",
        "latitude": -8.105459029077382,
        "longitude": 112.57329134091296
    },
    {
        "code": 3508,
        "province_code": 35,
        "name": "Kab. Lumajang",
        "latitude": -8.135206153280906,
        "longitude": 113.2243946381578
    },
    {
        "code": 3509,
        "province_code": 35,
        "name": "Kab. Jember",
        "latitude": -8.169670975121788,
        "longitude": 113.70215105421875
    },
    {
        "code": 3510,
        "province_code": 35,
        "name": "Kab. Banyuwangi",
        "latitude": null,
        "longitude": null
    },
    {
        "code": 3511,
        "province_code": 35,
        "name": "Kab. Bondowoso",
        "latitude": -7.914444581620128,
        "longitude": 113.82185071188832
    },
    {
        "code": 3512,
        "province_code": 35,
        "name": "Kab. Situbondo",
        "latitude": -7.707340624354634,
        "longitude": 114.00177518305065
    },
    {
        "code": 3513,
        "province_code": 35,
        "name": "Kab. Probolinggo",
        "latitude": -7.761818744749144,
        "longitude": 113.41597252537957
    },
    {
        "code": 3514,
        "province_code": 35,
        "name": "Kab. Pasuruan",
        "latitude": -7.64901246028997,
        "longitude": 112.90515909654273
    },
    {
        "code": 3515,
        "province_code": 35,
        "name": "Kab. Sidoarjo",
        "latitude": -7.447173306341014,
        "longitude": 112.71807833886932
    },
    {
        "code": 3516,
        "province_code": 35,
        "name": "Kab. Mojokerto",
        "latitude": -7.462844394027845,
        "longitude": 112.43341998304892
    },
    {
        "code": 3517,
        "province_code": 35,
        "name": "Kab. Jombang",
        "latitude": -7.556402096019785,
        "longitude": 112.23460958304962
    },
    {
        "code": 3518,
        "province_code": 35,
        "name": "Kab. Nganjuk",
        "latitude": -7.601982862041979,
        "longitude": 111.90189545421411
    },
    {
        "code": 3519,
        "province_code": 35,
        "name": "Kab. Madiun",
        "latitude": -7.538540959979179,
        "longitude": 111.6534826499319
    },
    {
        "code": 3520,
        "province_code": 35,
        "name": "Kab. Magetan",
        "latitude": null,
        "longitude": null
    },
    {
        "code": 3521,
        "province_code": 35,
        "name": "Kab. Ngawi",
        "latitude": -7.401286050830588,
        "longitude": 111.44544266770494
    },
    {
        "code": 3522,
        "province_code": 35,
        "name": "Kab. Bojonegoro",
        "latitude": -7.149935359747551,
        "longitude": 111.88154262537478
    },
    {
        "code": 3523,
        "province_code": 35,
        "name": "Kab. Tuban",
        "latitude": -6.8961044097904685,
        "longitude": 112.06506272537278
    },
    {
        "code": 3524,
        "province_code": 35,
        "name": "Kab. Lamongan",
        "latitude": -7.1210348508171615,
        "longitude": 112.41543434071801
    },
    {
        "code": 3525,
        "province_code": 35,
        "name": "Kab. Gresik",
        "latitude": -7.170587571783878,
        "longitude": 112.59967629653906
    },
    {
        "code": 3526,
        "province_code": 35,
        "name": "Kab. Bangkalan",
        "latitude": -7.046392499923124,
        "longitude": 112.73706719653809
    },
    {
        "code": 3527,
        "province_code": 35,
        "name": "Kab. Sampang",
        "latitude": -7.1875353391978205,
        "longitude": 113.23734031169953
    },
    {
        "code": 3528,
        "province_code": 35,
        "name": "Kab. Pamekasan",
        "latitude": -7.156884154270928,
        "longitude": 113.47188259653895
    },
    {
        "code": 3529,
        "province_code": 35,
        "name": "Kab. Sumenep",
        "latitude": -7.014033429943415,
        "longitude": 113.86352599653785
    },
    {
        "code": 3571,
        "province_code": 35,
        "name": "Kota Kediri",
        "latitude": -7.8121941506978585,
        "longitude": 112.0142841830517
    },
    {
        "code": 3572,
        "province_code": 35,
        "name": "Kota Blitar",
        "latitude": -8.099174292311863,
        "longitude": 112.1645539118899
    },
    {
        "code": 3573,
        "province_code": 35,
        "name": "Kota Malang",
        "latitude": -7.977788119311085,
        "longitude": 112.6338358100378
    },
    {
        "code": 3574,
        "province_code": 35,
        "name": "Kota Probolinggo",
        "latitude": -7.75367770292879,
        "longitude": 113.21423953887185
    },
    {
        "code": 3575,
        "province_code": 35,
        "name": "Kota Pasuruan",
        "latitude": -7.647370692892007,
        "longitude": 112.90855041188624
    },
    {
        "code": 3576,
        "province_code": 35,
        "name": "Kota Mojokerto",
        "latitude": -7.4628151554153925,
        "longitude": 112.43344588575034
    },
    {
        "code": 3577,
        "province_code": 35,
        "name": "Kota Madiun",
        "latitude": -7.624396873185385,
        "longitude": 111.52064916955761
    },
    {
        "code": 3578,
        "province_code": 35,
        "name": "Kota Surabaya",
        "latitude": -7.258891323638141,
        "longitude": 112.74703888119626
    },
    {
        "code": 3579,
        "province_code": 35,
        "name": "Kota Batu",
        "latitude": -7.862516051170755,
        "longitude": 112.5133531677289
    }
]