[
    {
        "code": 8201012001,
        "district_code": 820101,
        "regency_code": 8201,
        "province_code": 82,
        "name": "Gufasa",
        "postal_code": "97752",
        "latitude": 1.063198971092121,
        "longitude": 127.46706142281569
    },
    {
        "code": 8201012002,
        "district_code": 820101,
        "regency_code": 8201,
        "province_code": 82,
        "name": "Guaimaadu",
        "postal_code": "97752",
        "latitude": 1.059608869994807,
        "longitude": 127.46390115116488
    },
    {
        "code": 8201012003,
        "district_code": 820101,
        "regency_code": 8201,
        "province_code": 82,
        "name": "Jalan Baru",
        "postal_code": "97752",
        "latitude": 1.0720343194478417,
        "longitude": 127.46362053372725
    },
    {
        "code": 8201012004,
        "district_code": 820101,
        "regency_code": 8201,
        "province_code": 82,
        "name": "Gam Lamo",
        "postal_code": "97752",
        "latitude": 1.066148361935929,
        "longitude": 127.47839059456948
    },
    {
        "code": 8201012005,
        "district_code": 820101,
        "regency_code": 8201,
        "province_code": 82,
        "name": "Soakonora",
        "postal_code": "97752",
        "latitude": 1.0751843045093226,
        "longitude": 127.47333475016842
    },
    {
        "code": 8201012006,
        "district_code": 820101,
        "regency_code": 8201,
        "province_code": 82,
        "name": "Galala",
        "postal_code": "97752",
        "latitude": 1.0632294040847208,
        "longitude": 127.4572689563908
    },
    {
        "code": 8201012007,
        "district_code": 820101,
        "regency_code": 8201,
        "province_code": 82,
        "name": "Bobanehena",
        "postal_code": "97752",
        "latitude": 1.061129206131389,
        "longitude": 127.4468202607079
    },
    {
        "code": 8201012008,
        "district_code": 820101,
        "regency_code": 8201,
        "province_code": 82,
        "name": "Payo",
        "postal_code": "97752",
        "latitude": 1.0598701381278133,
        "longitude": 127.43443368540052
    },
    {
        "code": 8201012009,
        "district_code": 820101,
        "regency_code": 8201,
        "province_code": 82,
        "name": "Bobo",
        "postal_code": "97752",
        "latitude": 1.0606508882036403,
        "longitude": 127.40696296373197
    },
    {
        "code": 8201012010,
        "district_code": 820101,
        "regency_code": 8201,
        "province_code": 82,
        "name": "Saria",
        "postal_code": "97752",
        "latitude": 1.04083668144359,
        "longitude": 127.41608366274525
    },
    {
        "code": 8201012011,
        "district_code": 820101,
        "regency_code": 8201,
        "province_code": 82,
        "name": "Idam Dehe",
        "postal_code": "97752",
        "latitude": 1.080582531585566,
        "longitude": 127.4192849369162
    },
    {
        "code": 8201012012,
        "district_code": 820101,
        "regency_code": 8201,
        "province_code": 82,
        "name": "Idamdehe Gamsungi",
        "postal_code": "97752",
        "latitude": 1.0952380663369248,
        "longitude": 127.42582626932631
    },
    {
        "code": 8201012013,
        "district_code": 820101,
        "regency_code": 8201,
        "province_code": 82,
        "name": "Marmabati",
        "postal_code": "97752",
        "latitude": 1.1213566602366505,
        "longitude": 127.43509827765689
    },
    {
        "code": 8201012014,
        "district_code": 820101,
        "regency_code": 8201,
        "province_code": 82,
        "name": "Gamtala",
        "postal_code": "97752",
        "latitude": 1.1158739159071314,
        "longitude": 127.43792568531154
    },
    {
        "code": 8201012015,
        "district_code": 820101,
        "regency_code": 8201,
        "province_code": 82,
        "name": "Lolory",
        "postal_code": "97752",
        "latitude": 1.1154159876534708,
        "longitude": 127.45283898778214
    },
    {
        "code": 8201012016,
        "district_code": 820101,
        "regency_code": 8201,
        "province_code": 82,
        "name": "Toboso",
        "postal_code": "97752",
        "latitude": 1.09425597526694,
        "longitude": 127.4533873461562
    },
    {
        "code": 8201012017,
        "district_code": 820101,
        "regency_code": 8201,
        "province_code": 82,
        "name": "Huku-Huku Kie",
        "postal_code": "97752",
        "latitude": 1.101634734398769,
        "longitude": 127.4672660486475
    },
    {
        "code": 8201012018,
        "district_code": 820101,
        "regency_code": 8201,
        "province_code": 82,
        "name": "Acango",
        "postal_code": "97752",
        "latitude": 1.1034513532261185,
        "longitude": 127.51227389005874
    },
    {
        "code": 8201012019,
        "district_code": 820101,
        "regency_code": 8201,
        "province_code": 82,
        "name": "Tedeng",
        "postal_code": "97752",
        "latitude": 1.11350070167165,
        "longitude": 127.51037836433618
    },
    {
        "code": 8201012020,
        "district_code": 820101,
        "regency_code": 8201,
        "province_code": 82,
        "name": "Akediri",
        "postal_code": "97752",
        "latitude": 1.1167167483264082,
        "longitude": 127.49418102566992
    },
    {
        "code": 8201012021,
        "district_code": 820101,
        "regency_code": 8201,
        "province_code": 82,
        "name": "Pornity",
        "postal_code": "97752",
        "latitude": 1.1074184155742897,
        "longitude": 127.55101098212621
    },
    {
        "code": 8201012022,
        "district_code": 820101,
        "regency_code": 8201,
        "province_code": 82,
        "name": "Buku Matiti",
        "postal_code": "97752",
        "latitude": 1.092090197268592,
        "longitude": 127.56193433654896
    },
    {
        "code": 8201012023,
        "district_code": 820101,
        "regency_code": 8201,
        "province_code": 82,
        "name": "Todowongi",
        "postal_code": "97752",
        "latitude": 1.0705885010945675,
        "longitude": 127.5518419414739
    },
    {
        "code": 8201012024,
        "district_code": 820101,
        "regency_code": 8201,
        "province_code": 82,
        "name": "Tuada",
        "postal_code": "97752",
        "latitude": 1.056359185126811,
        "longitude": 127.5596017888532
    },
    {
        "code": 8201012025,
        "district_code": 820101,
        "regency_code": 8201,
        "province_code": 82,
        "name": "Matui",
        "postal_code": "97752",
        "latitude": 1.0315352211515072,
        "longitude": 127.57479808620826
    },
    {
        "code": 8201012026,
        "district_code": 820101,
        "regency_code": 8201,
        "province_code": 82,
        "name": "Buku Bualawa",
        "postal_code": "97752",
        "latitude": 0.9772871343395663,
        "longitude": 127.51262838101339
    },
    {
        "code": 8201012027,
        "district_code": 820101,
        "regency_code": 8201,
        "province_code": 82,
        "name": "Tauro",
        "postal_code": "97752",
        "latitude": 0.9959524857020267,
        "longitude": 127.5600807617238
    },
    {
        "code": 8201012034,
        "district_code": 820101,
        "regency_code": 8201,
        "province_code": 82,
        "name": "Hate Bicara",
        "postal_code": "97752",
        "latitude": 1.0851238009074735,
        "longitude": 127.46650432975702
    },
    {
        "code": 8201012035,
        "district_code": 820101,
        "regency_code": 8201,
        "province_code": 82,
        "name": "Guaria",
        "postal_code": "97752",
        "latitude": 1.0151349855640583,
        "longitude": 127.56866849573525
    },
    {
        "code": 8201012036,
        "district_code": 820101,
        "regency_code": 8201,
        "province_code": 82,
        "name": "Pateng",
        "postal_code": "97752",
        "latitude": 1.0522869892310145,
        "longitude": 127.41932374645533
    },
    {
        "code": 8201012037,
        "district_code": 820101,
        "regency_code": 8201,
        "province_code": 82,
        "name": "Bobo Jiko",
        "postal_code": "97752",
        "latitude": 1.066645559387254,
        "longitude": 127.42669536404927
    },
    {
        "code": 8201012038,
        "district_code": 820101,
        "regency_code": 8201,
        "province_code": 82,
        "name": "Ulo",
        "postal_code": "97752",
        "latitude": 0.9804020012750215,
        "longitude": 127.56165537611915
    },
    {
        "code": 8201012039,
        "district_code": 820101,
        "regency_code": 8201,
        "province_code": 82,
        "name": "Kuripasai",
        "postal_code": "97752",
        "latitude": 1.1251871946514944,
        "longitude": 127.48713560822868
    },
    {
        "code": 8201012040,
        "district_code": 820101,
        "regency_code": 8201,
        "province_code": 82,
        "name": "Buku Maadu",
        "postal_code": "97752",
        "latitude": 0.9866199685523132,
        "longitude": 127.51140441090027
    },
    {
        "code": 8201022001,
        "district_code": 820102,
        "regency_code": 8201,
        "province_code": 82,
        "name": "Kedi",
        "postal_code": "97755",
        "latitude": 1.6699424462064472,
        "longitude": 127.58880644797512
    },
    {
        "code": 8201022002,
        "district_code": 820102,
        "regency_code": 8201,
        "province_code": 82,
        "name": "Soasio",
        "postal_code": "97755",
        "latitude": 1.6885566700608892,
        "longitude": 127.58966553037358
    },
    {
        "code": 8201022003,
        "district_code": 820102,
        "regency_code": 8201,
        "province_code": 82,
        "name": "Totala",
        "postal_code": "97755",
        "latitude": 1.5936079974103323,
        "longitude": 127.59407261584941
    },
    {
        "code": 8201022004,
        "district_code": 820102,
        "regency_code": 8201,
        "province_code": 82,
        "name": "Tolofuo",
        "postal_code": "97755",
        "latitude": 1.6070077925630117,
        "longitude": 127.60376012205741
    },
    {
        "code": 8201022005,
        "district_code": 820102,
        "regency_code": 8201,
        "province_code": 82,
        "name": "Tuguis",
        "postal_code": "97755",
        "latitude": 1.6278389610329445,
        "longitude": 127.61344799943653
    },
    {
        "code": 8201022006,
        "district_code": 820102,
        "regency_code": 8201,
        "province_code": 82,
        "name": "Tasye",
        "postal_code": "97755",
        "latitude": 1.6561595981281778,
        "longitude": 127.65790935887485
    },
    {
        "code": 8201022007,
        "district_code": 820102,
        "regency_code": 8201,
        "province_code": 82,
        "name": "Laba Besar",
        "postal_code": "97755",
        "latitude": 1.6873518716292994,
        "longitude": 127.65757915054267
    },
    {
        "code": 8201022008,
        "district_code": 820102,
        "regency_code": 8201,
        "province_code": 82,
        "name": "Laba Kecil",
        "postal_code": "97755",
        "latitude": 1.7202095160880293,
        "longitude": 127.67149274378689
    },
    {
        "code": 8201022010,
        "district_code": 820102,
        "regency_code": 8201,
        "province_code": 82,
        "name": "Bakun",
        "postal_code": "97755",
        "latitude": 1.7489360896219597,
        "longitude": 127.63503610968709
    },
    {
        "code": 8201022011,
        "district_code": 820102,
        "regency_code": 8201,
        "province_code": 82,
        "name": "Buo",
        "postal_code": "97755",
        "latitude": 1.7501704838440528,
        "longitude": 127.59468018874465
    },
    {
        "code": 8201022018,
        "district_code": 820102,
        "regency_code": 8201,
        "province_code": 82,
        "name": "Kahatola",
        "postal_code": "97755",
        "latitude": 1.6890461641020142,
        "longitude": 127.5195879524829
    },
    {
        "code": 8201022019,
        "district_code": 820102,
        "regency_code": 8201,
        "province_code": 82,
        "name": "Bosala",
        "postal_code": "97755",
        "latitude": 1.5745478562475475,
        "longitude": 127.56076347005778
    },
    {
        "code": 8201022020,
        "district_code": 820102,
        "regency_code": 8201,
        "province_code": 82,
        "name": "Salu",
        "postal_code": "97755",
        "latitude": 1.751325110709282,
        "longitude": 127.61678358658578
    },
    {
        "code": 8201022023,
        "district_code": 820102,
        "regency_code": 8201,
        "province_code": 82,
        "name": "Bantoli",
        "postal_code": "97755",
        "latitude": 1.6956076175990429,
        "longitude": 127.58673122661538
    },
    {
        "code": 8201022024,
        "district_code": 820102,
        "regency_code": 8201,
        "province_code": 82,
        "name": "Linggua",
        "postal_code": "97755",
        "latitude": 1.6617883806906957,
        "longitude": 127.58951821393151
    },
    {
        "code": 8201022025,
        "district_code": 820102,
        "regency_code": 8201,
        "province_code": 82,
        "name": "Tomodo",
        "postal_code": "97755",
        "latitude": 1.6531931057333276,
        "longitude": 127.57932007031442
    },
    {
        "code": 8201022026,
        "district_code": 820102,
        "regency_code": 8201,
        "province_code": 82,
        "name": "Totala Jaya",
        "postal_code": "97755",
        "latitude": 1.6117339480135682,
        "longitude": 127.56662991928658
    },
    {
        "code": 8201032012,
        "district_code": 820103,
        "regency_code": 8201,
        "province_code": 82,
        "name": "Togola Wayoli",
        "postal_code": "97754",
        "latitude": 1.4546409196505485,
        "longitude": 127.54986370574848
    },
    {
        "code": 8201032013,
        "district_code": 820103,
        "regency_code": 8201,
        "province_code": 82,
        "name": "Togola Sangir",
        "postal_code": "97754",
        "latitude": 1.4632620154222788,
        "longitude": 127.55050603489494
    },
    {
        "code": 8201032014,
        "district_code": 820103,
        "regency_code": 8201,
        "province_code": 82,
        "name": "Tahafo",
        "postal_code": "97754",
        "latitude": 1.4778662653005137,
        "longitude": 127.54253282358131
    },
    {
        "code": 8201032015,
        "district_code": 820103,
        "regency_code": 8201,
        "province_code": 82,
        "name": "Tongute Ternate",
        "postal_code": "97754",
        "latitude": 1.4912356163257756,
        "longitude": 127.54176132496077
    },
    {
        "code": 8201032016,
        "district_code": 820103,
        "regency_code": 8201,
        "province_code": 82,
        "name": "Akesibu",
        "postal_code": "97754",
        "latitude": 1.491232679423861,
        "longitude": 127.55195909102943
    },
    {
        "code": 8201032017,
        "district_code": 820103,
        "regency_code": 8201,
        "province_code": 82,
        "name": "Maritango",
        "postal_code": "97754",
        "latitude": 1.4920967788908284,
        "longitude": 127.60771560338422
    },
    {
        "code": 8201032018,
        "district_code": 820103,
        "regency_code": 8201,
        "province_code": 82,
        "name": "Kie Ici",
        "postal_code": "97754",
        "latitude": 1.4718564846146585,
        "longitude": 127.62440739036977
    },
    {
        "code": 8201032019,
        "district_code": 820103,
        "regency_code": 8201,
        "province_code": 82,
        "name": "Tongute Goin",
        "postal_code": "97754",
        "latitude": 1.5087825238400985,
        "longitude": 127.57793369686357
    },
    {
        "code": 8201032020,
        "district_code": 820103,
        "regency_code": 8201,
        "province_code": 82,
        "name": "Tungute Sungi",
        "postal_code": "97754",
        "latitude": 1.4963426344354718,
        "longitude": 127.55599344218075
    },
    {
        "code": 8201032021,
        "district_code": 820103,
        "regency_code": 8201,
        "province_code": 82,
        "name": "Gam Ici",
        "postal_code": "97754",
        "latitude": 1.5002548660384845,
        "longitude": 127.5532491949999
    },
    {
        "code": 8201032022,
        "district_code": 820103,
        "regency_code": 8201,
        "province_code": 82,
        "name": "Tobaol",
        "postal_code": "97754",
        "latitude": 1.5266801755461845,
        "longitude": 127.53412905169041
    },
    {
        "code": 8201032023,
        "district_code": 820103,
        "regency_code": 8201,
        "province_code": 82,
        "name": "Gamlamo",
        "postal_code": "97754",
        "latitude": 1.5322660670964878,
        "longitude": 127.54418368356677
    },
    {
        "code": 8201032037,
        "district_code": 820103,
        "regency_code": 8201,
        "province_code": 82,
        "name": "Naga",
        "postal_code": "97754",
        "latitude": 1.4548893520226742,
        "longitude": 127.5983536683262
    },
    {
        "code": 8201032040,
        "district_code": 820103,
        "regency_code": 8201,
        "province_code": 82,
        "name": "Soana Masungi",
        "postal_code": "97754",
        "latitude": 1.5104697955434692,
        "longitude": 127.56734369301827
    },
    {
        "code": 8201032041,
        "district_code": 820103,
        "regency_code": 8201,
        "province_code": 82,
        "name": "Tongute Ternate Selatan",
        "postal_code": "97754",
        "latitude": 1.495950525467933,
        "longitude": 127.5488350708821
    },
    {
        "code": 8201032042,
        "district_code": 820103,
        "regency_code": 8201,
        "province_code": 82,
        "name": "Ake Boso",
        "postal_code": "97754",
        "latitude": 1.5034498440774646,
        "longitude": 127.58696568379989
    },
    {
        "code": 8201032043,
        "district_code": 820103,
        "regency_code": 8201,
        "province_code": 82,
        "name": "Kampung Baru",
        "postal_code": "97754",
        "latitude": 1.5108118414373695,
        "longitude": 127.55686136981568
    },
    {
        "code": 8201042001,
        "district_code": 820104,
        "regency_code": 8201,
        "province_code": 82,
        "name": "Susupu",
        "postal_code": "97753",
        "latitude": 1.1520358487191646,
        "longitude": 127.44206189028962
    },
    {
        "code": 8201042002,
        "district_code": 820104,
        "regency_code": 8201,
        "province_code": 82,
        "name": "Lako Akelamo",
        "postal_code": "97753",
        "latitude": 1.1399204864516361,
        "longitude": 127.44255523634278
    },
    {
        "code": 8201042003,
        "district_code": 820104,
        "regency_code": 8201,
        "province_code": 82,
        "name": "Taruba",
        "postal_code": "97753",
        "latitude": 1.1716754725297365,
        "longitude": 127.42646496587122
    },
    {
        "code": 8201042004,
        "district_code": 820104,
        "regency_code": 8201,
        "province_code": 82,
        "name": "Todahe",
        "postal_code": "97753",
        "latitude": 1.1914793799564707,
        "longitude": 127.40728457869334
    },
    {
        "code": 8201042005,
        "district_code": 820104,
        "regency_code": 8201,
        "province_code": 82,
        "name": "Peot",
        "postal_code": "97753",
        "latitude": 1.2119252278410555,
        "longitude": 127.4246864160752
    },
    {
        "code": 8201042006,
        "district_code": 820104,
        "regency_code": 8201,
        "province_code": 82,
        "name": "Sasur",
        "postal_code": "97753",
        "latitude": 1.237744949959445,
        "longitude": 127.43077725216062
    },
    {
        "code": 8201042007,
        "district_code": 820104,
        "regency_code": 8201,
        "province_code": 82,
        "name": "Goro goro",
        "postal_code": "97753",
        "latitude": 1.260137646499032,
        "longitude": 127.46789644149632
    },
    {
        "code": 8201042008,
        "district_code": 820104,
        "regency_code": 8201,
        "province_code": 82,
        "name": "Tacim",
        "postal_code": "97753",
        "latitude": 1.168381518889854,
        "longitude": 127.44573265353627
    },
    {
        "code": 8201042009,
        "district_code": 820104,
        "regency_code": 8201,
        "province_code": 82,
        "name": "Balisoang",
        "postal_code": "97753",
        "latitude": 1.1529267773673528,
        "longitude": 127.4638473051836
    },
    {
        "code": 8201042010,
        "district_code": 820104,
        "regency_code": 8201,
        "province_code": 82,
        "name": "Worat-worat",
        "postal_code": "97753",
        "latitude": 1.1730943032770746,
        "longitude": 127.46373879388535
    },
    {
        "code": 8201042011,
        "district_code": 820104,
        "regency_code": 8201,
        "province_code": 82,
        "name": "Tacici",
        "postal_code": "97753",
        "latitude": 1.208256847671088,
        "longitude": 127.46216623052355
    },
    {
        "code": 8201042012,
        "district_code": 820104,
        "regency_code": 8201,
        "province_code": 82,
        "name": "Taraudu",
        "postal_code": "97753",
        "latitude": 1.2052550526121288,
        "longitude": 127.48299991749096
    },
    {
        "code": 8201042013,
        "district_code": 820104,
        "regency_code": 8201,
        "province_code": 82,
        "name": "Golo",
        "postal_code": "97753",
        "latitude": 1.1451708187247096,
        "longitude": 127.46111798975731
    },
    {
        "code": 8201042028,
        "district_code": 820104,
        "regency_code": 8201,
        "province_code": 82,
        "name": "Lako Akederi",
        "postal_code": "97753",
        "latitude": 1.1259627515891546,
        "longitude": 127.43140261615684
    },
    {
        "code": 8201042029,
        "district_code": 820104,
        "regency_code": 8201,
        "province_code": 82,
        "name": "Jara Kore",
        "postal_code": "97753",
        "latitude": 1.1466419741835152,
        "longitude": 127.44496322336553
    },
    {
        "code": 8201042030,
        "district_code": 820104,
        "regency_code": 8201,
        "province_code": 82,
        "name": "Ropu Tengah Balu",
        "postal_code": "97753",
        "latitude": 1.1591518135066066,
        "longitude": 127.43302336467464
    },
    {
        "code": 8201042033,
        "district_code": 820104,
        "regency_code": 8201,
        "province_code": 82,
        "name": "Dere",
        "postal_code": "97753",
        "latitude": 1.1888264708126093,
        "longitude": 127.43206585079689
    },
    {
        "code": 8201042034,
        "district_code": 820104,
        "regency_code": 8201,
        "province_code": 82,
        "name": "Balisoan Utara",
        "postal_code": "97753",
        "latitude": 1.1609312559356662,
        "longitude": 127.45793606489705
    },
    {
        "code": 8201042035,
        "district_code": 820104,
        "regency_code": 8201,
        "province_code": 82,
        "name": "Sasur Pantai",
        "postal_code": "97753",
        "latitude": 1.252682304350095,
        "longitude": 127.445040382807
    },
    {
        "code": 8201052001,
        "district_code": 820105,
        "regency_code": 8201,
        "province_code": 82,
        "name": "Sidangoli Gam",
        "postal_code": "97751",
        "latitude": 0.8971137475536992,
        "longitude": 127.50039080778575
    },
    {
        "code": 8201052002,
        "district_code": 820105,
        "regency_code": 8201,
        "province_code": 82,
        "name": "Sidongoli Dehe",
        "postal_code": "97751",
        "latitude": 0.8848370615315359,
        "longitude": 127.51068218925793
    },
    {
        "code": 8201052003,
        "district_code": 820105,
        "regency_code": 8201,
        "province_code": 82,
        "name": "Domato",
        "postal_code": "97751",
        "latitude": 0.9202748137327507,
        "longitude": 127.54916810300882
    },
    {
        "code": 8201052004,
        "district_code": 820105,
        "regency_code": 8201,
        "province_code": 82,
        "name": "Tataleka",
        "postal_code": "97751",
        "latitude": 0.9610561228634142,
        "longitude": 127.55234962176363
    },
    {
        "code": 8201052005,
        "district_code": 820105,
        "regency_code": 8201,
        "province_code": 82,
        "name": "Gamlenge",
        "postal_code": "97751",
        "latitude": 0.9432163665773342,
        "longitude": 127.51583985499731
    },
    {
        "code": 8201052006,
        "district_code": 820105,
        "regency_code": 8201,
        "province_code": 82,
        "name": "Akejailolo",
        "postal_code": "97751",
        "latitude": 0.8883826435030243,
        "longitude": 127.53031816340959
    },
    {
        "code": 8201052007,
        "district_code": 820105,
        "regency_code": 8201,
        "province_code": 82,
        "name": "Biamaahi",
        "postal_code": "97751",
        "latitude": 0.892890346086483,
        "longitude": 127.54778229332747
    },
    {
        "code": 8201052008,
        "district_code": 820105,
        "regency_code": 8201,
        "province_code": 82,
        "name": "Tuguraci",
        "postal_code": "97751",
        "latitude": 0.8813951855055058,
        "longitude": 127.57474516585599
    },
    {
        "code": 8201052009,
        "district_code": 820105,
        "regency_code": 8201,
        "province_code": 82,
        "name": "Akeara",
        "postal_code": "97751",
        "latitude": 0.9101031642806527,
        "longitude": 127.60770725178308
    },
    {
        "code": 8201052010,
        "district_code": 820105,
        "regency_code": 8201,
        "province_code": 82,
        "name": "Akelaha",
        "postal_code": "97751",
        "latitude": 0.8666924312795077,
        "longitude": 127.61991722370358
    },
    {
        "code": 8201052011,
        "district_code": 820105,
        "regency_code": 8201,
        "province_code": 82,
        "name": "Dodinga",
        "postal_code": "97751",
        "latitude": 0.8391694153835868,
        "longitude": 127.670021193769
    },
    {
        "code": 8201052012,
        "district_code": 820105,
        "regency_code": 8201,
        "province_code": 82,
        "name": "Tewe",
        "postal_code": "97751",
        "latitude": 0.8179605710167102,
        "longitude": 127.65410628615892
    },
    {
        "code": 8201052013,
        "district_code": 820105,
        "regency_code": 8201,
        "province_code": 82,
        "name": "Toniku",
        "postal_code": "97751",
        "latitude": 0.7862482166116624,
        "longitude": 127.63345600866944
    },
    {
        "code": 8201052014,
        "district_code": 820105,
        "regency_code": 8201,
        "province_code": 82,
        "name": "Rioribati",
        "postal_code": "97751",
        "latitude": 0.7753305344347801,
        "longitude": 127.63637553162702
    },
    {
        "code": 8201052021,
        "district_code": 820105,
        "regency_code": 8201,
        "province_code": 82,
        "name": "Taba Damai (DB)",
        "postal_code": "97751",
        "latitude": 0.7743756004736069,
        "longitude": 127.6834439049265
    },
    {
        "code": 8201052022,
        "district_code": 820105,
        "regency_code": 8201,
        "province_code": 82,
        "name": "Moiso",
        "postal_code": "97751",
        "latitude": 0.9139094095288887,
        "longitude": 127.50312151434687
    },
    {
        "code": 8201052023,
        "district_code": 820105,
        "regency_code": 8201,
        "province_code": 82,
        "name": "Braha",
        "postal_code": "97751",
        "latitude": 0.7948979517663941,
        "longitude": 127.67896410673777
    },
    {
        "code": 8201052024,
        "district_code": 820105,
        "regency_code": 8201,
        "province_code": 82,
        "name": "Bangkit Rahmat",
        "postal_code": "97751",
        "latitude": 0.8913657227157002,
        "longitude": 127.63282608032732
    },
    {
        "code": 8201052025,
        "district_code": 820105,
        "regency_code": 8201,
        "province_code": 82,
        "name": "Bobane Dano",
        "postal_code": "97751",
        "latitude": 0.8820404112856743,
        "longitude": 127.54879003666461
    },
    {
        "code": 8201052026,
        "district_code": 820105,
        "regency_code": 8201,
        "province_code": 82,
        "name": "Suka Damai",
        "postal_code": "97751",
        "latitude": 0.8955073700617803,
        "longitude": 127.61561035006882
    },
    {
        "code": 8201052027,
        "district_code": 820105,
        "regency_code": 8201,
        "province_code": 82,
        "name": "Hijrah",
        "postal_code": "97751",
        "latitude": 0.9163020913384813,
        "longitude": 127.58798469264644
    },
    {
        "code": 8201052028,
        "district_code": 820105,
        "regency_code": 8201,
        "province_code": 82,
        "name": "Ratem",
        "postal_code": "97751",
        "latitude": 0.9397357105757821,
        "longitude": 127.54915127567754
    },
    {
        "code": 8201052029,
        "district_code": 820105,
        "regency_code": 8201,
        "province_code": 82,
        "name": "Bobaneigo Madihutu",
        "postal_code": "97751",
        "latitude": null,
        "longitude": null
    },
    {
        "code": 8201052030,
        "district_code": 820105,
        "regency_code": 8201,
        "province_code": 82,
        "name": "Tetewang Joronga",
        "postal_code": "97751",
        "latitude": null,
        "longitude": null
    },
    {
        "code": 8201052031,
        "district_code": 820105,
        "regency_code": 8201,
        "province_code": 82,
        "name": "Akelamo Cinga-Cinga",
        "postal_code": "97751",
        "latitude": null,
        "longitude": null
    },
    {
        "code": 8201052032,
        "district_code": 820105,
        "regency_code": 8201,
        "province_code": 82,
        "name": "Akesahu Madutu",
        "postal_code": "97751",
        "latitude": null,
        "longitude": null
    },
    {
        "code": 8201072001,
        "district_code": 820107,
        "regency_code": 8201,
        "province_code": 82,
        "name": "Podol",
        "postal_code": "97757",
        "latitude": 1.5365518337106476,
        "longitude": 127.5571895586075
    },
    {
        "code": 8201072002,
        "district_code": 820107,
        "regency_code": 8201,
        "province_code": 82,
        "name": "Tengowango",
        "postal_code": "97757",
        "latitude": 1.543627623218211,
        "longitude": 127.56980226193548
    },
    {
        "code": 8201072003,
        "district_code": 820107,
        "regency_code": 8201,
        "province_code": 82,
        "name": "Togowo",
        "postal_code": "97757",
        "latitude": 1.5473365134094905,
        "longitude": 127.58379877402977
    },
    {
        "code": 8201072004,
        "district_code": 820107,
        "regency_code": 8201,
        "province_code": 82,
        "name": "Duono",
        "postal_code": "97757",
        "latitude": 1.551320074841297,
        "longitude": 127.60065631057742
    },
    {
        "code": 8201072005,
        "district_code": 820107,
        "regency_code": 8201,
        "province_code": 82,
        "name": "Goin",
        "postal_code": "97757",
        "latitude": 1.5627608739055285,
        "longitude": 127.61931402472928
    },
    {
        "code": 8201072006,
        "district_code": 820107,
        "regency_code": 8201,
        "province_code": 82,
        "name": "Sangaji Nyeku",
        "postal_code": "97757",
        "latitude": 1.5418650620175918,
        "longitude": 127.62508179740931
    },
    {
        "code": 8201072007,
        "district_code": 820107,
        "regency_code": 8201,
        "province_code": 82,
        "name": "Tuguis",
        "postal_code": "97757",
        "latitude": 1.5584063431014563,
        "longitude": 127.6322678629146
    },
    {
        "code": 8201072008,
        "district_code": 820107,
        "regency_code": 8201,
        "province_code": 82,
        "name": "Togoreba Sungi",
        "postal_code": "97757",
        "latitude": 1.5617390726103522,
        "longitude": 127.64469813735121
    },
    {
        "code": 8201072009,
        "district_code": 820107,
        "regency_code": 8201,
        "province_code": 82,
        "name": "Barona",
        "postal_code": "97757",
        "latitude": 1.5519440828893891,
        "longitude": 127.65701965995999
    },
    {
        "code": 8201072010,
        "district_code": 820107,
        "regency_code": 8201,
        "province_code": 82,
        "name": "Todoke",
        "postal_code": "97757",
        "latitude": 1.578342333454716,
        "longitude": 127.65601932750155
    },
    {
        "code": 8201072011,
        "district_code": 820107,
        "regency_code": 8201,
        "province_code": 82,
        "name": "Tolisaor",
        "postal_code": "97757",
        "latitude": 1.5190757943089028,
        "longitude": 127.65878026123029
    },
    {
        "code": 8201072012,
        "district_code": 820107,
        "regency_code": 8201,
        "province_code": 82,
        "name": "Pasalulu",
        "postal_code": "97757",
        "latitude": 1.5538061284894635,
        "longitude": 127.68481436482625
    },
    {
        "code": 8201072013,
        "district_code": 820107,
        "regency_code": 8201,
        "province_code": 82,
        "name": "Togoreba Tua",
        "postal_code": "97757",
        "latitude": 1.5541743487917605,
        "longitude": 127.70997610911652
    },
    {
        "code": 8201072014,
        "district_code": 820107,
        "regency_code": 8201,
        "province_code": 82,
        "name": "Tukuoku",
        "postal_code": "97757",
        "latitude": 1.537247728617864,
        "longitude": 127.61234052518003
    },
    {
        "code": 8201072015,
        "district_code": 820107,
        "regency_code": 8201,
        "province_code": 82,
        "name": "Soasangaji",
        "postal_code": "97757",
        "latitude": 1.551287161836654,
        "longitude": 127.63769413721342
    },
    {
        "code": 8201072016,
        "district_code": 820107,
        "regency_code": 8201,
        "province_code": 82,
        "name": "Aru Jaya",
        "postal_code": "97757",
        "latitude": 1.5227963582940796,
        "longitude": 127.67195680076284
    },
    {
        "code": 8201082001,
        "district_code": 820108,
        "regency_code": 8201,
        "province_code": 82,
        "name": "Tosoa",
        "postal_code": "97756",
        "latitude": 1.3556034934888543,
        "longitude": 127.60420331632251
    },
    {
        "code": 8201082002,
        "district_code": 820108,
        "regency_code": 8201,
        "province_code": 82,
        "name": "Tobobol",
        "postal_code": "97756",
        "latitude": 1.293826654199726,
        "longitude": 127.48043505796782
    },
    {
        "code": 8201082003,
        "district_code": 820108,
        "regency_code": 8201,
        "province_code": 82,
        "name": "Baru",
        "postal_code": "97756",
        "latitude": 1.3624488130431016,
        "longitude": 127.53434212449459
    },
    {
        "code": 8201082004,
        "district_code": 820108,
        "regency_code": 8201,
        "province_code": 82,
        "name": "Nanas",
        "postal_code": "97756",
        "latitude": 1.3872653967198285,
        "longitude": 127.50814892691884
    },
    {
        "code": 8201082005,
        "district_code": 820108,
        "regency_code": 8201,
        "province_code": 82,
        "name": "Jere",
        "postal_code": "97756",
        "latitude": 1.397506746874982,
        "longitude": 127.53699969053969
    },
    {
        "code": 8201082006,
        "district_code": 820108,
        "regency_code": 8201,
        "province_code": 82,
        "name": "Gamsungi",
        "postal_code": "97756",
        "latitude": 1.409756009872439,
        "longitude": 127.54785590962479
    },
    {
        "code": 8201082007,
        "district_code": 820108,
        "regency_code": 8201,
        "province_code": 82,
        "name": "Bataka",
        "postal_code": "97756",
        "latitude": 1.4191371660758265,
        "longitude": 127.55623063350943
    },
    {
        "code": 8201082008,
        "district_code": 820108,
        "regency_code": 8201,
        "province_code": 82,
        "name": "Talaga",
        "postal_code": "97756",
        "latitude": 1.4256599717309364,
        "longitude": 127.56652937304416
    },
    {
        "code": 8201082009,
        "district_code": 820108,
        "regency_code": 8201,
        "province_code": 82,
        "name": "Tobelos",
        "postal_code": "97756",
        "latitude": 1.431771467522792,
        "longitude": 127.53006900352831
    },
    {
        "code": 8201082010,
        "district_code": 820108,
        "regency_code": 8201,
        "province_code": 82,
        "name": "Gamkonora",
        "postal_code": "97756",
        "latitude": 1.432757558332675,
        "longitude": 127.56970332548207
    },
    {
        "code": 8201082011,
        "district_code": 820108,
        "regency_code": 8201,
        "province_code": 82,
        "name": "Sarau",
        "postal_code": "97756",
        "latitude": 1.4431408394091507,
        "longitude": 127.58975795645676
    },
    {
        "code": 8201082012,
        "district_code": 820108,
        "regency_code": 8201,
        "province_code": 82,
        "name": "Ngawet",
        "postal_code": "97756",
        "latitude": 1.381651335952435,
        "longitude": 127.49536395601547
    },
    {
        "code": 8201082013,
        "district_code": 820108,
        "regency_code": 8201,
        "province_code": 82,
        "name": "Adu",
        "postal_code": "97756",
        "latitude": 1.374525126068081,
        "longitude": 127.5067161286661
    },
    {
        "code": 8201082014,
        "district_code": 820108,
        "regency_code": 8201,
        "province_code": 82,
        "name": "Gamsida",
        "postal_code": "97756",
        "latitude": 1.3659169042951593,
        "longitude": 127.49775659278338
    },
    {
        "code": 8201082015,
        "district_code": 820108,
        "regency_code": 8201,
        "province_code": 82,
        "name": "Ngalo Ngalo",
        "postal_code": "97756",
        "latitude": 1.3298529034662379,
        "longitude": 127.50767046409463
    },
    {
        "code": 8201082016,
        "district_code": 820108,
        "regency_code": 8201,
        "province_code": 82,
        "name": "Tuguaer",
        "postal_code": "97756",
        "latitude": 1.2638342031869476,
        "longitude": 127.5290290909712
    },
    {
        "code": 8201092001,
        "district_code": 820109,
        "regency_code": 8201,
        "province_code": 82,
        "name": "Loce",
        "postal_code": "97758",
        "latitude": 1.1530832279489414,
        "longitude": 127.47837753597538
    },
    {
        "code": 8201092002,
        "district_code": 820109,
        "regency_code": 8201,
        "province_code": 82,
        "name": "Idam Gamlamo",
        "postal_code": "97758",
        "latitude": 1.1385224832745997,
        "longitude": 127.46389011141649
    },
    {
        "code": 8201092003,
        "district_code": 820109,
        "regency_code": 8201,
        "province_code": 82,
        "name": "Gamomeng",
        "postal_code": "97758",
        "latitude": 1.131540181933329,
        "longitude": 127.46599432922486
    },
    {
        "code": 8201092004,
        "district_code": 820109,
        "regency_code": 8201,
        "province_code": 82,
        "name": "Akelamo",
        "postal_code": "97758",
        "latitude": 1.1269085218966255,
        "longitude": 127.47541070096257
    },
    {
        "code": 8201092005,
        "district_code": 820109,
        "regency_code": 8201,
        "province_code": 82,
        "name": "Taraudu Kusu",
        "postal_code": "97758",
        "latitude": 1.1357409848844124,
        "longitude": 127.48114928585964
    },
    {
        "code": 8201092006,
        "district_code": 820109,
        "regency_code": 8201,
        "province_code": 82,
        "name": "Awer",
        "postal_code": "97758",
        "latitude": 1.1343057351163237,
        "longitude": 127.53600583194634
    },
    {
        "code": 8201092007,
        "district_code": 820109,
        "regency_code": 8201,
        "province_code": 82,
        "name": "Aketola",
        "postal_code": "97758",
        "latitude": 1.146719296401579,
        "longitude": 127.57242205727903
    },
    {
        "code": 8201092008,
        "district_code": 820109,
        "regency_code": 8201,
        "province_code": 82,
        "name": "Tibobo",
        "postal_code": "97758",
        "latitude": 1.1560927252618167,
        "longitude": 127.55642131214039
    },
    {
        "code": 8201092009,
        "district_code": 820109,
        "regency_code": 8201,
        "province_code": 82,
        "name": "Hoku- hoku Gam",
        "postal_code": "97758",
        "latitude": 1.1645429232044415,
        "longitude": 127.57385367909013
    },
    {
        "code": 8201092010,
        "district_code": 820109,
        "regency_code": 8201,
        "province_code": 82,
        "name": "Gamiyel",
        "postal_code": "97758",
        "latitude": 1.1654768896087042,
        "longitude": 127.53765602206929
    },
    {
        "code": 8201092011,
        "district_code": 820109,
        "regency_code": 8201,
        "province_code": 82,
        "name": "Golago Kusuma",
        "postal_code": "97758",
        "latitude": 1.2620181882684391,
        "longitude": 127.58838214427631
    },
    {
        "code": 8201092012,
        "district_code": 820109,
        "regency_code": 8201,
        "province_code": 82,
        "name": "Ngaon",
        "postal_code": "97758",
        "latitude": 1.1806391117301163,
        "longitude": 127.58663883496313
    },
    {
        "code": 8201092013,
        "district_code": 820109,
        "regency_code": 8201,
        "province_code": 82,
        "name": "Gamsugi",
        "postal_code": "97758",
        "latitude": 1.190258050282056,
        "longitude": 127.5757861050069
    },
    {
        "code": 8201092014,
        "district_code": 820109,
        "regency_code": 8201,
        "province_code": 82,
        "name": "Taba Campaka",
        "postal_code": "97758",
        "latitude": 1.1868535832206903,
        "longitude": 127.50880131628199
    },
    {
        "code": 8201092015,
        "district_code": 820109,
        "regency_code": 8201,
        "province_code": 82,
        "name": "Campaka",
        "postal_code": "97758",
        "latitude": 1.1694787119219032,
        "longitude": 127.51347769050457
    },
    {
        "code": 8201092016,
        "district_code": 820109,
        "regency_code": 8201,
        "province_code": 82,
        "name": "Goal",
        "postal_code": "97758",
        "latitude": 1.2142998798865121,
        "longitude": 127.56519584822517
    },
    {
        "code": 8201092017,
        "district_code": 820109,
        "regency_code": 8201,
        "province_code": 82,
        "name": "Sidodadi",
        "postal_code": "97758",
        "latitude": 1.2232351738579086,
        "longitude": 127.54423366532724
    },
    {
        "code": 8201092018,
        "district_code": 820109,
        "regency_code": 8201,
        "province_code": 82,
        "name": "Air Panas",
        "postal_code": "97758",
        "latitude": 1.2436167018085098,
        "longitude": 127.51924479814801
    },
    {
        "code": 8201102001,
        "district_code": 820110,
        "regency_code": 8201,
        "province_code": 82,
        "name": "Jano",
        "postal_code": "97755",
        "latitude": 1.7465699400667267,
        "longitude": 127.66221396720644
    },
    {
        "code": 8201102002,
        "district_code": 820110,
        "regency_code": 8201,
        "province_code": 82,
        "name": "Jangailulu",
        "postal_code": "97755",
        "latitude": 1.950851469644193,
        "longitude": 127.75404767735051
    },
    {
        "code": 8201102003,
        "district_code": 820110,
        "regency_code": 8201,
        "province_code": 82,
        "name": "Baja",
        "postal_code": "97755",
        "latitude": 1.9310732034505087,
        "longitude": 127.74710077449859
    },
    {
        "code": 8201102004,
        "district_code": 820110,
        "regency_code": 8201,
        "province_code": 82,
        "name": "Gam Kahe",
        "postal_code": "97755",
        "latitude": 1.8732247547487384,
        "longitude": 127.70767104235959
    },
    {
        "code": 8201102005,
        "district_code": 820110,
        "regency_code": 8201,
        "province_code": 82,
        "name": "Barataku",
        "postal_code": "97755",
        "latitude": 1.8479294334941256,
        "longitude": 127.70240984442376
    },
    {
        "code": 8201102006,
        "district_code": 820110,
        "regency_code": 8201,
        "province_code": 82,
        "name": "Pumadada",
        "postal_code": "97755",
        "latitude": 1.9020273041935813,
        "longitude": 127.73003262284082
    },
    {
        "code": 8201102007,
        "district_code": 820110,
        "regency_code": 8201,
        "province_code": 82,
        "name": "Tosomolo",
        "postal_code": "97755",
        "latitude": 1.8226278009770172,
        "longitude": 127.69169198330877
    },
    {
        "code": 8201102008,
        "district_code": 820110,
        "regency_code": 8201,
        "province_code": 82,
        "name": "Bilote",
        "postal_code": "97755",
        "latitude": 1.839988717743578,
        "longitude": 127.67758303265364
    },
    {
        "code": 8201102009,
        "district_code": 820110,
        "regency_code": 8201,
        "province_code": 82,
        "name": "Bakun Pantai",
        "postal_code": "97755",
        "latitude": 1.8011962290133336,
        "longitude": 127.68954304354843
    },
    {
        "code": 8201102010,
        "district_code": 820110,
        "regency_code": 8201,
        "province_code": 82,
        "name": "Aruku",
        "postal_code": "97755",
        "latitude": 1.7939311851020527,
        "longitude": 127.66356157377149
    },
    {
        "code": 8202012004,
        "district_code": 820201,
        "regency_code": 8202,
        "province_code": 82,
        "name": "Nusliko",
        "postal_code": "97850",
        "latitude": 0.2936850748881666,
        "longitude": 127.84018643636144
    },
    {
        "code": 8202012005,
        "district_code": 820201,
        "regency_code": 8202,
        "province_code": 82,
        "name": "Were",
        "postal_code": "97850",
        "latitude": 0.34361898168988075,
        "longitude": 127.84023346711156
    },
    {
        "code": 8202012020,
        "district_code": 820201,
        "regency_code": 8202,
        "province_code": 82,
        "name": "Fidy Jaya",
        "postal_code": "97850",
        "latitude": 0.34871559151495024,
        "longitude": 127.86182698897309
    },
    {
        "code": 8202012021,
        "district_code": 820201,
        "regency_code": 8202,
        "province_code": 82,
        "name": "Sidanga",
        "postal_code": "97850",
        "latitude": 0.39686599938690714,
        "longitude": 127.83279835689848
    },
    {
        "code": 8202012022,
        "district_code": 820201,
        "regency_code": 8202,
        "province_code": 82,
        "name": "Nurweda",
        "postal_code": "97850",
        "latitude": 0.3146599269701802,
        "longitude": 127.83712310010313
    },
    {
        "code": 8202012023,
        "district_code": 820201,
        "regency_code": 8202,
        "province_code": 82,
        "name": "Wedana",
        "postal_code": "97850",
        "latitude": 0.3288315270834534,
        "longitude": 127.82709972519719
    },
    {
        "code": 8202012024,
        "district_code": 820201,
        "regency_code": 8202,
        "province_code": 82,
        "name": "Goeng",
        "postal_code": "97850",
        "latitude": 0.30791390025663967,
        "longitude": 127.86128640908007
    },
    {
        "code": 8202022004,
        "district_code": 820202,
        "regency_code": 8202,
        "province_code": 82,
        "name": "Wailegi",
        "postal_code": "97855",
        "latitude": 0.25033439159337706,
        "longitude": 128.8500857389119
    },
    {
        "code": 8202022005,
        "district_code": 820202,
        "regency_code": 8202,
        "province_code": 82,
        "name": "Kipai",
        "postal_code": "97855",
        "latitude": 0.2998358034246171,
        "longitude": 128.70923300266227
    },
    {
        "code": 8202022006,
        "district_code": 820202,
        "regency_code": 8202,
        "province_code": 82,
        "name": "Yeisowo",
        "postal_code": "97855",
        "latitude": 0.28258356674557217,
        "longitude": 128.77522971103858
    },
    {
        "code": 8202022012,
        "district_code": 820202,
        "regency_code": 8202,
        "province_code": 82,
        "name": "Yondeliu",
        "postal_code": "97855",
        "latitude": 0.28330129045827396,
        "longitude": 128.7565605424532
    },
    {
        "code": 8202022013,
        "district_code": 820202,
        "regency_code": 8202,
        "province_code": 82,
        "name": "Baka Jaya",
        "postal_code": "97855",
        "latitude": 0.27860382729105265,
        "longitude": 128.78583682636182
    },
    {
        "code": 8202032001,
        "district_code": 820203,
        "regency_code": 8202,
        "province_code": 82,
        "name": "Kapaleo",
        "postal_code": "97859",
        "latitude": -0.07730582183589571,
        "longitude": 129.45096876446976
    },
    {
        "code": 8202032002,
        "district_code": 820203,
        "regency_code": 8202,
        "province_code": 82,
        "name": "Kacepi",
        "postal_code": "97859",
        "latitude": -0.08219237768701577,
        "longitude": 129.43658982891185
    },
    {
        "code": 8202032003,
        "district_code": 820203,
        "regency_code": 8202,
        "province_code": 82,
        "name": "Sanafi",
        "postal_code": "97859",
        "latitude": -0.09406600848778884,
        "longitude": 129.47268608657473
    },
    {
        "code": 8202032004,
        "district_code": 820203,
        "regency_code": 8202,
        "province_code": 82,
        "name": "Umera",
        "postal_code": "97859",
        "latitude": -0.18117359067232028,
        "longitude": 129.54294205634537
    },
    {
        "code": 8202032005,
        "district_code": 820203,
        "regency_code": 8202,
        "province_code": 82,
        "name": "Umiyal",
        "postal_code": "97859",
        "latitude": 0.12043465789562607,
        "longitude": 129.74057605486357
    },
    {
        "code": 8202032006,
        "district_code": 820203,
        "regency_code": 8202,
        "province_code": 82,
        "name": "Sonof Kacepo",
        "postal_code": "97859",
        "latitude": -0.13150565232221265,
        "longitude": 129.50958138259838
    },
    {
        "code": 8202032007,
        "district_code": 820203,
        "regency_code": 8202,
        "province_code": 82,
        "name": "Elfanun",
        "postal_code": "97859",
        "latitude": -0.03392911280852472,
        "longitude": 129.38795434359665
    },
    {
        "code": 8202032008,
        "district_code": 820203,
        "regency_code": 8202,
        "province_code": 82,
        "name": "Yang",
        "postal_code": "97859",
        "latitude": -0.0867141716191736,
        "longitude": 129.44698437974864
    },
    {
        "code": 8202042001,
        "district_code": 820204,
        "regency_code": 8202,
        "province_code": 82,
        "name": "Gemaf",
        "postal_code": "97854",
        "latitude": 0.5063234332499714,
        "longitude": 128.03547132143652
    },
    {
        "code": 8202042002,
        "district_code": 820204,
        "regency_code": 8202,
        "province_code": 82,
        "name": "Sagea",
        "postal_code": "97854",
        "latitude": 0.5355600965800001,
        "longitude": 128.07544489497133
    },
    {
        "code": 8202042003,
        "district_code": 820204,
        "regency_code": 8202,
        "province_code": 82,
        "name": "Fritu",
        "postal_code": "97854",
        "latitude": 0.5210280743758552,
        "longitude": 128.15757504977566
    },
    {
        "code": 8202042004,
        "district_code": 820204,
        "regency_code": 8202,
        "province_code": 82,
        "name": "Waleh",
        "postal_code": "97854",
        "latitude": 0.4620862620057763,
        "longitude": 128.1970213113844
    },
    {
        "code": 8202042008,
        "district_code": 820204,
        "regency_code": 8202,
        "province_code": 82,
        "name": "Kiya",
        "postal_code": "97854",
        "latitude": 0.5377565456921206,
        "longitude": 128.11246435332046
    },
    {
        "code": 8202052001,
        "district_code": 820205,
        "regency_code": 8202,
        "province_code": 82,
        "name": "Tilope",
        "postal_code": "97851",
        "latitude": 0.21375667309266835,
        "longitude": 127.86510867405346
    },
    {
        "code": 8202052002,
        "district_code": 820205,
        "regency_code": 8202,
        "province_code": 82,
        "name": "Sosowomo",
        "postal_code": "97851",
        "latitude": 0.1973405681669133,
        "longitude": 127.91271140522643
    },
    {
        "code": 8202052003,
        "district_code": 820205,
        "regency_code": 8202,
        "province_code": 82,
        "name": "Loleo",
        "postal_code": "97851",
        "latitude": 0.26024970330058583,
        "longitude": 127.8613635605736
    },
    {
        "code": 8202052004,
        "district_code": 820205,
        "regency_code": 8202,
        "province_code": 82,
        "name": "Wairoro Indah",
        "postal_code": "97851",
        "latitude": 0.1618765581327953,
        "longitude": 127.84464487470709
    },
    {
        "code": 8202052005,
        "district_code": 820205,
        "regency_code": 8202,
        "province_code": 82,
        "name": "Kluting Jaya",
        "postal_code": "97851",
        "latitude": 0.14509857290338732,
        "longitude": 127.84901401784781
    },
    {
        "code": 8202052006,
        "district_code": 820205,
        "regency_code": 8202,
        "province_code": 82,
        "name": "Lembah Asri",
        "postal_code": "97851",
        "latitude": 0.18482685866432247,
        "longitude": 127.85194923866362
    },
    {
        "code": 8202052007,
        "district_code": 820205,
        "regency_code": 8202,
        "province_code": 82,
        "name": "Sumber Sari",
        "postal_code": "97851",
        "latitude": 0.13298321582442246,
        "longitude": 127.84957099436825
    },
    {
        "code": 8202052008,
        "district_code": 820205,
        "regency_code": 8202,
        "province_code": 82,
        "name": "Air Salobar",
        "postal_code": "97851",
        "latitude": 0.2320756397902887,
        "longitude": 127.86000718267114
    },
    {
        "code": 8202062001,
        "district_code": 820206,
        "regency_code": 8202,
        "province_code": 82,
        "name": "Gemia",
        "postal_code": "97858",
        "latitude": 0.2928565204263476,
        "longitude": 128.80701804114366
    },
    {
        "code": 8202062002,
        "district_code": 820206,
        "regency_code": 8202,
        "province_code": 82,
        "name": "Tepeleo",
        "postal_code": "97858",
        "latitude": 0.31059725777702435,
        "longitude": 128.74256404153937
    },
    {
        "code": 8202062006,
        "district_code": 820206,
        "regency_code": 8202,
        "province_code": 82,
        "name": "Bilifitu",
        "postal_code": "97858",
        "latitude": 0.3128554787987775,
        "longitude": 128.77838810393192
    },
    {
        "code": 8202062007,
        "district_code": 820206,
        "regency_code": 8202,
        "province_code": 82,
        "name": "Tepeleo Batudua",
        "postal_code": "97858",
        "latitude": 0.31470492318212073,
        "longitude": 128.72929845325365
    },
    {
        "code": 8202062008,
        "district_code": 820206,
        "regency_code": 8202,
        "province_code": 82,
        "name": "Pantura Jaya",
        "postal_code": "97858",
        "latitude": 0.32065087831151073,
        "longitude": 128.71027253440724
    },
    {
        "code": 8202062011,
        "district_code": 820206,
        "regency_code": 8202,
        "province_code": 82,
        "name": "Maliforo",
        "postal_code": "97858",
        "latitude": 0.3080243139668719,
        "longitude": 128.75419808936402
    },
    {
        "code": 8202072001,
        "district_code": 820207,
        "regency_code": 8202,
        "province_code": 82,
        "name": "Lililef Waibulan",
        "postal_code": "97853",
        "latitude": 0.5239089507684555,
        "longitude": 127.85363537839308
    },
    {
        "code": 8202072002,
        "district_code": 820207,
        "regency_code": 8202,
        "province_code": 82,
        "name": "Lililef Sawai",
        "postal_code": "97853",
        "latitude": 0.5679150044341225,
        "longitude": 127.97838832351935
    },
    {
        "code": 8202072003,
        "district_code": 820207,
        "regency_code": 8202,
        "province_code": 82,
        "name": "Sawai Itepo",
        "postal_code": "97853",
        "latitude": 0.4595389276470563,
        "longitude": 127.84789587033255
    },
    {
        "code": 8202072004,
        "district_code": 820207,
        "regency_code": 8202,
        "province_code": 82,
        "name": "Kobe",
        "postal_code": "97853",
        "latitude": 0.43384338938300376,
        "longitude": 127.84863347684929
    },
    {
        "code": 8202072005,
        "district_code": 820207,
        "regency_code": 8202,
        "province_code": 82,
        "name": "Woekob",
        "postal_code": "97853",
        "latitude": 0.5158707297571113,
        "longitude": 127.89653580219164
    },
    {
        "code": 8202072006,
        "district_code": 820207,
        "regency_code": 8202,
        "province_code": 82,
        "name": "Woejerana",
        "postal_code": "97853",
        "latitude": 0.5537239018161964,
        "longitude": 127.89551127308683
    },
    {
        "code": 8202072007,
        "district_code": 820207,
        "regency_code": 8202,
        "province_code": 82,
        "name": "Kulo Jaya",
        "postal_code": "97853",
        "latitude": 0.5844942529264279,
        "longitude": 127.8678331530641
    },
    {
        "code": 8202082001,
        "district_code": 820208,
        "regency_code": 8202,
        "province_code": 82,
        "name": "Banemo",
        "postal_code": "97856",
        "latitude": 0.3843215208231957,
        "longitude": 128.59558888263314
    },
    {
        "code": 8202082002,
        "district_code": 820208,
        "regency_code": 8202,
        "province_code": 82,
        "name": "Bobane Jaya",
        "postal_code": "97856",
        "latitude": 0.3428271779629957,
        "longitude": 128.55731021266206
    },
    {
        "code": 8202082003,
        "district_code": 820208,
        "regency_code": 8202,
        "province_code": 82,
        "name": "Bobane Indah",
        "postal_code": "97856",
        "latitude": 0.322817649516692,
        "longitude": 128.61375788515565
    },
    {
        "code": 8202082004,
        "district_code": 820208,
        "regency_code": 8202,
        "province_code": 82,
        "name": "Mareala",
        "postal_code": "97856",
        "latitude": 0.3860478461088621,
        "longitude": 128.5389858694402
    },
    {
        "code": 8202082005,
        "district_code": 820208,
        "regency_code": 8202,
        "province_code": 82,
        "name": "Sibenpope",
        "postal_code": "97856",
        "latitude": 0.4055497552642365,
        "longitude": 128.5018489795646
    },
    {
        "code": 8202092001,
        "district_code": 820209,
        "regency_code": 8202,
        "province_code": 82,
        "name": "Dotte",
        "postal_code": "97852",
        "latitude": 0.4490274851848825,
        "longitude": 128.41679623837393
    },
    {
        "code": 8202092002,
        "district_code": 820209,
        "regency_code": 8202,
        "province_code": 82,
        "name": "Messa",
        "postal_code": "97852",
        "latitude": 0.4746567469100095,
        "longitude": 128.316510570595
    },
    {
        "code": 8202092003,
        "district_code": 820209,
        "regency_code": 8202,
        "province_code": 82,
        "name": "Kotalo",
        "postal_code": "97852",
        "latitude": 0.45691344835350134,
        "longitude": 128.33652774561537
    },
    {
        "code": 8202092004,
        "district_code": 820209,
        "regency_code": 8202,
        "province_code": 82,
        "name": "Yeke",
        "postal_code": "97852",
        "latitude": 0.5034342345608086,
        "longitude": 128.24966508129486
    },
    {
        "code": 8202102001,
        "district_code": 820210,
        "regency_code": 8202,
        "province_code": 82,
        "name": "Sakam",
        "postal_code": "97857",
        "latitude": 0.5089789218057231,
        "longitude": 128.7784667245931
    },
    {
        "code": 8202102002,
        "district_code": 820210,
        "regency_code": 8202,
        "province_code": 82,
        "name": "Nursifa",
        "postal_code": "97857",
        "latitude": 0.455194476427679,
        "longitude": 128.65890240044064
    },
    {
        "code": 8202102003,
        "district_code": 820210,
        "regency_code": 8202,
        "province_code": 82,
        "name": "Damuli",
        "postal_code": "97857",
        "latitude": 0.41889593288831384,
        "longitude": 128.65920038700156
    },
    {
        "code": 8202102004,
        "district_code": 820210,
        "regency_code": 8202,
        "province_code": 82,
        "name": "Peniti",
        "postal_code": "97857",
        "latitude": 0.37889406675876747,
        "longitude": 128.630604165857
    },
    {
        "code": 8202102005,
        "district_code": 820210,
        "regency_code": 8202,
        "province_code": 82,
        "name": "Masure",
        "postal_code": "97857",
        "latitude": 0.3779808032403179,
        "longitude": 128.66084968495116
    },
    {
        "code": 8202102006,
        "district_code": 820210,
        "regency_code": 8202,
        "province_code": 82,
        "name": "Palo",
        "postal_code": "97857",
        "latitude": 0.33599338055252365,
        "longitude": 128.6596770395843
    },
    {
        "code": 8203042001,
        "district_code": 820304,
        "regency_code": 8203,
        "province_code": 82,
        "name": "Soa-Sio",
        "postal_code": "97761",
        "latitude": 1.8232988704649935,
        "longitude": 127.84391738720183
    },
    {
        "code": 8203042002,
        "district_code": 820304,
        "regency_code": 8203,
        "province_code": 82,
        "name": "Pune",
        "postal_code": "97761",
        "latitude": 1.788517368041344,
        "longitude": 127.85041058141827
    },
    {
        "code": 8203042003,
        "district_code": 820304,
        "regency_code": 8203,
        "province_code": 82,
        "name": "Mamuya",
        "postal_code": "97761",
        "latitude": 1.7655035733995537,
        "longitude": 127.88590553227053
    },
    {
        "code": 8203042016,
        "district_code": 820304,
        "regency_code": 8203,
        "province_code": 82,
        "name": "Toweka",
        "postal_code": "97761",
        "latitude": 1.838295327759574,
        "longitude": 127.83248170266907
    },
    {
        "code": 8203042024,
        "district_code": 820304,
        "regency_code": 8203,
        "province_code": 82,
        "name": "Simau",
        "postal_code": "97761",
        "latitude": 1.8721916915580143,
        "longitude": 127.83302799886643
    },
    {
        "code": 8203042031,
        "district_code": 820304,
        "regency_code": 8203,
        "province_code": 82,
        "name": "Barataku",
        "postal_code": "97761",
        "latitude": 1.8315031766568874,
        "longitude": 127.83480649844468
    },
    {
        "code": 8203042032,
        "district_code": 820304,
        "regency_code": 8203,
        "province_code": 82,
        "name": "Towara",
        "postal_code": "97761",
        "latitude": 1.8242332085835695,
        "longitude": 127.8345128017889
    },
    {
        "code": 8203052004,
        "district_code": 820305,
        "regency_code": 8203,
        "province_code": 82,
        "name": "Gamsungi",
        "postal_code": "97762",
        "latitude": 1.724149625066345,
        "longitude": 127.99191944820707
    },
    {
        "code": 8203052005,
        "district_code": 820305,
        "regency_code": 8203,
        "province_code": 82,
        "name": "Gura",
        "postal_code": "97762",
        "latitude": 1.735529838969441,
        "longitude": 128.00717191325398
    },
    {
        "code": 8203052006,
        "district_code": 820305,
        "regency_code": 8203,
        "province_code": 82,
        "name": "Wari",
        "postal_code": "97762",
        "latitude": 1.7366089737698795,
        "longitude": 127.98127178829999
    },
    {
        "code": 8203052012,
        "district_code": 820305,
        "regency_code": 8203,
        "province_code": 82,
        "name": "Kakara",
        "postal_code": "97762",
        "latitude": 1.749317531937895,
        "longitude": 128.04281485121282
    },
    {
        "code": 8203052013,
        "district_code": 820305,
        "regency_code": 8203,
        "province_code": 82,
        "name": "Kumo",
        "postal_code": "97762",
        "latitude": 1.7293220200511568,
        "longitude": 128.0249082340707
    },
    {
        "code": 8203052014,
        "district_code": 820305,
        "regency_code": 8203,
        "province_code": 82,
        "name": "Gosoma",
        "postal_code": "97762",
        "latitude": 1.7027158415492982,
        "longitude": 127.9551029778289
    },
    {
        "code": 8203052015,
        "district_code": 820305,
        "regency_code": 8203,
        "province_code": 82,
        "name": "Rawajaya",
        "postal_code": "97762",
        "latitude": 1.7180785922250568,
        "longitude": 128.01313294516015
    },
    {
        "code": 8203052018,
        "district_code": 820305,
        "regency_code": 8203,
        "province_code": 82,
        "name": "MKCM",
        "postal_code": "97762",
        "latitude": 1.723973332945151,
        "longitude": 127.97168835643491
    },
    {
        "code": 8203052024,
        "district_code": 820305,
        "regency_code": 8203,
        "province_code": 82,
        "name": "Tagalaya",
        "postal_code": "97762",
        "latitude": 1.729857475106159,
        "longitude": 128.06690055043543
    },
    {
        "code": 8203052025,
        "district_code": 820305,
        "regency_code": 8203,
        "province_code": 82,
        "name": "Wari Ino",
        "postal_code": "97762",
        "latitude": 1.6734020500083615,
        "longitude": 127.82256868026926
    },
    {
        "code": 8203062001,
        "district_code": 820306,
        "regency_code": 8203,
        "province_code": 82,
        "name": "Kupa Kupa",
        "postal_code": "97768",
        "latitude": 1.6422025825020432,
        "longitude": 127.9466795284467
    },
    {
        "code": 8203062002,
        "district_code": 820306,
        "regency_code": 8203,
        "province_code": 82,
        "name": "Gamhoku",
        "postal_code": "97768",
        "latitude": 1.66393350018249,
        "longitude": 127.97394467156207
    },
    {
        "code": 8203062003,
        "district_code": 820306,
        "regency_code": 8203,
        "province_code": 82,
        "name": "Efi Efi",
        "postal_code": "97768",
        "latitude": 1.6467190515655998,
        "longitude": 127.98000220257809
    },
    {
        "code": 8203062004,
        "district_code": 820306,
        "regency_code": 8203,
        "province_code": 82,
        "name": "Tomahalu",
        "postal_code": "97768",
        "latitude": 1.6397239150030807,
        "longitude": 127.99316056955661
    },
    {
        "code": 8203062005,
        "district_code": 820306,
        "regency_code": 8203,
        "province_code": 82,
        "name": "Paca",
        "postal_code": "97768",
        "latitude": 1.6024546607536074,
        "longitude": 127.98721824453712
    },
    {
        "code": 8203062006,
        "district_code": 820306,
        "regency_code": 8203,
        "province_code": 82,
        "name": "Leleoto",
        "postal_code": "97768",
        "latitude": 1.5839312670497443,
        "longitude": 127.98433144193599
    },
    {
        "code": 8203062009,
        "district_code": 820306,
        "regency_code": 8203,
        "province_code": 82,
        "name": "Tobe",
        "postal_code": "97768",
        "latitude": 1.6080940765254854,
        "longitude": 127.94880168129207
    },
    {
        "code": 8203062015,
        "district_code": 820306,
        "regency_code": 8203,
        "province_code": 82,
        "name": "Kakara B",
        "postal_code": "97768",
        "latitude": 1.6367568597860924,
        "longitude": 127.98721717579654
    },
    {
        "code": 8203062018,
        "district_code": 820306,
        "regency_code": 8203,
        "province_code": 82,
        "name": "Talaga Paca",
        "postal_code": "97768",
        "latitude": 1.5963946077147713,
        "longitude": 127.91580964991316
    },
    {
        "code": 8203062020,
        "district_code": 820306,
        "regency_code": 8203,
        "province_code": 82,
        "name": "Tioua",
        "postal_code": "97768",
        "latitude": 1.6549466447036651,
        "longitude": 127.97168228854784
    },
    {
        "code": 8203062021,
        "district_code": 820306,
        "regency_code": 8203,
        "province_code": 82,
        "name": "Pale",
        "postal_code": "97768",
        "latitude": 1.6739434439453391,
        "longitude": 127.98362913240037
    },
    {
        "code": 8203062022,
        "district_code": 820306,
        "regency_code": 8203,
        "province_code": 82,
        "name": "Kupa-kupa Selatan",
        "postal_code": "97768",
        "latitude": 1.6257461955080243,
        "longitude": 127.95213329018394
    },
    {
        "code": 8203062024,
        "district_code": 820306,
        "regency_code": 8203,
        "province_code": 82,
        "name": "Lemah Ino",
        "postal_code": "97768",
        "latitude": 1.6153652201946214,
        "longitude": 127.94769139834678
    },
    {
        "code": 8203072001,
        "district_code": 820307,
        "regency_code": 8203,
        "province_code": 82,
        "name": "Kao",
        "postal_code": "97764",
        "latitude": 1.1611167855385232,
        "longitude": 127.88796604774107
    },
    {
        "code": 8203072002,
        "district_code": 820307,
        "regency_code": 8203,
        "province_code": 82,
        "name": "Jati",
        "postal_code": "97764",
        "latitude": 1.180800738431341,
        "longitude": 127.89080175855788
    },
    {
        "code": 8203072003,
        "district_code": 820307,
        "regency_code": 8203,
        "province_code": 82,
        "name": "Kusu",
        "postal_code": "97764",
        "latitude": 1.174775493002176,
        "longitude": 127.9000517999965
    },
    {
        "code": 8203072009,
        "district_code": 820307,
        "regency_code": 8203,
        "province_code": 82,
        "name": "Waringin Lelewi",
        "postal_code": "97764",
        "latitude": 1.184507922581335,
        "longitude": 127.86746821111166
    },
    {
        "code": 8203072010,
        "district_code": 820307,
        "regency_code": 8203,
        "province_code": 82,
        "name": "Soa Sangaji Dim-Dim",
        "postal_code": "97764",
        "latitude": 1.1875190456619569,
        "longitude": 127.87480718103558
    },
    {
        "code": 8203072011,
        "district_code": 820307,
        "regency_code": 8203,
        "province_code": 82,
        "name": "Sasur",
        "postal_code": "97764",
        "latitude": 1.2371794218882324,
        "longitude": 127.85971055740752
    },
    {
        "code": 8203072012,
        "district_code": 820307,
        "regency_code": 8203,
        "province_code": 82,
        "name": "Popon",
        "postal_code": "97764",
        "latitude": 1.26674110379851,
        "longitude": 127.85610482484054
    },
    {
        "code": 8203072036,
        "district_code": 820307,
        "regency_code": 8203,
        "province_code": 82,
        "name": "Biang",
        "postal_code": "97764",
        "latitude": 1.249830980573623,
        "longitude": 127.93661818575241
    },
    {
        "code": 8203072037,
        "district_code": 820307,
        "regency_code": 8203,
        "province_code": 82,
        "name": "Patang",
        "postal_code": "97764",
        "latitude": 1.2381873045324105,
        "longitude": 127.8995076776656
    },
    {
        "code": 8203072038,
        "district_code": 820307,
        "regency_code": 8203,
        "province_code": 82,
        "name": "Kukumutuk",
        "postal_code": "97764",
        "latitude": 1.223442711531291,
        "longitude": 127.8895845091569
    },
    {
        "code": 8203072039,
        "district_code": 820307,
        "regency_code": 8203,
        "province_code": 82,
        "name": "Waringin Lamo",
        "postal_code": "97764",
        "latitude": 1.2632537919209117,
        "longitude": 127.88577309380419
    },
    {
        "code": 8203072050,
        "district_code": 820307,
        "regency_code": 8203,
        "province_code": 82,
        "name": "Goruang",
        "postal_code": "97764",
        "latitude": 1.1796006215509978,
        "longitude": 127.90107059722274
    },
    {
        "code": 8203072051,
        "district_code": 820307,
        "regency_code": 8203,
        "province_code": 82,
        "name": "Kusu Lofra",
        "postal_code": "97764",
        "latitude": 1.203494936878247,
        "longitude": 127.88558426519475
    },
    {
        "code": 8203072052,
        "district_code": 820307,
        "regency_code": 8203,
        "province_code": 82,
        "name": "Sumber Agung",
        "postal_code": "97764",
        "latitude": 1.297319029701352,
        "longitude": 127.89068429753964
    },
    {
        "code": 8203082001,
        "district_code": 820308,
        "regency_code": 8203,
        "province_code": 82,
        "name": "Ngofa Kiaha",
        "postal_code": "97766",
        "latitude": 1.153792048518993,
        "longitude": 127.82941517323063
    },
    {
        "code": 8203082002,
        "district_code": 820308,
        "regency_code": 8203,
        "province_code": 82,
        "name": "Ngofa Gita",
        "postal_code": "97766",
        "latitude": 1.1503849524799068,
        "longitude": 127.83152351565205
    },
    {
        "code": 8203082003,
        "district_code": 820308,
        "regency_code": 8203,
        "province_code": 82,
        "name": "Samsuma",
        "postal_code": "97766",
        "latitude": 1.1631389731079205,
        "longitude": 127.79810403674587
    },
    {
        "code": 8203082004,
        "district_code": 820308,
        "regency_code": 8203,
        "province_code": 82,
        "name": "Tahane",
        "postal_code": "97766",
        "latitude": 1.1436281389010783,
        "longitude": 127.78803349049075
    },
    {
        "code": 8203082005,
        "district_code": 820308,
        "regency_code": 8203,
        "province_code": 82,
        "name": "Matsa",
        "postal_code": "97766",
        "latitude": 1.179934352375065,
        "longitude": 127.73693942920757
    },
    {
        "code": 8203082007,
        "district_code": 820308,
        "regency_code": 8203,
        "province_code": 82,
        "name": "Bobawa",
        "postal_code": "97766",
        "latitude": 1.1587637927120094,
        "longitude": 127.82084829901996
    },
    {
        "code": 8203082008,
        "district_code": 820308,
        "regency_code": 8203,
        "province_code": 82,
        "name": "Talapao",
        "postal_code": "97766",
        "latitude": 1.1621583513307843,
        "longitude": 127.82969938380002
    },
    {
        "code": 8203082009,
        "district_code": 820308,
        "regency_code": 8203,
        "province_code": 82,
        "name": "Tafasoho",
        "postal_code": "97766",
        "latitude": 1.197974468408255,
        "longitude": 127.76088400197617
    },
    {
        "code": 8203082010,
        "district_code": 820308,
        "regency_code": 8203,
        "province_code": 82,
        "name": "Sabaleh",
        "postal_code": "97766",
        "latitude": 1.169517595422413,
        "longitude": 127.8327894781719
    },
    {
        "code": 8203082011,
        "district_code": 820308,
        "regency_code": 8203,
        "province_code": 82,
        "name": "Tagono",
        "postal_code": "97766",
        "latitude": 1.1599263912453812,
        "longitude": 127.83158391862408
    },
    {
        "code": 8203082012,
        "district_code": 820308,
        "regency_code": 8203,
        "province_code": 82,
        "name": "Soma",
        "postal_code": "97766",
        "latitude": 1.1591575017372797,
        "longitude": 127.8342056210518
    },
    {
        "code": 8203082013,
        "district_code": 820308,
        "regency_code": 8203,
        "province_code": 82,
        "name": "Ngofa Bobawa",
        "postal_code": "97766",
        "latitude": 1.1570064560253124,
        "longitude": 127.83164341993447
    },
    {
        "code": 8203082014,
        "district_code": 820308,
        "regency_code": 8203,
        "province_code": 82,
        "name": "Malapa",
        "postal_code": "97766",
        "latitude": 1.1544472783107846,
        "longitude": 127.8329505043359
    },
    {
        "code": 8203082015,
        "district_code": 820308,
        "regency_code": 8203,
        "province_code": 82,
        "name": "Mailoa",
        "postal_code": "97766",
        "latitude": 1.1563927225013217,
        "longitude": 127.83566285298993
    },
    {
        "code": 8203082016,
        "district_code": 820308,
        "regency_code": 8203,
        "province_code": 82,
        "name": "Peleri",
        "postal_code": "97766",
        "latitude": 1.1511086584661445,
        "longitude": 127.83698401332133
    },
    {
        "code": 8203082019,
        "district_code": 820308,
        "regency_code": 8203,
        "province_code": 82,
        "name": "Bukit Tinggi",
        "postal_code": "97766",
        "latitude": 1.1490603893552973,
        "longitude": 127.702665816933
    },
    {
        "code": 8203082022,
        "district_code": 820308,
        "regency_code": 8203,
        "province_code": 82,
        "name": "Terpadu",
        "postal_code": "97766",
        "latitude": 1.1652499048582796,
        "longitude": 127.83865205591871
    },
    {
        "code": 8203082023,
        "district_code": 820308,
        "regency_code": 8203,
        "province_code": 82,
        "name": "Tabobo",
        "postal_code": "97766",
        "latitude": 1.1160612255772804,
        "longitude": 127.68102453081598
    },
    {
        "code": 8203082024,
        "district_code": 820308,
        "regency_code": 8203,
        "province_code": 82,
        "name": "Balisosang",
        "postal_code": "97766",
        "latitude": 1.133930081046258,
        "longitude": 127.76465445521097
    },
    {
        "code": 8203082025,
        "district_code": 820308,
        "regency_code": 8203,
        "province_code": 82,
        "name": "Sosol\/Malifut",
        "postal_code": "97766",
        "latitude": 1.1469505929724817,
        "longitude": 127.82375346600963
    },
    {
        "code": 8203082026,
        "district_code": 820308,
        "regency_code": 8203,
        "province_code": 82,
        "name": "Wangeotek",
        "postal_code": "97766",
        "latitude": 1.1596309682837527,
        "longitude": 127.85525004381621
    },
    {
        "code": 8203082027,
        "district_code": 820308,
        "regency_code": 8203,
        "province_code": 82,
        "name": "Gayok",
        "postal_code": "97766",
        "latitude": 1.2148453603116005,
        "longitude": 127.8299128755777
    },
    {
        "code": 8203092001,
        "district_code": 820309,
        "regency_code": 8203,
        "province_code": 82,
        "name": "Dorume",
        "postal_code": "97763",
        "latitude": 2.0833154496288953,
        "longitude": 127.87757857517198
    },
    {
        "code": 8203092002,
        "district_code": 820309,
        "regency_code": 8203,
        "province_code": 82,
        "name": "Apule",
        "postal_code": "97763",
        "latitude": 1.9606730721639145,
        "longitude": 127.75223978699499
    },
    {
        "code": 8203092003,
        "district_code": 820309,
        "regency_code": 8203,
        "province_code": 82,
        "name": "Asimiro",
        "postal_code": "97763",
        "latitude": 1.9640377823991213,
        "longitude": 127.78334560146023
    },
    {
        "code": 8203092004,
        "district_code": 820309,
        "regency_code": 8203,
        "province_code": 82,
        "name": "Doitia",
        "postal_code": "97763",
        "latitude": 2.02378152487464,
        "longitude": 127.82483527678312
    },
    {
        "code": 8203092005,
        "district_code": 820309,
        "regency_code": 8203,
        "province_code": 82,
        "name": "Ngajam",
        "postal_code": "97763",
        "latitude": 2.0638151033915073,
        "longitude": 127.87315604675145
    },
    {
        "code": 8203092006,
        "district_code": 820309,
        "regency_code": 8203,
        "province_code": 82,
        "name": "Kailupa",
        "postal_code": "97763",
        "latitude": 2.104000375845505,
        "longitude": 127.89378233227025
    },
    {
        "code": 8203092007,
        "district_code": 820309,
        "regency_code": 8203,
        "province_code": 82,
        "name": "Gisik",
        "postal_code": "97763",
        "latitude": 2.116904807616486,
        "longitude": 127.91913938868687
    },
    {
        "code": 8203092008,
        "district_code": 820309,
        "regency_code": 8203,
        "province_code": 82,
        "name": "Kapa Kapa",
        "postal_code": "97763",
        "latitude": 2.142023029772425,
        "longitude": 127.93847647137136
    },
    {
        "code": 8203092009,
        "district_code": 820309,
        "regency_code": 8203,
        "province_code": 82,
        "name": "Pacao",
        "postal_code": "97763",
        "latitude": 2.1551698760619487,
        "longitude": 127.94733479673654
    },
    {
        "code": 8203092010,
        "district_code": 820309,
        "regency_code": 8203,
        "province_code": 82,
        "name": "Tate",
        "postal_code": "97763",
        "latitude": 2.1724407645318333,
        "longitude": 127.94968864066895
    },
    {
        "code": 8203092011,
        "district_code": 820309,
        "regency_code": 8203,
        "province_code": 82,
        "name": "Posi- Posi",
        "postal_code": "97763",
        "latitude": 2.1987030257541695,
        "longitude": 127.96153887438977
    },
    {
        "code": 8203092012,
        "district_code": 820309,
        "regency_code": 8203,
        "province_code": 82,
        "name": "Supu",
        "postal_code": "97763",
        "latitude": 2.190020216581858,
        "longitude": 127.97170808184602
    },
    {
        "code": 8203092022,
        "district_code": 820309,
        "regency_code": 8203,
        "province_code": 82,
        "name": "Igo",
        "postal_code": "97763",
        "latitude": 2.1912755879909356,
        "longitude": 128.03493404610523
    },
    {
        "code": 8203092023,
        "district_code": 820309,
        "regency_code": 8203,
        "province_code": 82,
        "name": "Galao",
        "postal_code": "97763",
        "latitude": 2.130355582273425,
        "longitude": 127.93234241978982
    },
    {
        "code": 8203092024,
        "district_code": 820309,
        "regency_code": 8203,
        "province_code": 82,
        "name": "Teru-Teru",
        "postal_code": "97763",
        "latitude": 2.17454865760527,
        "longitude": 128.00745044207926
    },
    {
        "code": 8203092026,
        "district_code": 820309,
        "regency_code": 8203,
        "province_code": 82,
        "name": "Wori Moi",
        "postal_code": "97763",
        "latitude": 2.048301574256853,
        "longitude": 127.85111152906671
    },
    {
        "code": 8203092027,
        "district_code": 820309,
        "regency_code": 8203,
        "province_code": 82,
        "name": "Podol",
        "postal_code": "97763",
        "latitude": 2.1633099611967705,
        "longitude": 127.97991442914272
    },
    {
        "code": 8203092028,
        "district_code": 820309,
        "regency_code": 8203,
        "province_code": 82,
        "name": "Momojiu",
        "postal_code": "97763",
        "latitude": 1.996977636079122,
        "longitude": 127.80404070361949
    },
    {
        "code": 8203102001,
        "district_code": 820310,
        "regency_code": 8203,
        "province_code": 82,
        "name": "Gorua",
        "postal_code": "97767",
        "latitude": 1.7538904924486443,
        "longitude": 127.97202409305902
    },
    {
        "code": 8203102002,
        "district_code": 820310,
        "regency_code": 8203,
        "province_code": 82,
        "name": "Popilo",
        "postal_code": "97767",
        "latitude": 1.7249507588989115,
        "longitude": 127.92297953902064
    },
    {
        "code": 8203102003,
        "district_code": 820310,
        "regency_code": 8203,
        "province_code": 82,
        "name": "Luari",
        "postal_code": "97767",
        "latitude": 1.7986426338433381,
        "longitude": 127.92274055828912
    },
    {
        "code": 8203102004,
        "district_code": 820310,
        "regency_code": 8203,
        "province_code": 82,
        "name": "Popilo Utara",
        "postal_code": "97767",
        "latitude": 1.702145132779142,
        "longitude": 127.81319955257818
    },
    {
        "code": 8203102005,
        "district_code": 820310,
        "regency_code": 8203,
        "province_code": 82,
        "name": "Tolonuo",
        "postal_code": "97767",
        "latitude": 1.78714902709711,
        "longitude": 128.00304910873868
    },
    {
        "code": 8203102006,
        "district_code": 820310,
        "regency_code": 8203,
        "province_code": 82,
        "name": "Gorua Selatan",
        "postal_code": "97767",
        "latitude": 1.7543249673484602,
        "longitude": 127.98293101677218
    },
    {
        "code": 8203102007,
        "district_code": 820310,
        "regency_code": 8203,
        "province_code": 82,
        "name": "Gorua Utara",
        "postal_code": "97767",
        "latitude": 1.7429219405873004,
        "longitude": 127.95266177834358
    },
    {
        "code": 8203102008,
        "district_code": 820310,
        "regency_code": 8203,
        "province_code": 82,
        "name": "Kokota Jaya",
        "postal_code": "97767",
        "latitude": 1.7473913379467845,
        "longitude": 127.92038446411227
    },
    {
        "code": 8203102009,
        "district_code": 820310,
        "regency_code": 8203,
        "province_code": 82,
        "name": "Ruko",
        "postal_code": "97767",
        "latitude": 1.7796646478124993,
        "longitude": 127.93389886012659
    },
    {
        "code": 8203102010,
        "district_code": 820310,
        "regency_code": 8203,
        "province_code": 82,
        "name": "Tolonua Selatan",
        "postal_code": "97767",
        "latitude": 1.7729035006294185,
        "longitude": 128.01323590847065
    },
    {
        "code": 8203112001,
        "district_code": 820311,
        "regency_code": 8203,
        "province_code": 82,
        "name": "Upa",
        "postal_code": "97768",
        "latitude": 1.6697969321001906,
        "longitude": 127.94760582060924
    },
    {
        "code": 8203112002,
        "district_code": 820311,
        "regency_code": 8203,
        "province_code": 82,
        "name": "Pitu",
        "postal_code": "97768",
        "latitude": 1.6420766143954664,
        "longitude": 127.83662290861585
    },
    {
        "code": 8203112003,
        "district_code": 820311,
        "regency_code": 8203,
        "province_code": 82,
        "name": "Wosia",
        "postal_code": "97768",
        "latitude": 1.7099742233086652,
        "longitude": 128.0122710607691
    },
    {
        "code": 8203112004,
        "district_code": 820311,
        "regency_code": 8203,
        "province_code": 82,
        "name": "WKO",
        "postal_code": "97768",
        "latitude": 1.7026085318925308,
        "longitude": 128.00044126110197
    },
    {
        "code": 8203112005,
        "district_code": 820311,
        "regency_code": 8203,
        "province_code": 82,
        "name": "Kalipitu",
        "postal_code": "97768",
        "latitude": 1.6982842806049427,
        "longitude": 127.97590426226928
    },
    {
        "code": 8203112006,
        "district_code": 820311,
        "regency_code": 8203,
        "province_code": 82,
        "name": "Kali Upa",
        "postal_code": "97768",
        "latitude": 1.673186173534903,
        "longitude": 127.99896061323687
    },
    {
        "code": 8203112007,
        "district_code": 820311,
        "regency_code": 8203,
        "province_code": 82,
        "name": "Lina Ino",
        "postal_code": "97768",
        "latitude": 1.6843492175425443,
        "longitude": 128.02301392156295
    },
    {
        "code": 8203112008,
        "district_code": 820311,
        "regency_code": 8203,
        "province_code": 82,
        "name": "Mahia (Wosia Tengah)",
        "postal_code": "97768",
        "latitude": 1.7050270185653809,
        "longitude": 128.01359523651976
    },
    {
        "code": 8203112009,
        "district_code": 820311,
        "regency_code": 8203,
        "province_code": 82,
        "name": "Tanjung Niara (Wosia Selatan)",
        "postal_code": "97768",
        "latitude": 1.699521138842073,
        "longitude": 128.01493504090456
    },
    {
        "code": 8203122001,
        "district_code": 820312,
        "regency_code": 8203,
        "province_code": 82,
        "name": "Yaro",
        "postal_code": "97767",
        "latitude": 1.575076647059388,
        "longitude": 127.98987864233584
    },
    {
        "code": 8203122002,
        "district_code": 820312,
        "regency_code": 8203,
        "province_code": 82,
        "name": "Mawea",
        "postal_code": "97767",
        "latitude": 1.4996050559757166,
        "longitude": 128.0086975892089
    },
    {
        "code": 8203122003,
        "district_code": 820312,
        "regency_code": 8203,
        "province_code": 82,
        "name": "Meti",
        "postal_code": "97767",
        "latitude": 1.5678843976322805,
        "longitude": 128.03046730949228
    },
    {
        "code": 8203122004,
        "district_code": 820312,
        "regency_code": 8203,
        "province_code": 82,
        "name": "Katana",
        "postal_code": "97767",
        "latitude": 1.5472426987401793,
        "longitude": 127.99675594674896
    },
    {
        "code": 8203122005,
        "district_code": 820312,
        "regency_code": 8203,
        "province_code": 82,
        "name": "Gonga",
        "postal_code": "97767",
        "latitude": 1.523265445765657,
        "longitude": 128.0070858141396
    },
    {
        "code": 8203122006,
        "district_code": 820312,
        "regency_code": 8203,
        "province_code": 82,
        "name": "Todokuiha",
        "postal_code": "97767",
        "latitude": 1.5819314472344097,
        "longitude": 128.02221902858864
    },
    {
        "code": 8203132001,
        "district_code": 820313,
        "regency_code": 8203,
        "province_code": 82,
        "name": "Kusuri",
        "postal_code": "97762",
        "latitude": 1.5027232666824806,
        "longitude": 127.83383115970275
    },
    {
        "code": 8203132002,
        "district_code": 820313,
        "regency_code": 8203,
        "province_code": 82,
        "name": "Sukamaju",
        "postal_code": "97762",
        "latitude": 1.500032714268104,
        "longitude": 127.96648840971355
    },
    {
        "code": 8203132003,
        "district_code": 820313,
        "regency_code": 8203,
        "province_code": 82,
        "name": "Togoliua",
        "postal_code": "97762",
        "latitude": 1.546786127421731,
        "longitude": 127.93022272771492
    },
    {
        "code": 8203132004,
        "district_code": 820313,
        "regency_code": 8203,
        "province_code": 82,
        "name": "Birinoa",
        "postal_code": "97762",
        "latitude": 1.5279455738966898,
        "longitude": 127.92367689090939
    },
    {
        "code": 8203132005,
        "district_code": 820313,
        "regency_code": 8203,
        "province_code": 82,
        "name": "Wangongira",
        "postal_code": "97762",
        "latitude": 1.5752483545718805,
        "longitude": 127.81373157643098
    },
    {
        "code": 8203142001,
        "district_code": 820314,
        "regency_code": 8203,
        "province_code": 82,
        "name": "Soatobaru",
        "postal_code": "97761",
        "latitude": 1.8294434798390307,
        "longitude": 127.75663021136663
    },
    {
        "code": 8203142002,
        "district_code": 820314,
        "regency_code": 8203,
        "province_code": 82,
        "name": "Dokulamo",
        "postal_code": "97761",
        "latitude": 1.8428231467734228,
        "longitude": 127.77224474883043
    },
    {
        "code": 8203142003,
        "district_code": 820314,
        "regency_code": 8203,
        "province_code": 82,
        "name": "Duma",
        "postal_code": "97761",
        "latitude": 1.8611915855021828,
        "longitude": 127.77405500785628
    },
    {
        "code": 8203142004,
        "district_code": 820314,
        "regency_code": 8203,
        "province_code": 82,
        "name": "Gotalamo",
        "postal_code": "97761",
        "latitude": 1.8745586713504707,
        "longitude": 127.79806303240716
    },
    {
        "code": 8203142005,
        "district_code": 820314,
        "regency_code": 8203,
        "province_code": 82,
        "name": "Makete",
        "postal_code": "97761",
        "latitude": 1.8394791925279272,
        "longitude": 127.81133589653204
    },
    {
        "code": 8203142006,
        "district_code": 820314,
        "regency_code": 8203,
        "province_code": 82,
        "name": "Ngidiho",
        "postal_code": "97761",
        "latitude": 1.8275942344441058,
        "longitude": 127.81097872279732
    },
    {
        "code": 8203142007,
        "district_code": 820314,
        "regency_code": 8203,
        "province_code": 82,
        "name": "Roko",
        "postal_code": "97761",
        "latitude": 1.8595721189002135,
        "longitude": 127.75192610552864
    },
    {
        "code": 8203142008,
        "district_code": 820314,
        "regency_code": 8203,
        "province_code": 82,
        "name": "Samuda",
        "postal_code": "97761",
        "latitude": 1.7798507875368639,
        "longitude": 127.7455139184852
    },
    {
        "code": 8203142009,
        "district_code": 820314,
        "regency_code": 8203,
        "province_code": 82,
        "name": "Kira",
        "postal_code": "97761",
        "latitude": 1.8472201487828364,
        "longitude": 127.78702892797493
    },
    {
        "code": 8203152001,
        "district_code": 820315,
        "regency_code": 8203,
        "province_code": 82,
        "name": "Limau",
        "postal_code": "97769",
        "latitude": 1.9262487787209064,
        "longitude": 127.8219132274593
    },
    {
        "code": 8203152002,
        "district_code": 820315,
        "regency_code": 8203,
        "province_code": 82,
        "name": "Lalonga",
        "postal_code": "97769",
        "latitude": 1.961929241648922,
        "longitude": 127.84759623610663
    },
    {
        "code": 8203152003,
        "district_code": 820315,
        "regency_code": 8203,
        "province_code": 82,
        "name": "Bobisingo",
        "postal_code": "97769",
        "latitude": 1.980283615011179,
        "longitude": 127.87884648928777
    },
    {
        "code": 8203152004,
        "district_code": 820315,
        "regency_code": 8203,
        "province_code": 82,
        "name": "Salimuli",
        "postal_code": "97769",
        "latitude": 2.012782553615816,
        "longitude": 127.90390638788548
    },
    {
        "code": 8203152005,
        "district_code": 820315,
        "regency_code": 8203,
        "province_code": 82,
        "name": "Tutumaloleo",
        "postal_code": "97769",
        "latitude": 2.0268187053505513,
        "longitude": 127.92275084308457
    },
    {
        "code": 8203152006,
        "district_code": 820315,
        "regency_code": 8203,
        "province_code": 82,
        "name": "Saluta",
        "postal_code": "97769",
        "latitude": 2.076888944242277,
        "longitude": 127.95155583128735
    },
    {
        "code": 8203152007,
        "district_code": 820315,
        "regency_code": 8203,
        "province_code": 82,
        "name": "Jere",
        "postal_code": "97769",
        "latitude": 2.1552831249587183,
        "longitude": 128.0317518371351
    },
    {
        "code": 8203152008,
        "district_code": 820315,
        "regency_code": 8203,
        "province_code": 82,
        "name": "Dodowo",
        "postal_code": "97769",
        "latitude": 1.991400572983776,
        "longitude": 127.90323586280836
    },
    {
        "code": 8203152009,
        "district_code": 820315,
        "regency_code": 8203,
        "province_code": 82,
        "name": "Togasa",
        "postal_code": "97769",
        "latitude": 2.056174940674599,
        "longitude": 127.9249827919215
    },
    {
        "code": 8203152010,
        "district_code": 820315,
        "regency_code": 8203,
        "province_code": 82,
        "name": "Beringin Jaya",
        "postal_code": "97769",
        "latitude": 2.1356569370721075,
        "longitude": 128.00137940101595
    },