[
    {
        "code": 3101,
        "province_code": 31,
        "name": "Kab. Adm. Kep. Seribu",
        "latitude": -5.700366519193108,
        "longitude": 106.57895590245003
    },
    {
        "code": 3171,
        "province_code": 31,
        "name": "Kota Adm. Jakarta Pusat",
        "latitude": -6.181200074228588,
        "longitude": 106.83512454642566
    },
    {
        "code": 3172,
        "province_code": 31,
        "name": "Kota Adm. Jakarta Utara",
        "latitude": -6.127183230275113,
        "longitude": 106.86661440635285
    },
    {
        "code": 3173,
        "province_code": 31,
        "name": "Kota Adm. Jakarta Barat",
        "latitude": -6.1653326687532815,
        "longitude": 106.74830052457504
    },
    {
        "code": 3174,
        "province_code": 31,
        "name": "Kota Adm. Jakarta Selatan",
        "latitude": -6.2726047320060445,
        "longitude": 106.81003987805606
    },
    {
        "code": 3175,
        "province_code": 31,
        "name": "Kota Adm. Jakarta Timur",
        "latitude": -6.254966081116928,
        "longitude": 106.90069115569183
    }
]