[
    {
        "code": 9501011001,
        "district_code": 950101,
        "regency_code": 9501,
        "province_code": 95,
        "name": "Wamena Kota",
        "postal_code": "99511",
        "latitude": -4.101806825674288,
        "longitude": 138.94578622270956
    },
    {
        "code": 9501011006,
        "district_code": 950101,
        "regency_code": 9501,
        "province_code": 95,
        "name": "Sinapuk",
        "postal_code": null,
        "latitude": -4.082367611659751,
        "longitude": 138.94737522584114
    },
    {
        "code": 9501011007,
        "district_code": 950101,
        "regency_code": 9501,
        "province_code": 95,
        "name": "Sinakma",
        "postal_code": null,
        "latitude": -4.095127016479898,
        "longitude": 138.93893858103476
    },
    {
        "code": 9501012002,
        "district_code": 950101,
        "regency_code": 9501,
        "province_code": 95,
        "name": "Honelama",
        "postal_code": null,
        "latitude": -4.091792018651427,
        "longitude": 138.93145679089807
    },
    {
        "code": 9501012003,
        "district_code": 950101,
        "regency_code": 9501,
        "province_code": 95,
        "name": "Hulekama",
        "postal_code": null,
        "latitude": -4.102357049416787,
        "longitude": 138.91768529584172
    },
    {
        "code": 9501012004,
        "district_code": 950101,
        "regency_code": 9501,
        "province_code": 95,
        "name": "Batu Merah",
        "postal_code": null,
        "latitude": -4.074056448964815,
        "longitude": 138.94258932237256
    },
    {
        "code": 9501012005,
        "district_code": 950101,
        "regency_code": 9501,
        "province_code": 95,
        "name": "Autakma",
        "postal_code": null,
        "latitude": -4.1023861627161065,
        "longitude": 138.92696630395557
    },
    {
        "code": 9501012008,
        "district_code": 950101,
        "regency_code": 9501,
        "province_code": 95,
        "name": "Honelama Dua",
        "postal_code": null,
        "latitude": -4.088627833248055,
        "longitude": 138.9429745600742
    },
    {
        "code": 9501012009,
        "district_code": 950101,
        "regency_code": 9501,
        "province_code": 95,
        "name": "Honaima",
        "postal_code": null,
        "latitude": -4.096006877467275,
        "longitude": 138.9111609364286
    },
    {
        "code": 9501012010,
        "district_code": 950101,
        "regency_code": 9501,
        "province_code": 95,
        "name": "Lanitipo",
        "postal_code": null,
        "latitude": -4.093264370274718,
        "longitude": 138.92267563473882
    },
    {
        "code": 9501012011,
        "district_code": 950101,
        "regency_code": 9501,
        "province_code": 95,
        "name": "Wamaroma",
        "postal_code": null,
        "latitude": -4.095535642903389,
        "longitude": 138.90039235569384
    },
    {
        "code": 9501022001,
        "district_code": 950102,
        "regency_code": 9501,
        "province_code": 95,
        "name": "Jiwika",
        "postal_code": "99521",
        "latitude": -3.962976129909543,
        "longitude": 138.9463314051979
    },
    {
        "code": 9501022002,
        "district_code": 950102,
        "regency_code": 9501,
        "province_code": 95,
        "name": "Mulima",
        "postal_code": null,
        "latitude": -3.95862508894755,
        "longitude": 138.90065427101706
    },
    {
        "code": 9501022003,
        "district_code": 950102,
        "regency_code": 9501,
        "province_code": 95,
        "name": "Waga-Waga",
        "postal_code": null,
        "latitude": -3.950425076355568,
        "longitude": 138.92474147637276
    },
    {
        "code": 9501022004,
        "district_code": 950102,
        "regency_code": 9501,
        "province_code": 95,
        "name": "Abusa",
        "postal_code": null,
        "latitude": -3.9694550320112,
        "longitude": 138.9008604297555
    },
    {
        "code": 9501022005,
        "district_code": 950102,
        "regency_code": 9501,
        "province_code": 95,
        "name": "Eragama",
        "postal_code": null,
        "latitude": -3.9807995724221743,
        "longitude": 138.94081017652223
    },
    {
        "code": 9501022006,
        "district_code": 950102,
        "regency_code": 9501,
        "province_code": 95,
        "name": "Kimima",
        "postal_code": "99521",
        "latitude": -3.972201370114101,
        "longitude": 138.95854380408795
    },
    {
        "code": 9501022007,
        "district_code": 950102,
        "regency_code": 9501,
        "province_code": 95,
        "name": "Mebagaima",
        "postal_code": "99521",
        "latitude": -3.9552712514078654,
        "longitude": 138.95391482274297
    },
    {
        "code": 9501022008,
        "district_code": 950102,
        "regency_code": 9501,
        "province_code": 95,
        "name": "Iyantik",
        "postal_code": null,
        "latitude": -3.949758094221641,
        "longitude": 138.94542570226122
    },
    {
        "code": 9501022009,
        "district_code": 950102,
        "regency_code": 9501,
        "province_code": 95,
        "name": "Umpagalo",
        "postal_code": "99521",
        "latitude": -3.9577780004641077,
        "longitude": 138.93552058582148
    },
    {
        "code": 9501022010,
        "district_code": 950102,
        "regency_code": 9501,
        "province_code": 95,
        "name": "Hopama",
        "postal_code": null,
        "latitude": -3.9752788442615072,
        "longitude": 138.91310914967215
    },
    {
        "code": 9501022011,
        "district_code": 950102,
        "regency_code": 9501,
        "province_code": 95,
        "name": "Obya",
        "postal_code": "99521",
        "latitude": -3.960342208133609,
        "longitude": 138.9698043550309
    },
    {
        "code": 9501022012,
        "district_code": 950102,
        "regency_code": 9501,
        "province_code": 95,
        "name": "Utkolo Satu",
        "postal_code": null,
        "latitude": -3.981607511676392,
        "longitude": 138.92195242270222
    },
    {
        "code": 9501032001,
        "district_code": 950103,
        "regency_code": 9501,
        "province_code": 95,
        "name": "Kimbin",
        "postal_code": null,
        "latitude": -3.9607794497708357,
        "longitude": 138.80577828675587
    },
    {
        "code": 9501032002,
        "district_code": 950103,
        "regency_code": 9501,
        "province_code": 95,
        "name": "Walak",
        "postal_code": null,
        "latitude": -3.9569609734755136,
        "longitude": 138.787773927453
    },
    {
        "code": 9501032003,
        "district_code": 950103,
        "regency_code": 9501,
        "province_code": 95,
        "name": "Araboda",
        "postal_code": null,
        "latitude": -3.9751863284464344,
        "longitude": 138.80088612041487
    },
    {
        "code": 9501032004,
        "district_code": 950103,
        "regency_code": 9501,
        "province_code": 95,
        "name": "Logotpaga",
        "postal_code": null,
        "latitude": -3.9554105987958947,
        "longitude": 138.74826334309967
    },
    {
        "code": 9501032005,
        "district_code": 950103,
        "regency_code": 9501,
        "province_code": 95,
        "name": "Wawanca",
        "postal_code": null,
        "latitude": -3.9670361248662562,
        "longitude": 138.79155127633163
    },
    {
        "code": 9501032006,
        "district_code": 950103,
        "regency_code": 9501,
        "province_code": 95,
        "name": "Miligatnem",
        "postal_code": "99531",
        "latitude": -3.9698711151309576,
        "longitude": 138.81189690603318
    },
    {
        "code": 9501032007,
        "district_code": 950103,
        "regency_code": 9501,
        "province_code": 95,
        "name": "Loki",
        "postal_code": null,
        "latitude": -3.9476971878991103,
        "longitude": 138.77683769600145
    },
    {
        "code": 9501032008,
        "district_code": 950103,
        "regency_code": 9501,
        "province_code": 95,
        "name": "Tikawo",
        "postal_code": "99531",
        "latitude": -3.9749977499874074,
        "longitude": 138.74871389812543
    },
    {
        "code": 9501032009,
        "district_code": 950103,
        "regency_code": 9501,
        "province_code": 95,
        "name": "Kombagwe",
        "postal_code": null,
        "latitude": -3.9482500248755428,
        "longitude": 138.74037704599314
    },
    {
        "code": 9501032010,
        "district_code": 950103,
        "regency_code": 9501,
        "province_code": 95,
        "name": "Wanggonoma",
        "postal_code": null,
        "latitude": -3.9671159013588406,
        "longitude": 138.74745884868392
    },
    {
        "code": 9501042001,
        "district_code": 950104,
        "regency_code": 9501,
        "province_code": 95,
        "name": "Hubikosi",
        "postal_code": "99552",
        "latitude": -4.044384811468989,
        "longitude": 138.8563590768872
    },
    {
        "code": 9501042002,
        "district_code": 950104,
        "regency_code": 9501,
        "province_code": 95,
        "name": "Kosimeage",
        "postal_code": null,
        "latitude": -4.03033786293841,
        "longitude": 138.8754347820237
    },
    {
        "code": 9501042003,
        "district_code": 950104,
        "regency_code": 9501,
        "province_code": 95,
        "name": "Kosihilapok",
        "postal_code": null,
        "latitude": -4.033610162862068,
        "longitude": 138.8917663511477
    },
    {
        "code": 9501042004,
        "district_code": 950104,
        "regency_code": 9501,
        "province_code": 95,
        "name": "Meagama",
        "postal_code": null,
        "latitude": -4.035152664199523,
        "longitude": 138.86193758527213
    },
    {
        "code": 9501042005,
        "district_code": 950104,
        "regency_code": 9501,
        "province_code": 95,
        "name": "Pipukmo",
        "postal_code": null,
        "latitude": -4.022838818241064,
        "longitude": 138.88958082305726
    },
    {
        "code": 9501042006,
        "district_code": 950104,
        "regency_code": 9501,
        "province_code": 95,
        "name": "Isakusa",
        "postal_code": null,
        "latitude": -4.076581582565101,
        "longitude": 138.88941140076287
    },
    {
        "code": 9501042007,
        "district_code": 950104,
        "regency_code": 9501,
        "province_code": 95,
        "name": "Pelima",
        "postal_code": "99552",
        "latitude": -4.061167416685702,
        "longitude": 138.87309505580404
    },
    {
        "code": 9501042008,
        "district_code": 950104,
        "regency_code": 9501,
        "province_code": 95,
        "name": "Kikhumo",
        "postal_code": "99552",
        "latitude": -4.0441358447059,
        "longitude": 138.87994737773698
    },
    {
        "code": 9501042009,
        "district_code": 950104,
        "regency_code": 9501,
        "province_code": 95,
        "name": "Jibilabaga",
        "postal_code": null,
        "latitude": -4.054413603473017,
        "longitude": 138.8606503436535
    },
    {
        "code": 9501042010,
        "district_code": 950104,
        "regency_code": 9501,
        "province_code": 95,
        "name": "Ikilumo",
        "postal_code": null,
        "latitude": -4.073310777408964,
        "longitude": 138.8955139730705
    },
    {
        "code": 9501042011,
        "district_code": 950104,
        "regency_code": 9501,
        "province_code": 95,
        "name": "Sunili",
        "postal_code": null,
        "latitude": -4.047672321418206,
        "longitude": 138.84422029073974
    },
    {
        "code": 9501052001,
        "district_code": 950105,
        "regency_code": 9501,
        "province_code": 95,
        "name": "Bolakme",
        "postal_code": "99541",
        "latitude": -3.8594114423394585,
        "longitude": 138.74577730618935
    },
    {
        "code": 9501052002,
        "district_code": 950105,
        "regency_code": 9501,
        "province_code": 95,
        "name": "Munak",
        "postal_code": null,
        "latitude": -3.821890430752056,
        "longitude": 138.7704860084463
    },
    {
        "code": 9501052003,
        "district_code": 950105,
        "regency_code": 9501,
        "province_code": 95,
        "name": "Tenonggame",
        "postal_code": "99541",
        "latitude": -3.815605082151007,
        "longitude": 138.68092133192778
    },
    {
        "code": 9501052004,
        "district_code": 950105,
        "regency_code": 9501,
        "province_code": 95,
        "name": "Bandua",
        "postal_code": null,
        "latitude": -3.8304741294018387,
        "longitude": 138.7945815477941
    },
    {
        "code": 9501052005,
        "district_code": 950105,
        "regency_code": 9501,
        "province_code": 95,
        "name": "Lani Timur",
        "postal_code": null,
        "latitude": -3.8525125590470495,
        "longitude": 138.78897437022258
    },
    {
        "code": 9501052006,
        "district_code": 950105,
        "regency_code": 9501,
        "province_code": 95,
        "name": "Nunggarugum",
        "postal_code": null,
        "latitude": -3.8307701049624736,
        "longitude": 138.74421818419148
    },
    {
        "code": 9501052007,
        "district_code": 950105,
        "regency_code": 9501,
        "province_code": 95,
        "name": "Poitmos",
        "postal_code": null,
        "latitude": -3.8244384882746965,
        "longitude": 138.76064441373504
    },
    {
        "code": 9501052008,
        "district_code": 950105,
        "regency_code": 9501,
        "province_code": 95,
        "name": "Kugitero",
        "postal_code": null,
        "latitude": -3.8329185391098024,
        "longitude": 138.80790453374766
    },
    {
        "code": 9501052009,
        "district_code": 950105,
        "regency_code": 9501,
        "province_code": 95,
        "name": "Wenamela",
        "postal_code": null,
        "latitude": -3.8448679418498735,
        "longitude": 138.78746048231324
    },
    {
        "code": 9501052010,
        "district_code": 950105,
        "regency_code": 9501,
        "province_code": 95,
        "name": "Bimu",
        "postal_code": null,
        "latitude": -3.8493191884271565,
        "longitude": 138.77366404570452
    },
    {
        "code": 9501052011,
        "district_code": 950105,
        "regency_code": 9501,
        "province_code": 95,
        "name": "Tekani",
        "postal_code": null,
        "latitude": -3.822124262450117,
        "longitude": 138.78074033191112
    },
    {
        "code": 9501052012,
        "district_code": 950105,
        "regency_code": 9501,
        "province_code": 95,
        "name": "Owagambak",
        "postal_code": null,
        "latitude": -3.826859885965265,
        "longitude": 138.70830998856903
    },
    {
        "code": 9501062001,
        "district_code": 950106,
        "regency_code": 9501,
        "province_code": 95,
        "name": "Walelagama",
        "postal_code": "99510",
        "latitude": -4.101800603310731,
        "longitude": 138.99428736316122
    },
    {
        "code": 9501062002,
        "district_code": 950106,
        "regency_code": 9501,
        "province_code": 95,
        "name": "Pugima",
        "postal_code": "99510",
        "latitude": -4.08981647272574,
        "longitude": 139.02736572984128
    },
    {
        "code": 9501062003,
        "district_code": 950106,
        "regency_code": 9501,
        "province_code": 95,
        "name": "Itlay Halitopo",
        "postal_code": null,
        "latitude": -4.086336695835669,
        "longitude": 138.97914207688234
    },
    {
        "code": 9501062004,
        "district_code": 950106,
        "regency_code": 9501,
        "province_code": 95,
        "name": "Kubulakma",
        "postal_code": null,
        "latitude": -4.092362170825359,
        "longitude": 138.9901723413331
    },
    {
        "code": 9501062005,
        "district_code": 950106,
        "regency_code": 9501,
        "province_code": 95,
        "name": "Kulaken",
        "postal_code": null,
        "latitude": -4.102892418009107,
        "longitude": 139.02542436658905
    },
    {
        "code": 9501062006,
        "district_code": 950106,
        "regency_code": 9501,
        "province_code": 95,
        "name": "Wamusage",
        "postal_code": null,
        "latitude": -4.081349997007261,
        "longitude": 139.00804810023578
    },
    {
        "code": 9501072001,
        "district_code": 950107,
        "regency_code": 9501,
        "province_code": 95,
        "name": "Temia",
        "postal_code": "99533",
        "latitude": -3.969912846325775,
        "longitude": 138.87655854946092
    },
    {
        "code": 9501072002,
        "district_code": 950107,
        "regency_code": 9501,
        "province_code": 95,
        "name": "Anegera",
        "postal_code": "99533",
        "latitude": -4.0073128026608,
        "longitude": 138.83911590969402
    },
    {
        "code": 9501072003,
        "district_code": 950107,
        "regency_code": 9501,
        "province_code": 95,
        "name": "Elabukama",
        "postal_code": "99533",
        "latitude": -4.031268271655404,
        "longitude": 138.85054368733688
    },
    {
        "code": 9501072004,
        "district_code": 950107,
        "regency_code": 9501,
        "province_code": 95,
        "name": "Siapma",
        "postal_code": "99533",
        "latitude": -4.002844968888035,
        "longitude": 138.89038698158043
    },
    {
        "code": 9501072005,
        "district_code": 950107,
        "regency_code": 9501,
        "province_code": 95,
        "name": "Hamuhi",
        "postal_code": "99533",
        "latitude": -3.990022357796276,
        "longitude": 138.85642220964758
    },
    {
        "code": 9501072006,
        "district_code": 950107,
        "regency_code": 9501,
        "province_code": 95,
        "name": "Kosihave",
        "postal_code": "99533",
        "latitude": -3.9987571901060073,
        "longitude": 138.8649735643457
    },
    {
        "code": 9501072007,
        "district_code": 950107,
        "regency_code": 9501,
        "province_code": 95,
        "name": "Mulupalek",
        "postal_code": "99533",
        "latitude": -3.9964328559936377,
        "longitude": 138.87915630885462
    },
    {
        "code": 9501072008,
        "district_code": 950107,
        "regency_code": 9501,
        "province_code": 95,
        "name": "Pumasili",
        "postal_code": "99533",
        "latitude": -4.017227885897623,
        "longitude": 138.86441506861243
    },
    {
        "code": 9501072009,
        "district_code": 950107,
        "regency_code": 9501,
        "province_code": 95,
        "name": "Abulukmo",
        "postal_code": "99533",
        "latitude": -3.9628665627655173,
        "longitude": 138.8677617939088
    },
    {
        "code": 9501072010,
        "district_code": 950107,
        "regency_code": 9501,
        "province_code": 95,
        "name": "Yumugima",
        "postal_code": "99533",
        "latitude": -4.019334169790215,
        "longitude": 138.84579025440286
    },
    {
        "code": 9501082001,
        "district_code": 950108,
        "regency_code": 9501,
        "province_code": 95,
        "name": "Wolo",
        "postal_code": "99548",
        "latitude": -3.8772933929370863,
        "longitude": 138.84345205595451
    },
    {
        "code": 9501082002,
        "district_code": 950108,
        "regency_code": 9501,
        "province_code": 95,
        "name": "Kukurima",
        "postal_code": null,
        "latitude": -3.880581942199422,
        "longitude": 138.91895593412997
    },
    {
        "code": 9501082003,
        "district_code": 950108,
        "regency_code": 9501,
        "province_code": 95,
        "name": "Pirambot",
        "postal_code": null,
        "latitude": -3.8488620248552086,
        "longitude": 138.88347229876257
    },
    {
        "code": 9501082004,
        "district_code": 950108,
        "regency_code": 9501,
        "province_code": 95,
        "name": "Tegabaga",
        "postal_code": null,
        "latitude": -3.878446311302241,
        "longitude": 138.8567708657776
    },
    {
        "code": 9501082005,
        "district_code": 950108,
        "regency_code": 9501,
        "province_code": 95,
        "name": "Wollo Timur",
        "postal_code": null,
        "latitude": -3.8619540754274553,
        "longitude": 138.88755023421106
    },
    {
        "code": 9501082006,
        "district_code": 950108,
        "regency_code": 9501,
        "province_code": 95,
        "name": "Alugi",
        "postal_code": null,
        "latitude": -3.874339531006924,
        "longitude": 138.89648621167777
    },
    {
        "code": 9501082007,
        "district_code": 950108,
        "regency_code": 9501,
        "province_code": 95,
        "name": "Wunan",
        "postal_code": null,
        "latitude": -3.8604112603257463,
        "longitude": 138.8590866739994
    },
    {
        "code": 9501082008,
        "district_code": 950108,
        "regency_code": 9501,
        "province_code": 95,
        "name": "Wodloma",
        "postal_code": "99548",
        "latitude": -3.879296566700563,
        "longitude": 138.87671305152233
    },
    {
        "code": 9501092001,
        "district_code": 950109,
        "regency_code": 9501,
        "province_code": 95,
        "name": "Sinata",
        "postal_code": null,
        "latitude": -4.138385359463574,
        "longitude": 138.94198911370555
    },
    {
        "code": 9501092002,
        "district_code": 950109,
        "regency_code": 9501,
        "province_code": 95,
        "name": "Asolokobal",
        "postal_code": null,
        "latitude": -4.171287935886554,
        "longitude": 138.94203709916513
    },
    {
        "code": 9501092003,
        "district_code": 950109,
        "regency_code": 9501,
        "province_code": 95,
        "name": "Hesatom",
        "postal_code": null,
        "latitude": -4.18084144048622,
        "longitude": 138.92821870742748
    },
    {
        "code": 9501092004,
        "district_code": 950109,
        "regency_code": 9501,
        "province_code": 95,
        "name": "Asotapo",
        "postal_code": null,
        "latitude": -4.168893345859884,
        "longitude": 138.9613211259113
    },
    {
        "code": 9501092005,
        "district_code": 950109,
        "regency_code": 9501,
        "province_code": 95,
        "name": "Wiaima",
        "postal_code": "99501",
        "latitude": -4.15374212856499,
        "longitude": 138.97070743608558
    },
    {
        "code": 9501092006,
        "district_code": 950109,
        "regency_code": 9501,
        "province_code": 95,
        "name": "Ninabua",
        "postal_code": "99501",
        "latitude": -4.156266937490285,
        "longitude": 138.91483968270003
    },
    {
        "code": 9501092007,
        "district_code": 950109,
        "regency_code": 9501,
        "province_code": 95,
        "name": "Helaluwa",
        "postal_code": null,
        "latitude": -4.156456234578108,
        "longitude": 138.92435523711228
    },
    {
        "code": 9501092008,
        "district_code": 950109,
        "regency_code": 9501,
        "province_code": 95,
        "name": "Mulinekama",
        "postal_code": null,
        "latitude": -4.1307119737143285,
        "longitude": 138.96073860888515
    },
    {
        "code": 9501092009,
        "district_code": 950109,
        "regency_code": 9501,
        "province_code": 95,
        "name": "Yapema",
        "postal_code": null,
        "latitude": -4.154273514350681,
        "longitude": 138.94764390699154
    },
    {
        "code": 9501102001,
        "district_code": 950110,
        "regency_code": 9501,
        "province_code": 95,
        "name": "Heatnem",
        "postal_code": null,
        "latitude": -4.091070611636309,
        "longitude": 138.84152512973307
    },
    {
        "code": 9501102002,
        "district_code": 950110,
        "regency_code": 9501,
        "province_code": 95,
        "name": "Wililimo",
        "postal_code": null,
        "latitude": -4.1076418673922594,
        "longitude": 138.8467884616041
    },
    {
        "code": 9501102003,
        "district_code": 950110,
        "regency_code": 9501,
        "province_code": 95,
        "name": "Yabem",
        "postal_code": "99554",
        "latitude": -4.073750399408156,
        "longitude": 138.85693104062437
    },
    {
        "code": 9501102004,
        "district_code": 950110,
        "regency_code": 9501,
        "province_code": 95,
        "name": "Waukahilapok",
        "postal_code": null,
        "latitude": -4.091606741654329,
        "longitude": 138.87169959046435
    },
    {
        "code": 9501102005,
        "district_code": 950110,
        "regency_code": 9501,
        "province_code": 95,
        "name": "Aleak",
        "postal_code": null,
        "latitude": -4.110601946941108,
        "longitude": 138.86168258401074
    },
    {
        "code": 9501102006,
        "district_code": 950110,
        "regency_code": 9501,
        "province_code": 95,
        "name": "Inanekelok",
        "postal_code": null,
        "latitude": -4.1153305177037565,
        "longitude": 138.83140432219852
    },
    {
        "code": 9501102007,
        "district_code": 950110,
        "regency_code": 9501,
        "province_code": 95,
        "name": "Witalak",
        "postal_code": null,
        "latitude": -4.0833686394650455,
        "longitude": 138.86671141076752
    },
    {
        "code": 9501102008,
        "district_code": 950110,
        "regency_code": 9501,
        "province_code": 95,
        "name": "Mulukmo",
        "postal_code": "99554",
        "latitude": -4.08897622186845,
        "longitude": 138.88774320337123
    },
    {
        "code": 9501102009,
        "district_code": 950110,
        "regency_code": 9501,
        "province_code": 95,
        "name": "Landia",
        "postal_code": "99554",
        "latitude": -4.093686275476476,
        "longitude": 138.85362477687988
    },
    {
        "code": 9501102010,
        "district_code": 950110,
        "regency_code": 9501,
        "province_code": 95,
        "name": "Filia",
        "postal_code": null,
        "latitude": -4.0685763213089166,
        "longitude": 138.83895331332351
    },
    {
        "code": 9501102011,
        "district_code": 950110,
        "regency_code": 9501,
        "province_code": 95,
        "name": "Isugunik",
        "postal_code": null,
        "latitude": -4.080613891742925,
        "longitude": 138.82129981962842
    },
    {
        "code": 9501102012,
        "district_code": 950110,
        "regency_code": 9501,
        "province_code": 95,
        "name": "Hitelowa",
        "postal_code": "99554",
        "latitude": -4.060241186440927,
        "longitude": 138.82311282361914
    },
    {
        "code": 9501102013,
        "district_code": 950110,
        "regency_code": 9501,
        "province_code": 95,
        "name": "Duabalek",
        "postal_code": "99554",
        "latitude": -4.101952513734803,
        "longitude": 138.83013251554954
    },
    {
        "code": 9501112001,
        "district_code": 950111,
        "regency_code": 9501,
        "province_code": 95,
        "name": "Yalengga",
        "postal_code": "99549",
        "latitude": -3.8909900034542013,
        "longitude": 138.80569025919226
    },
    {
        "code": 9501112002,
        "district_code": 950111,
        "regency_code": 9501,
        "province_code": 95,
        "name": "Taganik",
        "postal_code": "99549",
        "latitude": -3.867050117369862,
        "longitude": 138.78619323942686
    },
    {
        "code": 9501112003,
        "district_code": 950111,
        "regency_code": 9501,
        "province_code": 95,
        "name": "Wananuk",
        "postal_code": null,
        "latitude": -3.8761098389363937,
        "longitude": 138.78689541081167
    },
    {
        "code": 9501112004,
        "district_code": 950111,
        "regency_code": 9501,
        "province_code": 95,
        "name": "Pilimo",
        "postal_code": "99549",
        "latitude": -3.8932378780765613,
        "longitude": 138.79565535003297
    },
    {
        "code": 9501112005,
        "district_code": 950111,
        "regency_code": 9501,
        "province_code": 95,
        "name": "Tumun",
        "postal_code": null,
        "latitude": -3.8823240780130637,
        "longitude": 138.80502369172578
    },
    {
        "code": 9501112006,
        "district_code": 950111,
        "regency_code": 9501,
        "province_code": 95,
        "name": "Akorek",
        "postal_code": "99549",
        "latitude": -3.888269404067141,
        "longitude": 138.790207373627
    },
    {
        "code": 9501112007,
        "district_code": 950111,
        "regency_code": 9501,
        "province_code": 95,
        "name": "Manili",
        "postal_code": "99549",
        "latitude": -3.90022403486519,
        "longitude": 138.7918668654821
    },
    {
        "code": 9501112008,
        "district_code": 950111,
        "regency_code": 9501,
        "province_code": 95,
        "name": "Aipakma",
        "postal_code": "99549",
        "latitude": -3.868162751913004,
        "longitude": 138.7758683988668
    },
    {
        "code": 9501112009,
        "district_code": 950111,
        "regency_code": 9501,
        "province_code": 95,
        "name": "Wugurima",
        "postal_code": "99549",
        "latitude": -3.8801430219420445,
        "longitude": 138.7832904378497
    },
    {
        "code": 9501112010,
        "district_code": 950111,
        "regency_code": 9501,
        "province_code": 95,
        "name": "Bitti",
        "postal_code": "99549",
        "latitude": -3.876955028057302,
        "longitude": 138.795775010232
    },
    {
        "code": 9501112011,
        "district_code": 950111,
        "regency_code": 9501,
        "province_code": 95,
        "name": "Wamanuk Dua",
        "postal_code": null,
        "latitude": -3.8651251511626055,
        "longitude": 138.77992864276317
    },
    {
        "code": 9501122001,
        "district_code": 950112,
        "regency_code": 9501,
        "province_code": 95,
        "name": "Trikora",
        "postal_code": "99508",
        "latitude": -4.21782229237044,
        "longitude": 138.71788606126714
    },
    {
        "code": 9501122002,
        "district_code": 950112,
        "regency_code": 9501,
        "province_code": 95,
        "name": "Nanggo",
        "postal_code": "99508",
        "latitude": -4.447979856865911,
        "longitude": 138.66221583470661
    },
    {
        "code": 9501122003,
        "district_code": 950112,
        "regency_code": 9501,
        "province_code": 95,
        "name": "Dinggilimo",
        "postal_code": "99508",
        "latitude": -4.316082618118666,
        "longitude": 138.6814918389633
    },
    {
        "code": 9501122004,
        "district_code": 950112,
        "regency_code": 9501,
        "province_code": 95,
        "name": "Kora Jaya",
        "postal_code": "99508",
        "latitude": -4.402111702124584,
        "longitude": 138.67592464148763
    },
    {
        "code": 9501122005,
        "district_code": 950112,
        "regency_code": 9501,
        "province_code": 95,
        "name": "Korambirik",
        "postal_code": "99508",
        "latitude": -4.446859226642959,
        "longitude": 138.62344557372612
    },
    {
        "code": 9501122006,
        "district_code": 950112,
        "regency_code": 9501,
        "province_code": 95,
        "name": "Anggulpa",
        "postal_code": "99508",
        "latitude": -4.45364130443368,
        "longitude": 138.72399564669135
    },
    {
        "code": 9501132001,
        "district_code": 950113,
        "regency_code": 9501,
        "province_code": 95,
        "name": "Napua",
        "postal_code": "99505",
        "latitude": -4.101210629734915,
        "longitude": 138.88284737584698
    },
    {
        "code": 9501132002,
        "district_code": 950113,
        "regency_code": 9501,
        "province_code": 95,
        "name": "Holima",
        "postal_code": "99505",
        "latitude": -4.108905223956601,
        "longitude": 138.8989614935572
    },
    {
        "code": 9501132003,
        "district_code": 950113,
        "regency_code": 9501,
        "province_code": 95,
        "name": "Lani Matuan",
        "postal_code": "99505",
        "latitude": -4.120806047497692,
        "longitude": 138.8750678797287
    },
    {
        "code": 9501132004,
        "district_code": 950113,
        "regency_code": 9501,
        "province_code": 95,
        "name": "Okilik",
        "postal_code": "99505",
        "latitude": -4.147092328847906,
        "longitude": 138.8834413223862
    },
    {
        "code": 9501132005,
        "district_code": 950113,
        "regency_code": 9501,
        "province_code": 95,
        "name": "Healekma",
        "postal_code": "99505",
        "latitude": -4.13668380740854,
        "longitude": 138.895497657593
    },
    {
        "code": 9501132006,
        "district_code": 950113,
        "regency_code": 9501,
        "province_code": 95,
        "name": "Yelekama",
        "postal_code": "99505",
        "latitude": -4.128319320247528,
        "longitude": 138.8782238061203
    },
    {
        "code": 9501132007,
        "district_code": 950113,
        "regency_code": 9501,
        "province_code": 95,
        "name": "Sapalek",
        "postal_code": "99505",
        "latitude": -4.132059972244576,
        "longitude": 138.88973172853795
    },
    {
        "code": 9501132008,
        "district_code": 950113,
        "regency_code": 9501,
        "province_code": 95,
        "name": "Yomaima",
        "postal_code": "99505",
        "latitude": -4.11471840102958,
        "longitude": 138.91073181541645
    },
    {
        "code": 9501132009,
        "district_code": 950113,
        "regency_code": 9501,
        "province_code": 95,
        "name": "Wilekama",
        "postal_code": "99505",
        "latitude": -4.114618690501703,
        "longitude": 138.87088752853944
    },
    {
        "code": 9501142001,
        "district_code": 950114,
        "regency_code": 9501,
        "province_code": 95,
        "name": "Walaik",
        "postal_code": "99509",
        "latitude": -4.170584938964434,
        "longitude": 138.7931332523624
    },
    {
        "code": 9501142002,
        "district_code": 950114,
        "regency_code": 9501,
        "province_code": 95,
        "name": "Elarek",
        "postal_code": "99509",
        "latitude": -4.160028383204534,
        "longitude": 138.75972025129673
    },
    {
        "code": 9501142003,
        "district_code": 950114,
        "regency_code": 9501,
        "province_code": 95,
        "name": "Holima",
        "postal_code": "99509",
        "latitude": -4.150801019860812,
        "longitude": 138.84481183694916
    },
    {
        "code": 9501142004,
        "district_code": 950114,
        "regency_code": 9501,
        "province_code": 95,
        "name": "Yelai",
        "postal_code": "99509",
        "latitude": -4.2021900552142935,
        "longitude": 138.82634082025572
    },
    {
        "code": 9501142005,
        "district_code": 950114,
        "regency_code": 9501,
        "province_code": 95,
        "name": "Welekama",
        "postal_code": "99509",
        "latitude": -4.148035135966241,
        "longitude": 138.71064501092602
    },
    {
        "code": 9501152001,
        "district_code": 950115,
        "regency_code": 9501,
        "province_code": 95,
        "name": "Wouma",
        "postal_code": "99514",
        "latitude": -4.110074674930904,
        "longitude": 138.9439506147256
    },
    {
        "code": 9501152002,
        "district_code": 950115,
        "regency_code": 9501,
        "province_code": 95,
        "name": "Ketimavit",
        "postal_code": "99514",
        "latitude": -4.110098835669311,
        "longitude": 138.95188416575695
    },
    {
        "code": 9501152003,
        "district_code": 950115,
        "regency_code": 9501,
        "province_code": 95,
        "name": "Wesakma",
        "postal_code": "99514",
        "latitude": -4.1110989281160135,
        "longitude": 138.93166960016265
    },
    {
        "code": 9501152004,
        "district_code": 950115,
        "regency_code": 9501,
        "province_code": 95,
        "name": "Logonoba",
        "postal_code": "99514",
        "latitude": -4.107159651513565,
        "longitude": 138.94096844617397
    },
    {
        "code": 9501152005,
        "district_code": 950115,
        "regency_code": 9501,
        "province_code": 95,
        "name": "Wesakin",
        "postal_code": "99514",
        "latitude": -4.118270968278239,
        "longitude": 138.9498714552746
    },
    {
        "code": 9501152006,
        "district_code": 950115,
        "regency_code": 9501,
        "province_code": 95,
        "name": "Pipitmo",
        "postal_code": "99514",
        "latitude": -4.1163006531831225,
        "longitude": 138.95916209834533
    },
    {
        "code": 9501152007,
        "district_code": 950115,
        "regency_code": 9501,
        "province_code": 95,
        "name": "Sinarekowa",
        "postal_code": "99514",
        "latitude": -4.113504416119555,
        "longitude": 138.93597841195273
    },
    {
        "code": 9501162001,
        "district_code": 950116,
        "regency_code": 9501,
        "province_code": 95,
        "name": "Hubukiak",
        "postal_code": "99551",
        "latitude": -4.060596831327228,
        "longitude": 138.90408486499481
    },
    {
        "code": 9501162002,
        "district_code": 950116,
        "regency_code": 9501,
        "province_code": 95,
        "name": "Hetuma",
        "postal_code": "99551",
        "latitude": -4.07087829932315,
        "longitude": 138.91225274832556
    },
    {
        "code": 9501162003,
        "district_code": 950116,
        "regency_code": 9501,
        "province_code": 95,
        "name": "Dokopku",
        "postal_code": "99551",
        "latitude": -4.03987329165778,
        "longitude": 138.8971229815282
    },
    {
        "code": 9501162004,
        "district_code": 950116,
        "regency_code": 9501,
        "province_code": 95,
        "name": "Likino",
        "postal_code": "99551",
        "latitude": -4.081998255030777,
        "longitude": 138.92017663765805
    },
    {
        "code": 9501162005,
        "district_code": 950116,
        "regency_code": 9501,
        "province_code": 95,
        "name": "Musiamia",
        "postal_code": "99551",
        "latitude": -4.050141171718591,
        "longitude": 138.9136568057813
    },
    {
        "code": 9501162006,
        "district_code": 950116,
        "regency_code": 9501,
        "province_code": 95,
        "name": "Husoak",
        "postal_code": "99551",
        "latitude": -4.051790400053699,
        "longitude": 138.8927323162801
    },
    {
        "code": 9501162007,
        "district_code": 950116,
        "regency_code": 9501,
        "province_code": 95,
        "name": "Hom-hom",
        "postal_code": "99551",
        "latitude": -4.061536400251969,
        "longitude": 138.93289625112368
    },
    {
        "code": 9501162008,
        "district_code": 950116,
        "regency_code": 9501,
        "province_code": 95,
        "name": "Musiamia Dua",
        "postal_code": "99551",
        "latitude": -4.0450321642564475,
        "longitude": 138.90479137721303
    },
    {
        "code": 9501172001,
        "district_code": 950117,
        "regency_code": 9501,
        "province_code": 95,
        "name": "Yagarobak",
        "postal_code": "99553",
        "latitude": -4.056161426624829,
        "longitude": 138.69839974612086
    },
    {
        "code": 9501172002,
        "district_code": 950117,
        "regency_code": 9501,
        "province_code": 95,
        "name": "Zapma",
        "postal_code": "99553",
        "latitude": -4.055303058592657,
        "longitude": 138.7893361485466
    },
    {
        "code": 9501172003,
        "district_code": 950117,
        "regency_code": 9501,
        "province_code": 95,
        "name": "Ayobaibur",
        "postal_code": "99553",
        "latitude": -4.04825080523184,
        "longitude": 138.74962150537974
    },
    {
        "code": 9501172004,
        "district_code": 950117,
        "regency_code": 9501,
        "province_code": 95,
        "name": "Ibele",
        "postal_code": "99553",
        "latitude": -4.049494137524762,
        "longitude": 138.79678912023604
    },
    {
        "code": 9501172005,
        "district_code": 950117,
        "regency_code": 9501,
        "province_code": 95,
        "name": "Tipalok",
        "postal_code": "99553",
        "latitude": -4.070895229562238,
        "longitude": 138.69206954852692
    },
    {
        "code": 9501172006,
        "district_code": 950117,
        "regency_code": 9501,
        "province_code": 95,
        "name": "Habema",
        "postal_code": "99553",
        "latitude": -4.034525365928589,
        "longitude": 138.71357542117198
    },
    {
        "code": 9501172007,
        "district_code": 950117,
        "regency_code": 9501,
        "province_code": 95,
        "name": "Zinai",
        "postal_code": "99553",
        "latitude": -4.059147694358753,
        "longitude": 138.74857045191484
    },
    {
        "code": 9501172008,
        "district_code": 950117,
        "regency_code": 9501,
        "province_code": 95,
        "name": "Holaliba",
        "postal_code": "99553",
        "latitude": -4.073034058671535,
        "longitude": 138.72582375277193
    },
    {
        "code": 9501172009,
        "district_code": 950117,
        "regency_code": 9501,
        "province_code": 95,
        "name": "Yelebarek",
        "postal_code": "99553",
        "latitude": -4.046009687703513,
        "longitude": 138.70626150076518
    },
    {
        "code": 9501172010,
        "district_code": 950117,
        "regency_code": 9501,
        "province_code": 95,
        "name": "Yokalpalek",
        "postal_code": "99553",
        "latitude": -4.036948458960349,
        "longitude": 138.7571229175652
    },
    {
        "code": 9501182001,
        "district_code": 950118,
        "regency_code": 9501,
        "province_code": 95,
        "name": "Tailarek",
        "postal_code": "99555",
        "latitude": -4.095459713885105,
        "longitude": 138.7416979102524
    },
    {
        "code": 9501182002,
        "district_code": 950118,
        "regency_code": 9501,
        "province_code": 95,
        "name": "Senogolik",
        "postal_code": "99555",
        "latitude": -4.067867225082472,
        "longitude": 138.78975194596669
    },
    {
        "code": 9501182003,
        "district_code": 950118,
        "regency_code": 9501,
        "province_code": 95,
        "name": "Bokiem",
        "postal_code": "99555",
        "latitude": -4.101225591304738,
        "longitude": 138.68742007762404
    },
    {
        "code": 9501182004,
        "district_code": 950118,
        "regency_code": 9501,
        "province_code": 95,
        "name": "Iyora",
        "postal_code": "99555",
        "latitude": -4.113851771080326,
        "longitude": 138.71762560611853
    },
    {
        "code": 9501182005,
        "district_code": 950118,
        "regency_code": 9501,
        "province_code": 95,
        "name": "Budliem",
        "postal_code": "99555",
        "latitude": -4.083584836700414,
        "longitude": 138.7605669887835
    },
    {
        "code": 9501182006,
        "district_code": 950118,
        "regency_code": 9501,
        "province_code": 95,
        "name": "Yoman Weya",
        "postal_code": "99555",
        "latitude": -4.109476467339822,
        "longitude": 138.79907741035882
    },
    {
        "code": 9501182007,
        "district_code": 950118,
        "regency_code": 9501,
        "province_code": 95,
        "name": "Huluaima",
        "postal_code": "99555",
        "latitude": -4.127018015126145,
        "longitude": 138.77286602851802
    },
    {
        "code": 9501182008,
        "district_code": 950118,
        "regency_code": 9501,
        "province_code": 95,
        "name": "Entagekokma",
        "postal_code": "99555",
        "latitude": -4.082798807605342,
        "longitude": 138.7883290891043
    },
    {
        "code": 9501192001,
        "district_code": 950119,
        "regency_code": 9501,
        "province_code": 95,
        "name": "Lukaken",
        "postal_code": "99503",
        "latitude": -4.028735752051062,
        "longitude": 139.12390052893878
    },
    {
        "code": 9501192002,
        "district_code": 950119,
        "regency_code": 9501,
        "province_code": 95,
        "name": "Miami",
        "postal_code": "99503",
        "latitude": -4.073511848513285,
        "longitude": 139.05177244298028
    },
    {
        "code": 9501192003,
        "district_code": 950119,
        "regency_code": 9501,
        "province_code": 95,
        "name": "Waroba",
        "postal_code": "99503",
        "latitude": -4.065802225286742,
        "longitude": 139.1061860257318
    },
    {
        "code": 9501192004,
        "district_code": 950119,
        "regency_code": 9501,
        "province_code": 95,
        "name": "Yogonima",
        "postal_code": "99503",
        "latitude": -4.010113772564057,
        "longitude": 139.16514064593088
    },
    {
        "code": 9501192005,
        "district_code": 950119,
        "regency_code": 9501,
        "province_code": 95,
        "name": "Tomisa",
        "postal_code": "99503",
        "latitude": -4.048491340021957,
        "longitude": 139.19045254741562
    },
    {
        "code": 9501192006,
        "district_code": 950119,
        "regency_code": 9501,
        "province_code": 95,
        "name": "Helepalegem",
        "postal_code": "99503",
        "latitude": -4.058637699895503,
        "longitude": 139.08104586905392
    },
    {
        "code": 9501192007,
        "district_code": 950119,
        "regency_code": 9501,
        "province_code": 95,
        "name": "Siliwa",
        "postal_code": "99503",
        "latitude": -4.063862702277148,
        "longitude": 139.0510898120049
    },
    {
        "code": 9501192008,
        "district_code": 950119,
        "regency_code": 9501,
        "province_code": 95,
        "name": "Sumunikama",
        "postal_code": "99503",
        "latitude": -4.054000425194961,
        "longitude": 139.1694993490441
    },
    {
        "code": 9501192009,
        "district_code": 950119,
        "regency_code": 9501,
        "province_code": 95,
        "name": "Kemisake",
        "postal_code": "99503",
        "latitude": -4.056831255844684,
        "longitude": 139.13884078764542
    },
    {
        "code": 9501202001,
        "district_code": 950120,
        "regency_code": 9501,
        "province_code": 95,
        "name": "Siepkosi",
        "postal_code": "99507",
        "latitude": -4.050940167787216,
        "longitude": 138.97645664232863
    },
    {
        "code": 9501202002,
        "district_code": 950120,
        "regency_code": 9501,
        "province_code": 95,
        "name": "Yumogima",
        "postal_code": "99507",
        "latitude": -4.007789193557091,
        "longitude": 139.01523943064277
    },
    {
        "code": 9501202003,
        "district_code": 950120,
        "regency_code": 9501,
        "province_code": 95,
        "name": "Sekan",
        "postal_code": "99507",
        "latitude": -4.045837194676718,
        "longitude": 139.0588274805181
    },
    {
        "code": 9501202004,
        "district_code": 950120,
        "regency_code": 9501,
        "province_code": 95,
        "name": "Noagalo",
        "postal_code": "99507",
        "latitude": -4.0657669120809805,
        "longitude": 138.98813860146157
    },
    {
        "code": 9501202005,
        "district_code": 950120,
        "regency_code": 9501,
        "province_code": 95,
        "name": "Manika",
        "postal_code": "99507",
        "latitude": -4.024630764714788,
        "longitude": 139.04655117624338
    },
    {
        "code": 9501202006,
        "district_code": 950120,
        "regency_code": 9501,
        "province_code": 95,
        "name": "Sekan Dalam",
        "postal_code": "99507",
        "latitude": -3.975913280080465,
        "longitude": 139.12738622427003
    },
    {
        "code": 9501202007,
        "district_code": 950120,
        "regency_code": 9501,
        "province_code": 95,
        "name": "Isawa Himan",
        "postal_code": "99507",
        "latitude": -3.9576990909669654,
        "longitude": 139.0771862264122
    },
    {
        "code": 9501202008,
        "district_code": 950120,
        "regency_code": 9501,
        "province_code": 95,
        "name": "Lunaima",
        "postal_code": "99507",
        "latitude": -4.000803631315485,
        "longitude": 139.09107434930152
    },
    {
        "code": 9501202009,
        "district_code": 950120,
        "regency_code": 9501,
        "province_code": 95,
        "name": "Wekia",
        "postal_code": "99507",
        "latitude": -4.0497423067073575,
        "longitude": 139.02153702628902
    },
    {
        "code": 9501212001,
        "district_code": 950121,
        "regency_code": 9501,
        "province_code": 95,
        "name": "Usilimo",
        "postal_code": "99524",
        "latitude": -3.9279245274166206,
        "longitude": 138.86356243262816
    },
    {
        "code": 9501212002,
        "district_code": 950121,
        "regency_code": 9501,
        "province_code": 95,
        "name": "Siba",
        "postal_code": "99524",
        "latitude": -3.8970817416967405,
        "longitude": 138.89361477650317
    },
    {
        "code": 9501212003,
        "district_code": 950121,
        "regency_code": 9501,
        "province_code": 95,
        "name": "Wosiala",
        "postal_code": "99524",
        "latitude": -3.926917052355178,
        "longitude": 138.8829235634649
    },
    {
        "code": 9501212004,
        "district_code": 950121,
        "regency_code": 9501,
        "province_code": 95,
        "name": "Gua Wisata",
        "postal_code": "99524",
        "latitude": -3.912545962011213,
        "longitude": 138.84393387760431
    },
    {
        "code": 9501212005,
        "district_code": 950121,
        "regency_code": 9501,
        "province_code": 95,
        "name": "Undulumo",
        "postal_code": "99524",
        "latitude": -3.932300175065491,
        "longitude": 138.90916923227456
    },
    {
        "code": 9501212006,
        "district_code": 950121,
        "regency_code": 9501,
        "province_code": 95,
        "name": "Fikha",
        "postal_code": "99524",
        "latitude": -3.9481926549048376,
        "longitude": 138.8879188836024
    },
    {
        "code": 9501212007,
        "district_code": 950121,
        "regency_code": 9501,
        "province_code": 95,
        "name": "Meagamia",
        "postal_code": "99524",
        "latitude": -3.899946931863178,
        "longitude": 138.85335717950514
    },
    {
        "code": 9501212008,
        "district_code": 950121,
        "regency_code": 9501,
        "province_code": 95,
        "name": "Alona",
        "postal_code": "99524",
        "latitude": -3.893741136250336,
        "longitude": 138.92339798015817
    },
    {
        "code": 9501212009,
        "district_code": 950121,
        "regency_code": 9501,
        "province_code": 95,
        "name": "Abutpuk",
        "postal_code": "99524",
        "latitude": -3.9359213274316893,
        "longitude": 138.87140915156309
    },
    {
        "code": 9501212010,
        "district_code": 950121,
        "regency_code": 9501,
        "province_code": 95,
        "name": "Isaiman",
        "postal_code": "99524",
        "latitude": -3.9121922415510015,
        "longitude": 138.9065320754658
    },
    {
        "code": 9501222001,
        "district_code": 950122,
        "regency_code": 9501,
        "province_code": 95,
        "name": "Koma",
        "postal_code": "99526",
        "latitude": -4.007927464169045,
        "longitude": 138.9134513366037
    },
    {
        "code": 9501222002,
        "district_code": 950122,
        "regency_code": 9501,
        "province_code": 95,
        "name": "Tulem",
        "postal_code": "99526",
        "latitude": -4.018277515943178,
        "longitude": 138.91869485847172
    },
    {
        "code": 9501222003,
        "district_code": 950122,
        "regency_code": 9501,
        "province_code": 95,
        "name": "Alula",
        "postal_code": "99526",
        "latitude": -4.035475960094487,
        "longitude": 138.91947588631572
    },
    {
        "code": 9501222004,
        "district_code": 950122,
        "regency_code": 9501,
        "province_code": 95,
        "name": "Alolik",
        "postal_code": "99526",
        "latitude": -4.01816135254089,
        "longitude": 138.94404707742262
    },
    {
        "code": 9501222005,
        "district_code": 950122,
        "regency_code": 9501,
        "province_code": 95,
        "name": "Wiligima",
        "postal_code": "99526",
        "latitude": -3.9972094165390466,
        "longitude": 138.91232651651347
    },
    {
        "code": 9501232001,
        "district_code": 950123,
        "regency_code": 9501,
        "province_code": 95,
        "name": "Muliama",
        "postal_code": "99522",
        "latitude": -3.9873691801069344,
        "longitude": 138.9748815138272
    },
    {
        "code": 9501232002,
        "district_code": 950123,
        "regency_code": 9501,
        "province_code": 95,
        "name": "Wenabubaga",
        "postal_code": "99522",
        "latitude": -3.995782678157857,
        "longitude": 138.9421865618299
    },
    {
        "code": 9501232003,
        "district_code": 950123,
        "regency_code": 9501,
        "province_code": 95,
        "name": "Kilubaga",
        "postal_code": "99522",
        "latitude": -3.993777682417463,
        "longitude": 138.99219405676737
    },
    {
        "code": 9501232004,
        "district_code": 950123,
        "regency_code": 9501,
        "province_code": 95,
        "name": "Musalfak",
        "postal_code": "99522",
        "latitude": -4.008702914454808,
        "longitude": 138.9425240536131
    },
    {
        "code": 9501232005,
        "district_code": 950123,
        "regency_code": 9501,
        "province_code": 95,
        "name": "Punakul",
        "postal_code": "99522",
        "latitude": -4.004132520411446,
        "longitude": 138.95135741618702
    },
    {
        "code": 9501242001,
        "district_code": 950124,
        "regency_code": 9501,
        "province_code": 95,
        "name": "Wadangku",
        "postal_code": "99525",
        "latitude": -3.9570682918056734,
        "longitude": 138.98900632503137
    },
    {
        "code": 9501242002,
        "district_code": 950124,
        "regency_code": 9501,
        "province_code": 95,
        "name": "Agulimo",
        "postal_code": "99525",
        "latitude": -3.9398470101695433,
        "longitude": 138.96595296324804
    },
    {
        "code": 9501242003,
        "district_code": 950124,
        "regency_code": 9501,
        "province_code": 95,
        "name": "Musiem",
        "postal_code": "99525",
        "latitude": -3.9450576820287804,
        "longitude": 139.03999780092937
    },
    {
        "code": 9501242004,
        "district_code": 950124,
        "regency_code": 9501,
        "province_code": 95,
        "name": "Yomosimo",
        "postal_code": "99525",
        "latitude": -3.949089524667909,
        "longitude": 139.0461679821272
    },
    {
        "code": 9501242005,
        "district_code": 950124,
        "regency_code": 9501,
        "province_code": 95,
        "name": "Luku-luku",
        "postal_code": "99525",
        "latitude": -3.9237616028824513,
        "longitude": 138.93920531455944
    },
    {
        "code": 9501252001,
        "district_code": 950125,
        "regency_code": 9501,
        "province_code": 95,
        "name": "Pisugi",
        "postal_code": "99523",
        "latitude": -4.0503455788283445,
        "longitude": 138.9525680631276
    },
    {
        "code": 9501252002,
        "district_code": 950125,
        "regency_code": 9501,
        "province_code": 95,
        "name": "Pabuma",
        "postal_code": "99523",
        "latitude": -4.06272603499406,
        "longitude": 138.96642111315663
    },
    {
        "code": 9501252003,
        "district_code": 950125,
        "regency_code": 9501,
        "province_code": 95,
        "name": "Aikima",
        "postal_code": "99523",
        "latitude": -4.028791930740316,
        "longitude": 138.95908800814294
    },
    {
        "code": 9501252004,
        "district_code": 950125,
        "regency_code": 9501,
        "province_code": 95,
        "name": "Pikhe",
        "postal_code": "99523",
        "latitude": -4.039085301043617,
        "longitude": 138.94247207539556
    },
    {
        "code": 9501252005,
        "district_code": 950125,
        "regency_code": 9501,
        "province_code": 95,
        "name": "Akiaput",
        "postal_code": "99523",
        "latitude": -4.065490983945342,
        "longitude": 138.95647614456368
    },
    {
        "code": 9501252006,
        "district_code": 950125,
        "regency_code": 9501,
        "province_code": 95,
        "name": "Suroba",
        "postal_code": "99523",
        "latitude": -4.0463492823892775,
        "longitude": 138.96665178544674
    },
    {
        "code": 9501252007,
        "district_code": 950125,
        "regency_code": 9501,
        "province_code": 95,
        "name": "Wara",
        "postal_code": "99523",
        "latitude": -4.0375750420823335,
        "longitude": 138.96384958147624
    },
    {
        "code": 9501262001,
        "district_code": 950126,
        "regency_code": 9501,
        "province_code": 95,
        "name": "Koragi",
        "postal_code": "99544",
        "latitude": -3.8719264923205357,
        "longitude": 138.80342743885194
    },
    {
        "code": 9501262002,
        "district_code": 950126,
        "regency_code": 9501,
        "province_code": 95,
        "name": "Telegai",
        "postal_code": "99544",
        "latitude": -3.879291251281403,
        "longitude": 138.81173895776843
    },
    {
        "code": 9501262003,
        "district_code": 950126,
        "regency_code": 9501,
        "province_code": 95,
        "name": "Kumudiluk",
        "postal_code": "99544",
        "latitude": -3.860923011849829,
        "longitude": 138.80751068960788
    },
    {
        "code": 9501262004,
        "district_code": 950126,
        "regency_code": 9501,
        "province_code": 95,
        "name": "Tagibaga",
        "postal_code": "99544",
        "latitude": -3.864332855961155,
        "longitude": 138.79362825834417
    },
    {
        "code": 9501262005,
        "district_code": 950126,
        "regency_code": 9501,
        "province_code": 95,
        "name": "Tenondek",
        "postal_code": "99544",
        "latitude": -3.876711364716075,
        "longitude": 138.80709779564805
    },
    {
        "code": 9501272001,
        "district_code": 950127,
        "regency_code": 9501,
        "province_code": 95,
        "name": "Tagime",
        "postal_code": "99546",
        "latitude": -3.8160456663970757,
        "longitude": 138.72154457041196
    },
    {
        "code": 9501272002,
        "district_code": 950127,
        "regency_code": 9501,
        "province_code": 95,
        "name": "Porome",
        "postal_code": "99546",
        "latitude": -3.7866031476297173,
        "longitude": 138.7028065385956
    },
    {
        "code": 9501272003,
        "district_code": 950127,
        "regency_code": 9501,
        "province_code": 95,
        "name": "Onggobalo",
        "postal_code": "99546",
        "latitude": -3.789575993195276,
        "longitude": 138.7150752537157
    },
    {
        "code": 9501272004,
        "district_code": 950127,
        "regency_code": 9501,
        "province_code": 95,
        "name": "Lakwame",
        "postal_code": "99546",
        "latitude": -3.80470029182105,
        "longitude": 138.7403390614694
    },
    {
        "code": 9501272005,
        "district_code": 950127,
        "regency_code": 9501,
        "province_code": 95,
        "name": "Yordania Tulak",
        "postal_code": "99546",
        "latitude": -3.7945971404570136,
        "longitude": 138.73072200887572
    },
    {
        "code": 9501272006,
        "district_code": 950127,
        "regency_code": 9501,
        "province_code": 95,
        "name": "Gume Kupari",
        "postal_code": "99546",
        "latitude": -3.7999893257822843,
        "longitude": 138.73587045176296
    },
    {
        "code": 9501272007,
        "district_code": 950127,
        "regency_code": 9501,
        "province_code": 95,
        "name": "Wandinggunie",
        "postal_code": "99546",
        "latitude": -3.784972181500354,
        "longitude": 138.727985478777
    },
    {
        "code": 9501272008,
        "district_code": 950127,
        "regency_code": 9501,
        "province_code": 95,
        "name": "Mulugame",
        "postal_code": "99546",
        "latitude": -3.802037428757092,
        "longitude": 138.7215750294983
    },
    {
        "code": 9501272009,
        "district_code": 950127,
        "regency_code": 9501,
        "province_code": 95,
        "name": "Lapeyo",
        "postal_code": "99546",
        "latitude": -3.812354194337514,
        "longitude": 138.74399071609685
    },
    {
        "code": 9501272010,
        "district_code": 950127,
        "regency_code": 9501,
        "province_code": 95,
        "name": "Yanggapura",
        "postal_code": "99546",
        "latitude": -3.8049144873347447,
        "longitude": 138.71004233063962
    },
    {
        "code": 9501272011,
        "district_code": 950127,
        "regency_code": 9501,
        "province_code": 95,
        "name": "Yogobur",
        "postal_code": "99546",
        "latitude": -3.8253150213053253,
        "longitude": 138.72534218699937
    },
    {
        "code": 9501282001,
        "district_code": 950128,
        "regency_code": 9501,
        "province_code": 95,
        "name": "Tanahmerah",
        "postal_code": "99545",
        "latitude": -3.8429334341266332,
        "longitude": 138.69052761108426
    },
    {
        "code": 9501282002,
        "district_code": 950128,
        "regency_code": 9501,
        "province_code": 95,
        "name": "Towagame",
        "postal_code": "99545",
        "latitude": -3.860306288121,
        "longitude": 138.70373085495444
    },
    {
        "code": 9501282003,
        "district_code": 950128,
        "regency_code": 9501,
        "province_code": 95,
        "name": "Molagalome",
        "postal_code": "99545",
        "latitude": -3.8432463054148136,
        "longitude": 138.702939267649
    },
    {
        "code": 9501282004,
        "district_code": 950128,
        "regency_code": 9501,
        "province_code": 95,
        "name": "Kwigiluk",
        "postal_code": "99545",
        "latitude": -3.862036609553769,
        "longitude": 138.6916675815611
    },
    {
        "code": 9501282005,
        "district_code": 950128,
        "regency_code": 9501,
        "province_code": 95,
        "name": "Mebunukme",
        "postal_code": "99545",
        "latitude": -3.85847071849542,
        "longitude": 138.7102511046089
    },
    {
        "code": 9501282006,
        "district_code": 950128,
        "regency_code": 9501,
        "province_code": 95,
        "name": "Okwa",
        "postal_code": "99545",
        "latitude": -3.8454229833468427,
        "longitude": 138.67886941159637
    },
    {
        "code": 9501292001,
        "district_code": 950129,
        "regency_code": 9501,
        "province_code": 95,
        "name": "Tagineri",
        "postal_code": "99547",
        "latitude": -3.7676496338285306,
        "longitude": 138.65626209601632
    },
    {
        "code": 9501292002,
        "district_code": 950129,
        "regency_code": 9501,
        "province_code": 95,
        "name": "Injuta",
        "postal_code": "99547",
        "latitude": -3.7875749492731026,
        "longitude": 138.6751246171917
    },
    {
        "code": 9501292003,
        "district_code": 950129,
        "regency_code": 9501,
        "province_code": 95,
        "name": "Binibaga",
        "postal_code": "99547",
        "latitude": -3.8156012514710915,
        "longitude": 138.649437993585
    },
    {
        "code": 9501292004,
        "district_code": 950129,
        "regency_code": 9501,
        "province_code": 95,
        "name": "Tamokilu",
        "postal_code": "99547",
        "latitude": -3.800530458719754,
        "longitude": 138.66088159701636
    },
    {
        "code": 9501292005,
        "district_code": 950129,
        "regency_code": 9501,
        "province_code": 95,
        "name": "Pagaluk",
        "postal_code": "99547",
        "latitude": -3.817118337729958,
        "longitude": 138.66315841979835
    },
    {
        "code": 9501292006,
        "district_code": 950129,
        "regency_code": 9501,
        "province_code": 95,
        "name": "Gelelame",
        "postal_code": "99547",
        "latitude": -3.782150756594899,
        "longitude": 138.6431199022609
    },
    {
        "code": 9501292007,
        "district_code": 950129,
        "regency_code": 9501,
        "province_code": 95,
        "name": "Wilaloma",
        "postal_code": "99547",
        "latitude": -3.7993691988917977,
        "longitude": 138.6489921231613
    },
    {
        "code": 9501292008,
        "district_code": 950129,
        "regency_code": 9501,
        "province_code": 95,
        "name": "Melemei",
        "postal_code": "99547",
        "latitude": -3.802574577256579,
        "longitude": 138.67705352206093
    },
    {
        "code": 9501292009,
        "district_code": 950129,
        "regency_code": 9501,
        "province_code": 95,
        "name": "Wuragukme",
        "postal_code": "99547",
        "latitude": -3.7840558765407937,
        "longitude": 138.65716987478308
    },
    {
        "code": 9501302001,
        "district_code": 950130,
        "regency_code": 9501,
        "province_code": 95,
        "name": "Wogi",
        "postal_code": "99535",
        "latitude": -3.9343708847793013,
        "longitude": 138.84879254420088
    },
    {
        "code": 9501302002,
        "district_code": 950130,
        "regency_code": 9501,
        "province_code": 95,
        "name": "Elaboge",
        "postal_code": "99535",
        "latitude": -3.9460985088163967,
        "longitude": 138.81890635807022
    },
    {
        "code": 9501302003,
        "district_code": 950130,
        "regency_code": 9501,
        "province_code": 95,
        "name": "Holasili",
        "postal_code": "99535",
        "latitude": -3.9214071564564863,
        "longitude": 138.8339115226651
    },
    {
        "code": 9501302004,
        "district_code": 950130,
        "regency_code": 9501,
        "province_code": 95,
        "name": "Yerega",
        "postal_code": "99535",
        "latitude": -3.944570081109051,
        "longitude": 138.85867741541065
    },
    {
        "code": 9501302005,
        "district_code": 950130,
        "regency_code": 9501,
        "province_code": 95,
        "name": "Olagi",
        "postal_code": "99535",
        "latitude": -3.9326067054239777,
        "longitude": 138.81324524428777
    },
    {
        "code": 9501302006,
        "district_code": 950130,
        "regency_code": 9501,
        "province_code": 95,
        "name": "Gigilobo",
        "postal_code": "99535",
        "latitude": -3.9219196666233733,
        "longitude": 138.79454582355078
    },
    {
        "code": 9501302007,
        "district_code": 950130,
        "regency_code": 9501,
        "province_code": 95,
        "name": "Apnae",
        "postal_code": "99535",
        "latitude": -3.908807453330699,
        "longitude": 138.80644073533554
    },
    {
        "code": 9501302008,
        "district_code": 950130,
        "regency_code": 9501,
        "province_code": 95,
        "name": "Wonenggulik",
        "postal_code": "99535",
        "latitude": -3.9563674184162956,
        "longitude": 138.82967807367325
    },
    {
        "code": 9501312001,
        "district_code": 950131,
        "regency_code": 9501,
        "province_code": 95,
        "name": "Piramid",
        "postal_code": "99534",
        "latitude": -3.905824926036176,
        "longitude": 138.754497203333
    },
    {
        "code": 9501312002,
        "district_code": 950131,
        "regency_code": 9501,
        "province_code": 95,
        "name": "Yonggime",
        "postal_code": "99534",
        "latitude": -3.9006865540086904,
        "longitude": 138.77299850987387
    },
    {
        "code": 9501312003,
        "district_code": 950131,
        "regency_code": 9501,
        "province_code": 95,
        "name": "Perabaga",
        "postal_code": "99534",
        "latitude": -3.897936604987746,
        "longitude": 138.7580231489815
    },
    {
        "code": 9501312004,
        "district_code": 950131,
        "regency_code": 9501,
        "province_code": 95,
        "name": "Algonik",
        "postal_code": "99534",
        "latitude": -3.880420652006963,
        "longitude": 138.76323432503847
    },
    {
        "code": 9501312005,
        "district_code": 950131,
        "regency_code": 9501,
        "province_code": 95,
        "name": "Yalinggume",
        "postal_code": "99534",
        "latitude": -3.874560519270197,
        "longitude": 138.72433714912967
    },
    {
        "code": 9501312006,
        "district_code": 950131,
        "regency_code": 9501,
        "province_code": 95,
        "name": "Aboneri",
        "postal_code": "99534",
        "latitude": -3.8954646006255818,
        "longitude": 138.73433808043058
    },
    {
        "code": 9501312007,
        "district_code": 950131,
        "regency_code": 9501,
        "province_code": 95,
        "name": "Gobalimo",
        "postal_code": "99534",
        "latitude": -3.912474497134522,
        "longitude": 138.77055658813157
    },
    {
        "code": 9501312008,
        "district_code": 950131,
        "regency_code": 9501,
        "province_code": 95,
        "name": "Balima",
        "postal_code": "99534",
        "latitude": -3.9069730268196188,
        "longitude": 138.78197245091408
    },
    {
        "code": 9501312009,
        "district_code": 950131,
        "regency_code": 9501,
        "province_code": 95,
        "name": "Yumbun",
        "postal_code": "99534",
        "latitude": -3.883722579965951,
        "longitude": 138.7507702493102
    },
    {
        "code": 9501312010,
        "district_code": 950131,
        "regency_code": 9501,
        "province_code": 95,
        "name": "Beam",
        "postal_code": "99534",
        "latitude": -3.888569188546866,
        "longitude": 138.7739813062511
    },
    {
        "code": 9501322001,
        "district_code": 950132,
        "regency_code": 9501,
        "province_code": 95,
        "name": "Miliama",
        "postal_code": "99532",
        "latitude": -4.008678801157377,
        "longitude": 138.78167837515105
    },
    {
        "code": 9501322002,
        "district_code": 950132,
        "regency_code": 9501,
        "province_code": 95,
        "name": "Asologaima",
        "postal_code": "99532",
        "latitude": -3.9919734416815786,
        "longitude": 138.82923505891588
    },
    {
        "code": 9501322003,
        "district_code": 950132,
        "regency_code": 9501,
        "province_code": 95,
        "name": "Kewin",
        "postal_code": "99532",
        "latitude": -4.031415379815316,
        "longitude": 138.7833705728414
    },
    {
        "code": 9501322004,
        "district_code": 950132,
        "regency_code": 9501,
        "province_code": 95,
        "name": "Holkima",
        "postal_code": "99532",
        "latitude": -4.03490951370196,
        "longitude": 138.82900884946721
    },
    {
        "code": 9501322005,
        "district_code": 950132,
        "regency_code": 9501,
        "province_code": 95,
        "name": "Helefa",
        "postal_code": "99532",
        "latitude": -3.9886262050127854,
        "longitude": 138.77446814779157
    },
    {
        "code": 9501322006,
        "district_code": 950132,
        "regency_code": 9501,
        "province_code": 95,
        "name": "Sekom",
        "postal_code": "99532",
        "latitude": -4.001491442910819,
        "longitude": 138.74560776497256
    },
    {
        "code": 9501322007,
        "district_code": 950132,
        "regency_code": 9501,
        "province_code": 95,
        "name": "Delekama",
        "postal_code": "99532",
        "latitude": -4.040830856871828,
        "longitude": 138.81362348024547
    },
    {
        "code": 9501322008,
        "district_code": 950132,
        "regency_code": 9501,
        "province_code": 95,
        "name": "Molebaga",
        "postal_code": "99532",
        "latitude": -4.00564878519139,
        "longitude": 138.7981208321861
    },
    {
        "code": 9501322009,
        "district_code": 950132,
        "regency_code": 9501,
        "province_code": 95,
        "name": "Silamik",
        "postal_code": "99532",
        "latitude": -3.9717958820661985,
        "longitude": 138.84113778577583
    },
    {
        "code": 9501322010,
        "district_code": 950132,
        "regency_code": 9501,
        "province_code": 95,
        "name": "Konan",
        "postal_code": "99532",
        "latitude": -4.019599533039527,
        "longitude": 138.81281206192494
    },
    {
        "code": 9501322011,
        "district_code": 950132,
        "regency_code": 9501,
        "province_code": 95,
        "name": "Pilibaga",
        "postal_code": "99532",
        "latitude": -4.039801360179456,
        "longitude": 138.79402017820416
    },
    {
        "code": 9501322012,
        "district_code": 950132,
        "regency_code": 9501,
        "province_code": 95,
        "name": "Hukuragi",
        "postal_code": "99532",
        "latitude": -4.022648853114523,
        "longitude": 138.7492817401413
    },
    {
        "code": 9501332001,
        "district_code": 950133,
        "regency_code": 9501,
        "province_code": 95,
        "name": "Bugi",
        "postal_code": "99543",
        "latitude": -3.868427202639762,
        "longitude": 138.8227675123846
    },
    {
        "code": 9501332002,
        "district_code": 950133,
        "regency_code": 9501,
        "province_code": 95,
        "name": "Manda",
        "postal_code": "99543",
        "latitude": -3.8881389289657737,
        "longitude": 138.82053805817563
    },
    {
        "code": 9501332003,
        "district_code": 950133,
        "regency_code": 9501,
        "province_code": 95,
        "name": "Dewene",
        "postal_code": "99543",
        "latitude": -3.859427028609051,
        "longitude": 138.82139601422523
    },
    {
        "code": 9501332004,
        "district_code": 950133,
        "regency_code": 9501,
        "province_code": 95,
        "name": "Totni",
        "postal_code": "99543",
        "latitude": -3.871869464105417,
        "longitude": 138.82970602082284
    },
    {
        "code": 9501332005,
        "district_code": 950133,
        "regency_code": 9501,
        "province_code": 95,
        "name": "Tagulik",
        "postal_code": "99543",
        "latitude": -3.8784143449743107,
        "longitude": 138.82585838376258
    },
    {
        "code": 9501332006,
        "district_code": 950133,
        "regency_code": 9501,
        "province_code": 95,
        "name": "Walak Selatan",
        "postal_code": "99543",
        "latitude": -3.890458564563418,
        "longitude": 138.82849269909235
    },
    {
        "code": 9501332007,
        "district_code": 950133,
        "regency_code": 9501,
        "province_code": 95,
        "name": "Kodlangga",
        "postal_code": "99543",
        "latitude": -3.883841372364328,
        "longitude": 138.8296401701601
    },
    {
        "code": 9501332008,
        "district_code": 950133,
        "regency_code": 9501,
        "province_code": 95,
        "name": "Air Garam",
        "postal_code": "99543",
        "latitude": -3.8880846997636973,
        "longitude": 138.8141579461037
    },
    {
        "code": 9501342001,
        "district_code": 950134,
        "regency_code": 9501,
        "province_code": 95,
        "name": "Irilinga",
        "postal_code": "99542",
        "latitude": -3.8461799912615136,
        "longitude": 138.84220625825245
    },
    {
        "code": 9501342002,
        "district_code": 950134,
        "regency_code": 9501,
        "province_code": 95,
        "name": "Onggobaga",
        "postal_code": "99542",
        "latitude": -3.827952614542572,
        "longitude": 138.84146631133524
    },
    {
        "code": 9501342003,
        "district_code": 950134,
        "regency_code": 9501,
        "province_code": 95,
        "name": "Walakma",
        "postal_code": "99542",
        "latitude": -3.8218123650483418,
        "longitude": 138.88022961327147
    },
    {
        "code": 9501342004,
        "district_code": 950134,
        "regency_code": 9501,
        "province_code": 95,
        "name": "Ayoma",
        "postal_code": "99542",
        "latitude": -3.856764956150807,
        "longitude": 138.8366499074425
    },
    {
        "code": 9501342005,
        "district_code": 950134,
        "regency_code": 9501,
        "province_code": 95,
        "name": "Dlonggoki",
        "postal_code": "99542",
        "latitude": -3.839966720314315,
        "longitude": 138.83067164100007
    },
    {
        "code": 9501342006,
        "district_code": 950134,
        "regency_code": 9501,
        "province_code": 95,
        "name": "Tirunggu",
        "postal_code": "99542",
        "latitude": -3.807668509677695,
        "longitude": 138.85435488017384
    },
    {
        "code": 9501342007,
        "district_code": 950134,
        "regency_code": 9501,
        "province_code": 95,
        "name": "Dlinggama",
        "postal_code": "99542",
        "latitude": -3.8156251636427934,
        "longitude": 138.81838458963853
    },
    {
        "code": 9501352001,
        "district_code": 950135,
        "regency_code": 9501,
        "province_code": 95,
        "name": "Welesi",
        "postal_code": "99512",
        "latitude": -4.184687678745324,
        "longitude": 138.89238157454602
    },
    {
        "code": 9501352002,
        "district_code": 950135,
        "regency_code": 9501,
        "province_code": 95,
        "name": "Yagara",
        "postal_code": "99512",
        "latitude": -4.143595857979055,
        "longitude": 138.8999275128548
    },
    {
        "code": 9501352003,
        "district_code": 950135,
        "regency_code": 9501,
        "province_code": 95,
        "name": "Asojelipele",
        "postal_code": "99512",
        "latitude": -4.132014088623045,
        "longitude": 138.92384819982001
    },
    {
        "code": 9501352004,
        "district_code": 950135,
        "regency_code": 9501,
        "province_code": 95,
        "name": "Lantipo",
        "postal_code": "99512",
        "latitude": -4.211749510955885,
        "longitude": 138.87398204844087
    },
    {
        "code": 9501352005,
        "district_code": 950135,
        "regency_code": 9501,
        "province_code": 95,
        "name": "Pawekama",
        "postal_code": "99512",
        "latitude": -4.22719819812978,
        "longitude": 138.91177077713627
    },
    {
        "code": 9501352006,
        "district_code": 950135,
        "regency_code": 9501,
        "province_code": 95,
        "name": "Apenas",
        "postal_code": "99512",
        "latitude": -4.235903003333283,
        "longitude": 138.88070349111078
    },
    {
        "code": 9501352007,
        "district_code": 950135,
        "regency_code": 9501,
        "province_code": 95,
        "name": "Tulima",
        "postal_code": "99512",
        "latitude": -4.244315244950952,
        "longitude": 138.85856398573952
    },
    {
        "code": 9501362001,
        "district_code": 950136,
        "regency_code": 9501,
        "province_code": 95,
        "name": "Sogokmo",
        "postal_code": "99502",
        "latitude": -4.20394298813895,
        "longitude": 139.00073628577422
    },
    {
        "code": 9501362002,
        "district_code": 950136,
        "regency_code": 9501,
        "province_code": 95,
        "name": "Asotipo",
        "postal_code": "99502",
        "latitude": -4.185378127101028,
        "longitude": 138.97436515390407
    },
    {
        "code": 9501362003,
        "district_code": 950136,
        "regency_code": 9501,
        "province_code": 95,
        "name": "Putageima",
        "postal_code": "99502",
        "latitude": -4.2102126882619535,
        "longitude": 138.95318592427066
    },
    {
        "code": 9501362004,
        "district_code": 950136,
        "regency_code": 9501,
        "province_code": 95,
        "name": "Kuantapo",
        "postal_code": "99502",
        "latitude": -4.208811351014077,
        "longitude": 138.97437525792168
    },
    {
        "code": 9501362005,
        "district_code": 950136,
        "regency_code": 9501,
        "province_code": 95,
        "name": "Heberima",
        "postal_code": "99502",
        "latitude": -4.196343685006286,
        "longitude": 139.01017013375994
    },
    {
        "code": 9501362006,
        "district_code": 950136,
        "regency_code": 9501,
        "province_code": 95,
        "name": "Iwigima",
        "postal_code": "99502",
        "latitude": -4.1872134125167,
        "longitude": 138.95237819885415
    },
    {
        "code": 9501362007,
        "district_code": 950136,
        "regency_code": 9501,
        "province_code": 95,
        "name": "Pobiatma",
        "postal_code": "99502",
        "latitude": -4.175086257797202,
        "longitude": 138.99027296767682
    },
    {
        "code": 9501362008,
        "district_code": 950136,
        "regency_code": 9501,
        "province_code": 95,
        "name": "Hitigima",
        "postal_code": "99502",
        "latitude": -4.21176668993651,
        "longitude": 138.9321360068928
    },
    {
        "code": 9501362009,
        "district_code": 950136,
        "regency_code": 9501,
        "province_code": 95,
        "name": "Air Garam",
        "postal_code": "99502",
        "latitude": -4.213017949653795,
        "longitude": 138.9887322855601
    },
    {
        "code": 9501362010,
        "district_code": 950136,
        "regency_code": 9501,
        "province_code": 95,
        "name": "Hukulimo",
        "postal_code": "99502",
        "latitude": -4.194054415194085,
        "longitude": 138.99707167215342
    },
    {
        "code": 9501372001,
        "district_code": 950137,
        "regency_code": 9501,
        "province_code": 95,
        "name": "Maima",
        "postal_code": "99504",
        "latitude": -4.13294153295622,
        "longitude": 139.0638660501443
    },
    {
        "code": 9501372002,
        "district_code": 950137,
        "regency_code": 9501,
        "province_code": 95,
        "name": "Minimo",
        "postal_code": "99504",
        "latitude": -4.1361987788604,
        "longitude": 138.9887085946747
    },
    {
        "code": 9501372003,
        "district_code": 950137,
        "regency_code": 9501,
        "province_code": 95,
        "name": "Esiak",
        "postal_code": null,
        "latitude": -4.152986586887801,
        "longitude": 138.9966296974325
    },
    {
        "code": 9501372004,
        "district_code": 950137,
        "regency_code": 9501,
        "province_code": 95,
        "name": "Heraewa",
        "postal_code": "99504",
        "latitude": -4.155462429905475,
        "longitude": 139.13014606369984
    },
    {
        "code": 9501372005,
        "district_code": 950137,
        "regency_code": 9501,
        "province_code": 95,
        "name": "Kepi",
        "postal_code": "99504",
        "latitude": -4.170222394261402,
        "longitude": 139.0688314600303
    },
    {
        "code": 9501372006,
        "district_code": 950137,
        "regency_code": 9501,
        "province_code": 95,
        "name": "Husewa",
        "postal_code": "99504",
        "latitude": -4.117580371110601,
        "longitude": 138.98357822316467
    },
    {
        "code": 9501372007,
        "district_code": 950137,
        "regency_code": 9501,
        "province_code": 95,
        "name": "Menagaima",
        "postal_code": "99504",
        "latitude": -4.112488221131796,
        "longitude": 139.0514989598188
    },
    {
        "code": 9501382001,
        "district_code": 950138,
        "regency_code": 9501,
        "province_code": 95,
        "name": "Pupugoba",
        "postal_code": "99506",
        "latitude": -4.1216500021104325,
        "longitude": 139.1826216334089
    },
    {
        "code": 9501382002,
        "district_code": 950138,
        "regency_code": 9501,
        "province_code": 95,
        "name": "Waima",
        "postal_code": "99506",
        "latitude": -4.083974809884657,
        "longitude": 139.05598096672009
    },
    {
        "code": 9501382003,
        "district_code": 950138,
        "regency_code": 9501,
        "province_code": 95,
        "name": "Yomote",
        "postal_code": "99506",
        "latitude": -4.086904403866688,
        "longitude": 139.08852605848188
    },
    {
        "code": 9501382004,
        "district_code": 950138,
        "regency_code": 9501,
        "province_code": 95,
        "name": "Yelelo",
        "postal_code": "99506",
        "latitude": -4.095352568494054,
        "longitude": 139.12883752157214
    },
    {
        "code": 9501392001,
        "district_code": 950139,
        "regency_code": 9501,
        "province_code": 95,
        "name": "Wame",
        "postal_code": "99536",
        "latitude": -3.9134224583421235,
        "longitude": 138.73331765328476
    },
    {
        "code": 9501392002,
        "district_code": 950139,
        "regency_code": 9501,
        "province_code": 95,
        "name": "Dumapaga",
        "postal_code": "99536",
        "latitude": -3.9331214545553044,
        "longitude": 138.73287986168344
    },
    {
        "code": 9501392003,
        "district_code": 950139,
        "regency_code": 9501,
        "province_code": 95,
        "name": "Yanenggame",
        "postal_code": "99536",
        "latitude": -3.9296172871087776,
        "longitude": 138.77253624143472
    },
    {
        "code": 9501392004,
        "district_code": 950139,
        "regency_code": 9501,
        "province_code": 95,
        "name": "Dogoname",
        "postal_code": "99536",
        "latitude": -3.9255636958995184,
        "longitude": 138.75683107306767
    },
    {
        "code": 9501401001,
        "district_code": 950140,
        "regency_code": 9501,
        "province_code": 95,
        "name": "Ilokama",
        "postal_code": "99513",
        "latitude": -4.095196028402493,
        "longitude": 138.95562682827742
    },
    {
        "code": 9501402002,
        "district_code": 950140,
        "regency_code": 9501,
        "province_code": 95,
        "name": "Kama",
        "postal_code": "99513",
        "latitude": -4.091669358960744,
        "longitude": 138.97275836928048
    },
    {
        "code": 9501402003,
        "district_code": 950140,
        "regency_code": 9501,
        "province_code": 95,
        "name": "Yaloaput",
        "postal_code": "99513",
        "latitude": -4.081695771698936,
        "longitude": 138.9642575376567
    },
    {
        "code": 9501402004,
        "district_code": 950140,
        "regency_code": 9501,
        "province_code": 95,
        "name": "Mawampi",
        "postal_code": "99513",
        "latitude": -4.103816839915744,
        "longitude": 138.9754065078332
    },
    {
        "code": 9501402005,
        "district_code": 950140,
        "regency_code": 9501,
        "province_code": 95,
        "name": "Parema",
        "postal_code": "99513",
        "latitude": -4.097496054873195,
        "longitude": 138.96270912802777
    },
    {
        "code": 9501402006,
        "district_code": 950140,
        "regency_code": 9501,
        "province_code": 95,
        "name": "Agamoa",
        "postal_code": "99513",
        "latitude": -4.073881484293151,
        "longitude": 138.9689580666619
    },
    {
        "code": 9501402007,
        "district_code": 950140,
        "regency_code": 9501,
        "province_code": 95,
        "name": "Silumarek",
        "postal_code": "99513",
        "latitude": -4.074444556635228,
        "longitude": 138.9573461624993
    },
    {
        "code": 9501402008,
        "district_code": 950140,
        "regency_code": 9501,
        "province_code": 95,
        "name": "Wesaganya",
        "postal_code": "99513",
        "latitude": -4.086415146275952,
        "longitude": 138.95381607753043
    },
    {
        "code": 9502012001,
        "district_code": 950201,
        "regency_code": 9502,
        "province_code": 95,
        "name": "Kabiding",
        "postal_code": "99415",
        "latitude": -4.877359885174039,
        "longitude": 140.60153796857927
    },
    {
        "code": 9502012002,
        "district_code": 950201,
        "regency_code": 9502,
        "province_code": 95,
        "name": "Aldom",
        "postal_code": null,
        "latitude": -4.944803858616421,
        "longitude": 140.70896944306475
    },
    {
        "code": 9502012003,
        "district_code": 950201,
        "regency_code": 9502,
        "province_code": 95,
        "name": "Kutdol",
        "postal_code": null,
        "latitude": -4.8817101573254185,
        "longitude": 140.62816389389297
    },
    {
        "code": 9502012004,
        "district_code": 950201,
        "regency_code": 9502,
        "province_code": 95,
        "name": "Polsam",
        "postal_code": null,
        "latitude": -4.85644800064998,
        "longitude": 140.6109019747048
    },
    {
        "code": 9502012005,
        "district_code": 950201,
        "regency_code": 9502,
        "province_code": 95,
        "name": "Akmakot",
        "postal_code": null,
        "latitude": -4.904079026130467,
        "longitude": 140.63403638235837
    },
    {
        "code": 9502012006,
        "district_code": 950201,
        "regency_code": 9502,
        "province_code": 95,
        "name": "Mabilabol",
        "postal_code": null,
        "latitude": -4.93958878077738,
        "longitude": 140.6587269137365
    },
    {
        "code": 9502012007,
        "district_code": 950201,
        "regency_code": 9502,
        "province_code": 95,
        "name": "Bunamdol",
        "postal_code": null,
        "latitude": -4.92337102341235,
        "longitude": 140.66932652645272
    },
    {
        "code": 9502012008,
        "district_code": 950201,
        "regency_code": 9502,
        "province_code": 95,
        "name": "Molbib Silibib",
        "postal_code": null,
        "latitude": -4.891006992197257,
        "longitude": 140.66673963083008
    },
    {
        "code": 9502022001,
        "district_code": 950202,
        "regency_code": 9502,
        "province_code": 95,
        "name": "Oknanggul",
        "postal_code": "99421",
        "latitude": -4.736118893705844,
        "longitude": 140.72539113453018
    },
    {
        "code": 9502022002,
        "district_code": 950202,
        "regency_code": 9502,
        "province_code": 95,
        "name": "Kukihil",
        "postal_code": null,
        "latitude": -4.72742741853162,
        "longitude": 140.76833592140213
    },
    {
        "code": 9502022003,
        "district_code": 950202,
        "regency_code": 9502,
        "province_code": 95,
        "name": "Kiwi",
        "postal_code": null,
        "latitude": -4.708196841633293,
        "longitude": 140.70836450160635
    },
    {
        "code": 9502022004,
        "district_code": 950202,
        "regency_code": 9502,
        "province_code": 95,
        "name": "Berusaha",
        "postal_code": "99421",
        "latitude": -4.73186704219214,
        "longitude": 140.75027624664926
    },
    {
        "code": 9502022005,
        "district_code": 950202,
        "regency_code": 9502,
        "province_code": 95,
        "name": "Pelebib",
        "postal_code": null,
        "latitude": -4.689693437099838,
        "longitude": 140.75915517097354
    },
    {
        "code": 9502022006,
        "district_code": 950202,
        "regency_code": 9502,
        "province_code": 95,
        "name": "Sopamikma",
        "postal_code": null,
        "latitude": -4.716647983471427,
        "longitude": 140.74834648960143
    },
    {
        "code": 9502022007,
        "district_code": 950202,
        "regency_code": 9502,
        "province_code": 95,
        "name": "Asua",
        "postal_code": "99421",
        "latitude": -4.686682018859434,
        "longitude": 140.7968936668678
    },
    {
        "code": 9502022008,
        "district_code": 950202,
        "regency_code": 9502,
        "province_code": 95,
        "name": "Lolim",
        "postal_code": null,
        "latitude": -4.6898088480138815,
        "longitude": 140.73443822627294
    },
    {
        "code": 9502022009,
        "district_code": 950202,
        "regency_code": 9502,
        "province_code": 95,
        "name": "Pomding",
        "postal_code": null,
        "latitude": -4.711672960715849,
        "longitude": 140.74267789306515
    },
    {
        "code": 9502022010,
        "district_code": 950202,
        "regency_code": 9502,
        "province_code": 95,
        "name": "Diip",
        "postal_code": "99421",
        "latitude": -4.676159309789439,
        "longitude": 140.85698089109505
    },
    {
        "code": 9502022011,
        "district_code": 950202,
        "regency_code": 9502,
        "province_code": 95,
        "name": "Delpem",
        "postal_code": null,
        "latitude": -4.684717214691871,
        "longitude": 140.71724919445035
    },
    {
        "code": 9502022012,
        "district_code": 950202,
        "regency_code": 9502,
        "province_code": 95,
        "name": "Mangoldoki",
        "postal_code": null,
        "latitude": -4.732707161094265,
        "longitude": 140.70221694921568
    },
    {
        "code": 9502032001,
        "district_code": 950203,
        "regency_code": 9502,
        "province_code": 95,
        "name": "Okbifisil",
        "postal_code": "99404",
        "latitude": -4.644709988881898,
        "longitude": 140.56496715673376
    },
    {
        "code": 9502032002,
        "district_code": 950203,
        "regency_code": 9502,
        "province_code": 95,
        "name": "Abmisibil",
        "postal_code": null,
        "latitude": -4.67037941829142,
        "longitude": 140.58902324623054
    },
    {
        "code": 9502032003,
        "district_code": 950203,
        "regency_code": 9502,
        "province_code": 95,
        "name": "Manunggal",
        "postal_code": null,
        "latitude": -4.685119067852836,
        "longitude": 140.58412470326215
    },
    {
        "code": 9502032004,
        "district_code": 950203,
        "regency_code": 9502,
        "province_code": 95,
        "name": "Iriding",
        "postal_code": "99404",
        "latitude": -4.61508961372497,
        "longitude": 140.59655527103016
    },
    {
        "code": 9502032005,
        "district_code": 950203,
        "regency_code": 9502,
        "province_code": 95,
        "name": "Atolbol",
        "postal_code": null,
        "latitude": -4.605714009045337,
        "longitude": 140.57413068487568
    },
    {
        "code": 9502032006,
        "district_code": 950203,
        "regency_code": 9502,
        "province_code": 95,
        "name": "Oktanglap",
        "postal_code": null,
        "latitude": -4.691323647776363,
        "longitude": 140.5293582155926
    },
    {
        "code": 9502032007,
        "district_code": 950203,
        "regency_code": 9502,
        "province_code": 95,
        "name": "Oksemar",
        "postal_code": null,
        "latitude": -4.709120719327962,
        "longitude": 140.574676847333
    },
    {
        "code": 9502032008,
        "district_code": 950203,
        "regency_code": 9502,
        "province_code": 95,
        "name": "Okaplo",
        "postal_code": "99404",
        "latitude": -4.658504232111266,
        "longitude": 140.54448829920372
    },
    {
        "code": 9502042001,
        "district_code": 950204,
        "regency_code": 9502,
        "province_code": 95,
        "name": "Iwur",
        "postal_code": "99432",
        "latitude": -5.146137192814571,
        "longitude": 140.72220962093445
    },
    {
        "code": 9502042002,
        "district_code": 950204,
        "regency_code": 9502,
        "province_code": 95,
        "name": "Kurumklin",
        "postal_code": "99432",
        "latitude": -5.177847504218991,
        "longitude": 140.82642037955014
    },
    {
        "code": 9502042003,
        "district_code": 950204,
        "regency_code": 9502,
        "province_code": 95,
        "name": "Walapkubun",
        "postal_code": "99432",
        "latitude": -5.219628312087951,
        "longitude": 140.6734747198937
    },
    {
        "code": 9502042004,
        "district_code": 950204,
        "regency_code": 9502,
        "province_code": 95,
        "name": "Dinmot Arim",
        "postal_code": null,
        "latitude": -5.094625308569505,
        "longitude": 140.69825616988976
    },
    {
        "code": 9502042005,
        "district_code": 950204,
        "regency_code": 9502,
        "province_code": 95,
        "name": "Ewenkatop",
        "postal_code": null,
        "latitude": -5.125019487542841,
        "longitude": 140.77909115822632
    },
    {
        "code": 9502042006,
        "district_code": 950204,
        "regency_code": 9502,
        "province_code": 95,
        "name": "Ulkubi",
        "postal_code": null,
        "latitude": -5.261928082444202,
        "longitude": 140.89713396617287
    },
    {
        "code": 9502042007,
        "district_code": 950204,
        "regency_code": 9502,
        "province_code": 95,
        "name": "Dipol",
        "postal_code": null,
        "latitude": -5.047255337573487,
        "longitude": 140.69915839433907
    },
    {
        "code": 9502042008,
        "district_code": 950204,
        "regency_code": 9502,
        "province_code": 95,
        "name": "Nenginum",
        "postal_code": "99432",
        "latitude": -5.0213699980941096,
        "longitude": 140.7369553006333
    },