[
    {
        "code": 920101,
        "regency_code": 9201,
        "province_code": 92,
        "name": "Makbon",
        "latitude": -0.8029543307537896,
        "longitude": 131.52818277953187
    },
    {
        "code": 920104,
        "regency_code": 9201,
        "province_code": 92,
        "name": "Beraur",
        "latitude": -1.2975489857465137,
        "longitude": 131.69761848885543
    },
    {
        "code": 920105,
        "regency_code": 9201,
        "province_code": 92,
        "name": "Salawati",
        "latitude": -1.1700228697234152,
        "longitude": 131.29685038521387
    },
    {
        "code": 920106,
        "regency_code": 9201,
        "province_code": 92,
        "name": "Seget",
        "latitude": -1.360426035015476,
        "longitude": 131.0767621871144
    },
    {
        "code": 920107,
        "regency_code": 9201,
        "province_code": 92,
        "name": "Aimas",
        "latitude": -0.9918055931784129,
        "longitude": 131.39630622802872
    },
    {
        "code": 920108,
        "regency_code": 9201,
        "province_code": 92,
        "name": "Klamono",
        "latitude": -1.098695368503445,
        "longitude": 131.47550211664327
    },
    {
        "code": 920110,
        "regency_code": 9201,
        "province_code": 92,
        "name": "Sayosa",
        "latitude": -1.0407894347246878,
        "longitude": 131.69877826294115
    },
    {
        "code": 920112,
        "regency_code": 9201,
        "province_code": 92,
        "name": "Segun",
        "latitude": -1.363546745954393,
        "longitude": 131.3552201407219
    },
    {
        "code": 920113,
        "regency_code": 9201,
        "province_code": 92,
        "name": "Mayamuk",
        "latitude": -1.061109135810479,
        "longitude": 131.30459913167843
    },
    {
        "code": 920114,
        "regency_code": 9201,
        "province_code": 92,
        "name": "Salawati Selatan",
        "latitude": -1.1846283854206914,
        "longitude": 130.82972450462967
    },
    {
        "code": 920117,
        "regency_code": 9201,
        "province_code": 92,
        "name": "Klabot",
        "latitude": -1.3358163790329296,
        "longitude": 131.84458301342488
    },
    {
        "code": 920118,
        "regency_code": 9201,
        "province_code": 92,
        "name": "Klawak",
        "latitude": -1.2210036686815615,
        "longitude": 131.82502100092205
    },
    {
        "code": 920120,
        "regency_code": 9201,
        "province_code": 92,
        "name": "Maudus",
        "latitude": -0.9575722784663011,
        "longitude": 132.04246528692488
    },
    {
        "code": 920139,
        "regency_code": 9201,
        "province_code": 92,
        "name": "Mariat",
        "latitude": -1.0161341122528225,
        "longitude": 131.3496215439946
    },
    {
        "code": 920140,
        "regency_code": 9201,
        "province_code": 92,
        "name": "Klayili",
        "latitude": -0.9004762124035548,
        "longitude": 131.60601484242883
    },
    {
        "code": 920141,
        "regency_code": 9201,
        "province_code": 92,
        "name": "Klaso",
        "latitude": -0.7894875819556314,
        "longitude": 131.94912672964347
    },
    {
        "code": 920142,
        "regency_code": 9201,
        "province_code": 92,
        "name": "Moisegen",
        "latitude": -1.272791947988774,
        "longitude": 131.24363451640713
    },
    {
        "code": 920143,
        "regency_code": 9201,
        "province_code": 92,
        "name": "Sorong",
        "latitude": -0.9337538379185664,
        "longitude": 131.40920054706825
    },
    {
        "code": 920144,
        "regency_code": 9201,
        "province_code": 92,
        "name": "Bagun",
        "latitude": -1.2782357518664036,
        "longitude": 131.59847074229407
    },
    {
        "code": 920145,
        "regency_code": 9201,
        "province_code": 92,
        "name": "Wemak",
        "latitude": -1.1125962895326889,
        "longitude": 131.81408140020298
    },
    {
        "code": 920146,
        "regency_code": 9201,
        "province_code": 92,
        "name": "Sunook",
        "latitude": -0.9373320451219682,
        "longitude": 132.1835927224182
    },
    {
        "code": 920147,
        "regency_code": 9201,
        "province_code": 92,
        "name": "Buk",
        "latitude": -1.4136288692828942,
        "longitude": 131.76683694469068
    },
    {
        "code": 920148,
        "regency_code": 9201,
        "province_code": 92,
        "name": "Saengkeduk",
        "latitude": -0.8122170859677499,
        "longitude": 132.1235247866327
    },
    {
        "code": 920149,
        "regency_code": 9201,
        "province_code": 92,
        "name": "Malabotom",
        "latitude": -1.187338279632681,
        "longitude": 131.4512877037918
    },
    {
        "code": 920150,
        "regency_code": 9201,
        "province_code": 92,
        "name": "Konhir",
        "latitude": -1.1716759161234087,
        "longitude": 131.75491902629233
    },
    {
        "code": 920151,
        "regency_code": 9201,
        "province_code": 92,
        "name": "Klasafet",
        "latitude": -1.1367014824728905,
        "longitude": 131.5660760544468
    },
    {
        "code": 920152,
        "regency_code": 9201,
        "province_code": 92,
        "name": "Hobard",
        "latitude": -1.2839790638558353,
        "longitude": 131.8308589114373
    },
    {
        "code": 920153,
        "regency_code": 9201,
        "province_code": 92,
        "name": "Salawati Tengah",
        "latitude": -1.2669623822326679,
        "longitude": 130.96292051127045
    },
    {
        "code": 920154,
        "regency_code": 9201,
        "province_code": 92,
        "name": "Botain",
        "latitude": -1.4496378346559127,
        "longitude": 131.62877479838832
    },
    {
        "code": 920155,
        "regency_code": 9201,
        "province_code": 92,
        "name": "Sayosa Timur",
        "latitude": -0.9643464650651298,
        "longitude": 131.8705183897817
    },
    {
        "code": 920203,
        "regency_code": 9202,
        "province_code": 92,
        "name": "Warmare",
        "latitude": -1.020040676657247,
        "longitude": 133.8818088122033
    },
    {
        "code": 920204,
        "regency_code": 9202,
        "province_code": 92,
        "name": "Prafi",
        "latitude": -0.8805843271427414,
        "longitude": 133.85962997030686
    },
    {
        "code": 920205,
        "regency_code": 9202,
        "province_code": 92,
        "name": "Masni",
        "latitude": -0.8551920939261481,
        "longitude": 133.7265848642746
    },
    {
        "code": 920212,
        "regency_code": 9202,
        "province_code": 92,
        "name": "Manokwari Barat",
        "latitude": -0.8516725663805697,
        "longitude": 134.04151306353717
    },
    {
        "code": 920213,
        "regency_code": 9202,
        "province_code": 92,
        "name": "Manokwari Timur",
        "latitude": -0.8677045593132984,
        "longitude": 134.10465546086812
    },
    {
        "code": 920214,
        "regency_code": 9202,
        "province_code": 92,
        "name": "Manokwari Utara",
        "latitude": -0.7874274045164947,
        "longitude": 133.92460346968636
    },
    {
        "code": 920215,
        "regency_code": 9202,
        "province_code": 92,
        "name": "Manokwari Selatan",
        "latitude": -0.9778030918113206,
        "longitude": 134.00612263750887
    },
    {
        "code": 920217,
        "regency_code": 9202,
        "province_code": 92,
        "name": "Tanah Rubuh",
        "latitude": -1.162916023655626,
        "longitude": 134.04474899686204
    },
    {
        "code": 920221,
        "regency_code": 9202,
        "province_code": 92,
        "name": "Sidey",
        "latitude": -0.9154332570541411,
        "longitude": 133.57726618675204
    },
    {
        "code": 920301,
        "regency_code": 9203,
        "province_code": 92,
        "name": "Fak-Fak",
        "latitude": -2.885551368331084,
        "longitude": 132.3151700596307
    },
    {
        "code": 920302,
        "regency_code": 9203,
        "province_code": 92,
        "name": "Fak-Fak Barat",
        "latitude": -2.8755209172332874,
        "longitude": 132.2011583978368
    },
    {
        "code": 920303,
        "regency_code": 9203,
        "province_code": 92,
        "name": "Fak-Fak Timur",
        "latitude": -3.1595362646775964,
        "longitude": 132.74290375045865
    },
    {
        "code": 920304,
        "regency_code": 9203,
        "province_code": 92,
        "name": "Kokas",
        "latitude": -2.7287560520078564,
        "longitude": 132.4752114385318
    },
    {
        "code": 920305,
        "regency_code": 9203,
        "province_code": 92,
        "name": "Fak-Fak Tengah",
        "latitude": -2.8974935901447787,
        "longitude": 132.41869663199398
    },
    {
        "code": 920306,
        "regency_code": 9203,
        "province_code": 92,
        "name": "Karas",
        "latitude": -3.37354951032162,
        "longitude": 133.07487812094215
    },
    {
        "code": 920307,
        "regency_code": 9203,
        "province_code": 92,
        "name": "Bomberay",
        "latitude": -2.937696881820825,
        "longitude": 132.96577685920843
    },
    {
        "code": 920308,
        "regency_code": 9203,
        "province_code": 92,
        "name": "Kramongmongga",
        "latitude": -2.8060001225913904,
        "longitude": 132.44769499904046
    },
    {
        "code": 920309,
        "regency_code": 9203,
        "province_code": 92,
        "name": "Teluk Patipi",
        "latitude": -2.725315344001804,
        "longitude": 132.1790615410812
    },
    {
        "code": 920310,
        "regency_code": 9203,
        "province_code": 92,
        "name": "Pariwari",
        "latitude": -2.8915907243275067,
        "longitude": 132.25963306227104
    },
    {
        "code": 920311,
        "regency_code": 9203,
        "province_code": 92,
        "name": "Wartutin",
        "latitude": -2.8876779399130674,
        "longitude": 132.0947432492379
    },
    {
        "code": 920312,
        "regency_code": 9203,
        "province_code": 92,
        "name": "Fakfak Timur Tengah",
        "latitude": -2.9700158796619505,
        "longitude": 132.57777403586786
    },
    {
        "code": 920313,
        "regency_code": 9203,
        "province_code": 92,
        "name": "Arguni",
        "latitude": -2.705252562282622,
        "longitude": 132.5727019983607
    },
    {
        "code": 920314,
        "regency_code": 9203,
        "province_code": 92,
        "name": "Mbahamdandara",
        "latitude": -2.8669219324077457,
        "longitude": 132.71071163585648
    },
    {
        "code": 920315,
        "regency_code": 9203,
        "province_code": 92,
        "name": "Kayauni",
        "latitude": -2.7669476273576254,
        "longitude": 132.28910316702542
    },
    {
        "code": 920316,
        "regency_code": 9203,
        "province_code": 92,
        "name": "Furwagi",
        "latitude": -2.7889669790355187,
        "longitude": 132.08054939553216
    },
    {
        "code": 920317,
        "regency_code": 9203,
        "province_code": 92,
        "name": "Tomage",
        "latitude": -2.7677776131972984,
        "longitude": 133.0170668206985
    },
    {
        "code": 920401,
        "regency_code": 9204,
        "province_code": 92,
        "name": "Teminabuan",
        "latitude": -1.4140604163010397,
        "longitude": 132.06783233890602
    },
    {
        "code": 920404,
        "regency_code": 9204,
        "province_code": 92,
        "name": "Inanwatan",
        "latitude": -2.125079672893734,
        "longitude": 132.2434386056174
    },
    {
        "code": 920406,
        "regency_code": 9204,
        "province_code": 92,
        "name": "Sawiat",
        "latitude": -1.2736432326913392,
        "longitude": 131.99182553729955
    },
    {
        "code": 920409,
        "regency_code": 9204,
        "province_code": 92,
        "name": "Kokoda",
        "latitude": -2.1496840271270146,
        "longitude": 132.4742363722826
    },
    {
        "code": 920410,
        "regency_code": 9204,
        "province_code": 92,
        "name": "Moswaren",
        "latitude": -1.5138427402035126,
        "longitude": 132.2493471539577
    },
    {
        "code": 920411,
        "regency_code": 9204,
        "province_code": 92,
        "name": "Seremuk",
        "latitude": -1.4102138701907947,
        "longitude": 131.96009238357973
    },
    {
        "code": 920412,
        "regency_code": 9204,
        "province_code": 92,
        "name": "Wayer",
        "latitude": -1.5294943023052692,
        "longitude": 132.15276016138895
    },
    {
        "code": 920414,
        "regency_code": 9204,
        "province_code": 92,
        "name": "Kais",
        "latitude": -1.8469924357061458,
        "longitude": 132.1483827761384
    },
    {
        "code": 920415,
        "regency_code": 9204,
        "province_code": 92,
        "name": "Konda",
        "latitude": -1.6204272637416173,
        "longitude": 132.01036088818012
    },
    {
        "code": 920420,
        "regency_code": 9204,
        "province_code": 92,
        "name": "Matemani",
        "latitude": -1.9773945690749786,
        "longitude": 132.22569283232562
    },
    {
        "code": 920421,
        "regency_code": 9204,
        "province_code": 92,
        "name": "Kokoda Utara",
        "latitude": -1.9734849643495613,
        "longitude": 132.5169840035835
    },
    {
        "code": 920422,
        "regency_code": 9204,
        "province_code": 92,
        "name": "Saifi",
        "latitude": -1.4793690704553555,
        "longitude": 131.86805600695985
    },
    {
        "code": 920424,
        "regency_code": 9204,
        "province_code": 92,
        "name": "Fokour",
        "latitude": -1.1529454602256404,
        "longitude": 132.0270010052597
    },
    {
        "code": 920425,
        "regency_code": 9204,
        "province_code": 92,
        "name": "Salkma",
        "latitude": -1.152836072137178,
        "longitude": 131.9169835835459
    },
    {
        "code": 920426,
        "regency_code": 9204,
        "province_code": 92,
        "name": "Kais Darat",
        "latitude": -1.6972329797690193,
        "longitude": 132.28344401176494
    },
    {
        "code": 920501,
        "regency_code": 9205,
        "province_code": 92,
        "name": "Misool (Misool Utara)",
        "latitude": -1.8671772268880285,
        "longitude": 129.98624902970843
    },
    {
        "code": 920502,
        "regency_code": 9205,
        "province_code": 92,
        "name": "Waigeo Utara",
        "latitude": -0.1250674821499736,
        "longitude": 130.95271421646177
    },
    {
        "code": 920503,
        "regency_code": 9205,
        "province_code": 92,
        "name": "Waigeo Selatan",
        "latitude": -0.3481990192571453,
        "longitude": 130.6600279259291
    },
    {
        "code": 920504,
        "regency_code": 9205,
        "province_code": 92,
        "name": "Salawati Utara",
        "latitude": -0.9736251205618406,
        "longitude": 130.97411869267688
    },
    {
        "code": 920505,
        "regency_code": 9205,
        "province_code": 92,
        "name": "Kepulauan Ayau",
        "latitude": 0.38084995114159714,
        "longitude": 131.03592948755485
    },
    {
        "code": 920506,
        "regency_code": 9205,
        "province_code": 92,
        "name": "Misool Timur",
        "latitude": -1.8295580203604627,
        "longitude": 130.30865853844944
    },
    {
        "code": 920507,
        "regency_code": 9205,
        "province_code": 92,
        "name": "Waigeo Barat",
        "latitude": -0.16212509295366584,
        "longitude": 130.42067014324016
    },
    {
        "code": 920508,
        "regency_code": 9205,
        "province_code": 92,
        "name": "Waigeo Timur",
        "latitude": -0.27113358627030126,
        "longitude": 131.19896928671636
    },
    {
        "code": 920509,
        "regency_code": 9205,
        "province_code": 92,
        "name": "Teluk Mayalibit",
        "latitude": -0.26335883337939914,
        "longitude": 130.89738143062834
    },
    {
        "code": 920510,
        "regency_code": 9205,
        "province_code": 92,
        "name": "Kofiau",
        "latitude": -1.190141605741735,
        "longitude": 129.77378605180695
    },
    {
        "code": 920511,
        "regency_code": 9205,
        "province_code": 92,
        "name": "Meos Mansar",
        "latitude": -0.4800303187206362,
        "longitude": 130.56720486418666
    },
    {
        "code": 920513,
        "regency_code": 9205,
        "province_code": 92,
        "name": "Misool Selatan",
        "latitude": -2.053431849337428,
        "longitude": 130.41221779907926
    },
    {
        "code": 920514,
        "regency_code": 9205,
        "province_code": 92,
        "name": "Warwarbomi",
        "latitude": -0.15076009095487308,
        "longitude": 131.1361884780898
    },
    {
        "code": 920515,
        "regency_code": 9205,
        "province_code": 92,
        "name": "Waigeo Barat Kepulauan",
        "latitude": -0.4733786587659249,
        "longitude": 130.0430453727747
    },
    {
        "code": 920516,
        "regency_code": 9205,
        "province_code": 92,
        "name": "Misool Barat",
        "latitude": -2.0074605153424394,
        "longitude": 130.18496950353995
    },
    {
        "code": 920517,
        "regency_code": 9205,
        "province_code": 92,
        "name": "Kepulauan Sembilan",
        "latitude": -1.4564218945963747,
        "longitude": 130.245888705198
    },
    {
        "code": 920518,
        "regency_code": 9205,
        "province_code": 92,
        "name": "Kota Waisai",
        "latitude": -0.3864251166233608,
        "longitude": 130.81855971368742
    },
    {
        "code": 920519,
        "regency_code": 9205,
        "province_code": 92,
        "name": "Tiplol Mayalibit",
        "latitude": -0.13856703639963702,
        "longitude": 130.66394555375322
    },
    {
        "code": 920520,
        "regency_code": 9205,
        "province_code": 92,
        "name": "Batanta Utara",
        "latitude": -0.8303101911479801,
        "longitude": 130.62512338920067
    },
    {
        "code": 920521,
        "regency_code": 9205,
        "province_code": 92,
        "name": "Salawati Barat",
        "latitude": -0.9900064416225186,
        "longitude": 130.78110040207633
    },
    {
        "code": 920522,
        "regency_code": 9205,
        "province_code": 92,
        "name": "Salawati Tengah",
        "latitude": -1.080930682899756,
        "longitude": 130.98413269521154
    },
    {
        "code": 920523,
        "regency_code": 9205,
        "province_code": 92,
        "name": "Supnin",
        "latitude": -0.05246926674851553,
        "longitude": 130.80680748341038
    },
    {
        "code": 920524,
        "regency_code": 9205,
        "province_code": 92,
        "name": "Ayau",
        "latitude": 0.9207969637059448,
        "longitude": 131.22959362004806
    },
    {
        "code": 920525,
        "regency_code": 9205,
        "province_code": 92,
        "name": "Batanta Selatan",
        "latitude": -0.8545673303369696,
        "longitude": 130.67654245674802
    },
    {
        "code": 920601,
        "regency_code": 9206,
        "province_code": 92,
        "name": "Bintuni",
        "latitude": -2.0863602172391724,
        "longitude": 133.5122580530663
    },
    {
        "code": 920602,
        "regency_code": 9206,
        "province_code": 92,
        "name": "Merdey",
        "latitude": -1.6322309806692519,
        "longitude": 133.27286376258618
    },
    {
        "code": 920603,
        "regency_code": 9206,
        "province_code": 92,
        "name": "Babo",
        "latitude": -2.5694756785610307,
        "longitude": 133.53447357506911
    },
    {
        "code": 920604,
        "regency_code": 9206,
        "province_code": 92,
        "name": "Aranday",
        "latitude": -2.1067516863652136,
        "longitude": 133.10862533321895
    },
    {
        "code": 920605,
        "regency_code": 9206,
        "province_code": 92,
        "name": "Moskona Selatan",
        "latitude": -1.7698818473304267,
        "longitude": 133.13749514612547
    },
    {
        "code": 920606,
        "regency_code": 9206,
        "province_code": 92,
        "name": "Moskona Utara",
        "latitude": -1.4209485058813476,
        "longitude": 133.0103553154778
    },
    {
        "code": 920607,
        "regency_code": 9206,
        "province_code": 92,
        "name": "Wamesa",
        "latitude": -2.292502672415355,
        "longitude": 133.97646460069438
    },
    {
        "code": 920608,
        "regency_code": 9206,
        "province_code": 92,
        "name": "Fafurwar",
        "latitude": -2.9359132833268333,
        "longitude": 133.47857068234214
    },
    {
        "code": 920609,
        "regency_code": 9206,
        "province_code": 92,
        "name": "Tembuni",
        "latitude": -2.0022553560943255,
        "longitude": 133.2600255689704
    },
    {
        "code": 920610,
        "regency_code": 9206,
        "province_code": 92,
        "name": "Kuri",
        "latitude": -2.731336407227629,
        "longitude": 134.0607728407168
    },
    {
        "code": 920611,
        "regency_code": 9206,
        "province_code": 92,
        "name": "Manimeri",
        "latitude": -1.9888716899277001,
        "longitude": 133.82318014074866
    },
    {
        "code": 920612,
        "regency_code": 9206,
        "province_code": 92,
        "name": "Tuhiba",
        "latitude": -1.9135372729376539,
        "longitude": 133.40949134805467
    },
    {
        "code": 920613,
        "regency_code": 9206,
        "province_code": 92,
        "name": "Dataran Beimes",
        "latitude": -1.6881417548454327,
        "longitude": 133.70135267117925
    },
    {
        "code": 920614,
        "regency_code": 9206,
        "province_code": 92,
        "name": "Sumuri",
        "latitude": -2.5553577658418543,
        "longitude": 133.14932746227774
    },
    {
        "code": 920615,
        "regency_code": 9206,
        "province_code": 92,
        "name": "Kaitaro",
        "latitude": -2.748796704228097,
        "longitude": 133.74042928548315
    },
    {
        "code": 920616,
        "regency_code": 9206,
        "province_code": 92,
        "name": "Aroba",
        "latitude": -2.7284670374432634,
        "longitude": 133.37389015254115
    },
    {
        "code": 920617,
        "regency_code": 9206,
        "province_code": 92,
        "name": "Masyeta",
        "latitude": -1.4818025977625364,
        "longitude": 133.18113911844077
    },
    {
        "code": 920618,
        "regency_code": 9206,
        "province_code": 92,
        "name": "Biscoop",
        "latitude": -1.6274495697720661,
        "longitude": 133.47441013473548
    },
    {
        "code": 920619,
        "regency_code": 9206,
        "province_code": 92,
        "name": "Tomu",
        "latitude": -1.982229461698241,
        "longitude": 132.94409290931873
    },
    {
        "code": 920620,
        "regency_code": 9206,
        "province_code": 92,
        "name": "Kamundan",
        "latitude": -2.107351994360791,
        "longitude": 132.71858793218718
    },
    {
        "code": 920621,
        "regency_code": 9206,
        "province_code": 92,
        "name": "Weriagar",
        "latitude": -2.0432564007737053,
        "longitude": 132.84404500661438
    },
    {
        "code": 920622,
        "regency_code": 9206,
        "province_code": 92,
        "name": "Moskona Barat",
        "latitude": -1.6209863479997508,
        "longitude": 132.94304753506998
    },
    {
        "code": 920623,
        "regency_code": 9206,
        "province_code": 92,
        "name": "Meyado",
        "latitude": -1.9338273889856736,
        "longitude": 133.08596246856945
    },
    {
        "code": 920624,
        "regency_code": 9206,
        "province_code": 92,
        "name": "Moskona Timur",
        "latitude": -1.3426608984596957,
        "longitude": 133.22097956285364
    },
    {
        "code": 920701,
        "regency_code": 9207,
        "province_code": 92,
        "name": "Wasior",
        "latitude": -2.6787601803800247,
        "longitude": 134.57569645066974
    },
    {
        "code": 920702,
        "regency_code": 9207,
        "province_code": 92,
        "name": "Windesi",
        "latitude": -2.569979325976418,
        "longitude": 134.28091290679293
    },
    {
        "code": 920703,
        "regency_code": 9207,
        "province_code": 92,
        "name": "Teluk Duairi",
        "latitude": -2.537440079973246,
        "longitude": 134.55541921702948
    },
    {
        "code": 920704,
        "regency_code": 9207,
        "province_code": 92,
        "name": "Wondiboy",
        "latitude": -2.796443522437126,
        "longitude": 134.56745750060452
    },
    {
        "code": 920705,
        "regency_code": 9207,
        "province_code": 92,
        "name": "Wamesa",
        "latitude": -2.1535645207918974,
        "longitude": 134.14138095577076
    },
    {
        "code": 920706,
        "regency_code": 9207,
        "province_code": 92,
        "name": "Rumberpon",
        "latitude": -1.839374949031578,
        "longitude": 134.1839368531467
    },
    {
        "code": 920707,
        "regency_code": 9207,
        "province_code": 92,
        "name": "Naikere",
        "latitude": -3.2302272853731337,
        "longitude": 134.4449976035627
    },
    {
        "code": 920708,
        "regency_code": 9207,
        "province_code": 92,
        "name": "Rasiei",
        "latitude": -2.9255145729167515,
        "longitude": 134.5490039665419
    },
    {
        "code": 920709,
        "regency_code": 9207,
        "province_code": 92,
        "name": "Kuri Wamesa",
        "latitude": -2.828872639272341,
        "longitude": 134.3807231408656
    },
    {
        "code": 920710,
        "regency_code": 9207,
        "province_code": 92,
        "name": "Roon",
        "latitude": -2.3377923744292546,
        "longitude": 134.57291454088082
    },
    {
        "code": 920711,
        "regency_code": 9207,
        "province_code": 92,
        "name": "Roswar",
        "latitude": -2.060546230210082,
        "longitude": 134.37261792382216
    },
    {
        "code": 920712,
        "regency_code": 9207,
        "province_code": 92,
        "name": "Nikiwar",
        "latitude": -2.4202111177867667,
        "longitude": 134.16089008448978
    },
    {
        "code": 920713,
        "regency_code": 9207,
        "province_code": 92,
        "name": "Soug Jaya",
        "latitude": -1.9240815438775485,
        "longitude": 134.08889045162908
    },
    {
        "code": 920801,
        "regency_code": 9208,
        "province_code": 92,
        "name": "Kaimana",
        "latitude": -3.6619185978570186,
        "longitude": 133.98135422359246
    },
    {
        "code": 920802,
        "regency_code": 9208,
        "province_code": 92,
        "name": "Buruway",
        "latitude": -3.810776489158142,
        "longitude": 133.2170397863019
    },
    {
        "code": 920803,
        "regency_code": 9208,
        "province_code": 92,
        "name": "Teluk Arguni Atas",
        "latitude": -3.1166961910728683,
        "longitude": 133.99906439612806
    },
    {
        "code": 920804,
        "regency_code": 9208,
        "province_code": 92,
        "name": "Teluk Etna",
        "latitude": -4.016944623435811,
        "longitude": 134.71071885444368
    },
    {
        "code": 920805,
        "regency_code": 9208,
        "province_code": 92,
        "name": "Kambrau",
        "latitude": -3.419555858999354,
        "longitude": 133.45625757523214
    },
    {
        "code": 920806,
        "regency_code": 9208,
        "province_code": 92,
        "name": "Teluk Arguni Bawah",
        "latitude": -3.2684790191751345,
        "longitude": 133.69169092646106
    },
    {
        "code": 920807,
        "regency_code": 9208,
        "province_code": 92,
        "name": "Yamor",
        "latitude": -3.6489753258104827,
        "longitude": 134.6370698747909
    },
    {
        "code": 920901,
        "regency_code": 9209,
        "province_code": 92,
        "name": "Fef",
        "latitude": -0.8274387027881427,
        "longitude": 132.48444412580864
    },
    {
        "code": 920902,
        "regency_code": 9209,
        "province_code": 92,
        "name": "Miyah",
        "latitude": -0.8859942575774148,
        "longitude": 132.74796837571628
    },
    {
        "code": 920903,
        "regency_code": 9209,
        "province_code": 92,
        "name": "Yembun",
        "latitude": -0.764577331892246,
        "longitude": 132.23809164680068
    },
    {
        "code": 920904,
        "regency_code": 9209,
        "province_code": 92,
        "name": "Kwoor",
        "latitude": -0.4071956812741163,
        "longitude": 132.3036190480267
    },
    {
        "code": 920905,
        "regency_code": 9209,
        "province_code": 92,
        "name": "Sausapor",
        "latitude": -0.6036556969301138,
        "longitude": 132.11833705208042
    },
    {
        "code": 920906,
        "regency_code": 9209,
        "province_code": 92,
        "name": "Abun",
        "latitude": -0.5055339026823088,
        "longitude": 132.7845564938216
    },
    {
        "code": 920907,
        "regency_code": 9209,
        "province_code": 92,
        "name": "Syujak",
        "latitude": -0.6283807102643674,
        "longitude": 132.3992904269207
    },
    {
        "code": 920908,
        "regency_code": 9209,
        "province_code": 92,
        "name": "Moraid",
        "latitude": -0.6774405980440437,
        "longitude": 132.00838858632943
    },
    {
        "code": 920909,
        "regency_code": 9209,
        "province_code": 92,
        "name": "Kebar",
        "latitude": -0.8245472616185352,
        "longitude": 133.11303431001656
    },
    {
        "code": 920910,
        "regency_code": 9209,
        "province_code": 92,
        "name": "Amberbaken",
        "latitude": -0.6649294328072276,
        "longitude": 133.0970888086441
    },
    {
        "code": 920911,
        "regency_code": 9209,
        "province_code": 92,
        "name": "Senopi",
        "latitude": -0.7667112250181319,
        "longitude": 132.85857079866872
    },
    {
        "code": 920912,
        "regency_code": 9209,
        "province_code": 92,
        "name": "Mubrani",
        "latitude": -0.7349581365414715,
        "longitude": 133.349389826209
    },
    {
        "code": 920913,
        "regency_code": 9209,
        "province_code": 92,
        "name": "Bikar",
        "latitude": -0.506072348924009,
        "longitude": 132.21482569907195
    },
    {
        "code": 920914,
        "regency_code": 9209,
        "province_code": 92,
        "name": "Bamusbama",
        "latitude": -0.7349724206862094,
        "longitude": 132.28560299248417
    },
    {
        "code": 920915,
        "regency_code": 9209,
        "province_code": 92,
        "name": "Ases",
        "latitude": -0.9228766899714806,
        "longitude": 132.3911799085106
    },
    {
        "code": 920916,
        "regency_code": 9209,
        "province_code": 92,
        "name": "Miyah Selatan",
        "latitude": -1.0096481594225262,
        "longitude": 132.67404972334853
    },
    {
        "code": 920917,
        "regency_code": 9209,
        "province_code": 92,
        "name": "Ireres",
        "latitude": -1.0986623084682956,
        "longitude": 132.9042024131716
    },
    {
        "code": 920918,
        "regency_code": 9209,
        "province_code": 92,
        "name": "Tobouw",
        "latitude": -0.44231659482882874,
        "longitude": 132.50013084820026
    },
    {
        "code": 920919,
        "regency_code": 9209,
        "province_code": 92,
        "name": "Wilhem Roumbouts",
        "latitude": -0.8323321553451835,
        "longitude": 132.624107052531
    },
    {
        "code": 920920,
        "regency_code": 9209,
        "province_code": 92,
        "name": "Tinggouw",
        "latitude": -0.7087424535994857,
        "longitude": 132.6122068369627
    },
    {
        "code": 920921,
        "regency_code": 9209,
        "province_code": 92,
        "name": "Kwesefo",
        "latitude": -0.5519936338146754,
        "longitude": 132.53718579596026
    },
    {
        "code": 920922,
        "regency_code": 9209,
        "province_code": 92,
        "name": "Mawabuan",
        "latitude": -0.880167533883951,
        "longitude": 132.97075378057647
    },
    {
        "code": 920923,
        "regency_code": 9209,
        "province_code": 92,
        "name": "Kebar Timur",
        "latitude": -0.837862888994272,
        "longitude": 133.218806122572
    },
    {
        "code": 920924,
        "regency_code": 9209,
        "province_code": 92,
        "name": "Kebar Selatan",
        "latitude": -1.1036663736501884,
        "longitude": 133.23615993193968
    },
    {
        "code": 920925,
        "regency_code": 9209,
        "province_code": 92,
        "name": "Manekar",
        "latitude": -0.9545617192971886,
        "longitude": 133.06728946052294
    },
    {
        "code": 920926,
        "regency_code": 9209,
        "province_code": 92,
        "name": "Mpur",
        "latitude": -0.6714569799289372,
        "longitude": 133.17660522842277
    },
    {
        "code": 920927,
        "regency_code": 9209,
        "province_code": 92,
        "name": "Amberbaken Barat",
        "latitude": -0.5759852686545863,
        "longitude": 132.98334396308215
    },
    {
        "code": 920928,
        "regency_code": 9209,
        "province_code": 92,
        "name": "Kasi",
        "latitude": -0.8457513778003641,
        "longitude": 133.3565830152015
    },
    {
        "code": 920929,
        "regency_code": 9209,
        "province_code": 92,
        "name": "Selemkai",
        "latitude": -0.744021359741978,
        "longitude": 131.81351855198412
    },
    {
        "code": 921001,
        "regency_code": 9210,
        "province_code": 92,
        "name": "Aifat",
        "latitude": -1.2590918947565446,
        "longitude": 132.4990117269415
    },
    {
        "code": 921002,
        "regency_code": 9210,
        "province_code": 92,
        "name": "Aifat Utara",
        "latitude": -1.1012739231889848,
        "longitude": 132.4884555149954
    },
    {
        "code": 921003,
        "regency_code": 9210,
        "province_code": 92,
        "name": "Aifat Timur",
        "latitude": -1.5981589509693934,
        "longitude": 132.70465363680944
    },
    {
        "code": 921004,
        "regency_code": 9210,
        "province_code": 92,
        "name": "Aifat Selatan",
        "latitude": -1.519728071163485,
        "longitude": 132.53720144557033
    },
    {
        "code": 921005,
        "regency_code": 9210,
        "province_code": 92,
        "name": "Aitinyo Barat",
        "latitude": -1.3785138421468413,
        "longitude": 132.27918270150548
    },
    {
        "code": 921006,
        "regency_code": 9210,
        "province_code": 92,
        "name": "Aitinyo",
        "latitude": -1.4752662568909916,
        "longitude": 132.40577786884523
    },
    {
        "code": 921007,
        "regency_code": 9210,
        "province_code": 92,
        "name": "Aitinyo Utara",
        "latitude": -1.3473998350441587,
        "longitude": 132.37892176021194
    },
    {
        "code": 921008,
        "regency_code": 9210,
        "province_code": 92,
        "name": "Ayamaru",
        "latitude": -1.274861689049616,
        "longitude": 132.18372045815718
    },
    {
        "code": 921009,
        "regency_code": 9210,
        "province_code": 92,
        "name": "Ayamaru Utara",
        "latitude": -1.2294740082947222,
        "longitude": 132.27517494703199
    },
    {
        "code": 921010,
        "regency_code": 9210,
        "province_code": 92,
        "name": "Ayamaru Timur",
        "latitude": -1.2955591511569369,
        "longitude": 132.27576636948564
    },
    {
        "code": 921011,
        "regency_code": 9210,
        "province_code": 92,
        "name": "Mare",
        "latitude": -0.9895297890415268,
        "longitude": 132.3090354386303
    },
    {
        "code": 921012,
        "regency_code": 9210,
        "province_code": 92,
        "name": "Aifat Timur Tengah",
        "latitude": -1.2771859974595647,
        "longitude": 132.65692098163973
    },
    {
        "code": 921013,
        "regency_code": 9210,
        "province_code": 92,
        "name": "Aifat Timur Jauh",
        "latitude": -1.3113945862998084,
        "longitude": 132.81259630930882
    },
    {
        "code": 921014,
        "regency_code": 9210,
        "province_code": 92,
        "name": "Aifat Timur Selatan",
        "latitude": -1.752492601439062,
        "longitude": 132.50861892637414
    },
    {
        "code": 921015,
        "regency_code": 9210,
        "province_code": 92,
        "name": "Ayamaru Selatan",
        "latitude": -1.3211738476982344,
        "longitude": 132.17352857898442
    },
    {
        "code": 921016,
        "regency_code": 9210,
        "province_code": 92,
        "name": "Ayamaru Jaya",
        "latitude": -1.1778966395290702,
        "longitude": 132.1540867772962
    },
    {
        "code": 921017,
        "regency_code": 9210,
        "province_code": 92,
        "name": "Ayamaru Selatan Jaya",
        "latitude": -1.3627027422058566,
        "longitude": 132.2274529349476
    },
    {
        "code": 921018,
        "regency_code": 9210,
        "province_code": 92,
        "name": "Ayamaru Timur Selatan",
        "latitude": -1.3329078840282718,
        "longitude": 132.2720049849351
    },
    {
        "code": 921019,
        "regency_code": 9210,
        "province_code": 92,
        "name": "Ayamaru Utara Timur",
        "latitude": -1.2464880676803851,
        "longitude": 132.35059033128667
    },
    {
        "code": 921020,
        "regency_code": 9210,
        "province_code": 92,
        "name": "Ayamaru Tengah",
        "latitude": -1.292305415966881,
        "longitude": 132.23147455199052
    },
    {
        "code": 921021,
        "regency_code": 9210,
        "province_code": 92,
        "name": "Ayamaru Barat",
        "latitude": -1.2610118311825302,
        "longitude": 132.1311193970051
    },
    {
        "code": 921022,
        "regency_code": 9210,
        "province_code": 92,
        "name": "Aitinyo Tengah",
        "latitude": -1.429415342763633,
        "longitude": 132.32370885592144
    },
    {
        "code": 921023,
        "regency_code": 9210,
        "province_code": 92,
        "name": "Aitinyo Raya",
        "latitude": -1.310613878987157,
        "longitude": 132.32281959366736
    },
    {
        "code": 921024,
        "regency_code": 9210,
        "province_code": 92,
        "name": "Mare Selatan",
        "latitude": -1.1120317678237206,
        "longitude": 132.29515001961465
    },
    {
        "code": 921101,
        "regency_code": 9211,
        "province_code": 92,
        "name": "Ransiki",
        "latitude": -1.4626277858736114,
        "longitude": 134.1229394855524
    },
    {
        "code": 921102,
        "regency_code": 9211,
        "province_code": 92,
        "name": "Oransbari",
        "latitude": -1.3207157144050046,
        "longitude": 134.15674460346685
    },
    {
        "code": 921103,
        "regency_code": 9211,
        "province_code": 92,
        "name": "Neney",
        "latitude": -1.5527411381729082,
        "longitude": 133.99662134129326
    },
    {
        "code": 921104,
        "regency_code": 9211,
        "province_code": 92,
        "name": "Dataran Isim",
        "latitude": -1.6075543523744713,
        "longitude": 133.83857760497864
    },
    {
        "code": 921105,
        "regency_code": 9211,
        "province_code": 92,
        "name": "Momi Waren",
        "latitude": -1.5985796230390148,
        "longitude": 134.08702443443477
    },
    {
        "code": 921106,
        "regency_code": 9211,
        "province_code": 92,
        "name": "Tahota",
        "latitude": -1.762757114471139,
        "longitude": 133.98527302509177
    },
    {
        "code": 921201,
        "regency_code": 9212,
        "province_code": 92,
        "name": "Anggi",
        "latitude": -1.3124585621786824,
        "longitude": 133.92659256754166
    },
    {
        "code": 921202,
        "regency_code": 9212,
        "province_code": 92,
        "name": "Anggi Gida",
        "latitude": -1.388892460407924,
        "longitude": 134.00178140657346
    },
    {
        "code": 921203,
        "regency_code": 9212,
        "province_code": 92,
        "name": "Membey",
        "latitude": -1.3042642047978927,
        "longitude": 134.03397731120467
    },
    {
        "code": 921204,
        "regency_code": 9212,
        "province_code": 92,
        "name": "Sururey",
        "latitude": -1.4415406747753883,
        "longitude": 133.89333430991826
    },
    {
        "code": 921205,
        "regency_code": 9212,
        "province_code": 92,
        "name": "Didohu",
        "latitude": -1.437335335431553,
        "longitude": 133.72503885956567
    },
    {
        "code": 921206,
        "regency_code": 9212,
        "province_code": 92,
        "name": "Taige",
        "latitude": -1.3213895337250436,
        "longitude": 133.83355076378487
    },
    {
        "code": 921207,
        "regency_code": 9212,
        "province_code": 92,
        "name": "Catubouw",
        "latitude": -1.1815906574270236,
        "longitude": 133.70253547383248
    },
    {
        "code": 921208,
        "regency_code": 9212,
        "province_code": 92,
        "name": "Testega",
        "latitude": -1.2654192070980335,
        "longitude": 133.5024398913182
    },
    {
        "code": 921209,
        "regency_code": 9212,
        "province_code": 92,
        "name": "Minyambaouw",
        "latitude": -1.1235904513561665,
        "longitude": 133.85466907520828
    },
    {
        "code": 921210,
        "regency_code": 9212,
        "province_code": 92,
        "name": "Hingk",
        "latitude": -1.23279166972878,
        "longitude": 133.93964979470593
    },
    {
        "code": 927101,
        "regency_code": 9271,
        "province_code": 92,
        "name": "Sorong",
        "latitude": -0.8759110793548736,
        "longitude": 131.27819253537928
    },
    {
        "code": 927102,
        "regency_code": 9271,
        "province_code": 92,
        "name": "Sorong Timur",
        "latitude": -0.9072659171503037,
        "longitude": 131.3125229962175
    },
    {
        "code": 927103,
        "regency_code": 9271,
        "province_code": 92,
        "name": "Sorong Barat",
        "latitude": -0.8492721824288781,
        "longitude": 131.2639856288383
    },
    {
        "code": 927104,
        "regency_code": 9271,
        "province_code": 92,
        "name": "Sorong Kepulauan",
        "latitude": -0.9064854985019478,
        "longitude": 131.22827033450073
    },
    {
        "code": 927105,
        "regency_code": 9271,
        "province_code": 92,
        "name": "Sorong Utara",
        "latitude": -0.869824817375938,
        "longitude": 131.34151163399224
    },
    {
        "code": 927106,
        "regency_code": 9271,
        "province_code": 92,
        "name": "Sorong Manoi",
        "latitude": -0.8906067308592551,
        "longitude": 131.28721657300594
    },
    {
        "code": 927107,
        "regency_code": 9271,
        "province_code": 92,
        "name": "Sorong Kota",
        "latitude": -0.8727610738506799,
        "longitude": 131.2557353786853
    },
    {
        "code": 927108,
        "regency_code": 9271,
        "province_code": 92,
        "name": "Klaurung",
        "latitude": -0.9186152047945418,
        "longitude": 131.35844704486627
    },
    {
        "code": 927109,
        "regency_code": 9271,
        "province_code": 92,
        "name": "Malaimsimsa",
        "latitude": -0.841315823700277,
        "longitude": 131.32766219168766
    },
    {
        "code": 927110,
        "regency_code": 9271,
        "province_code": 92,
        "name": "Maladum Mes",
        "latitude": -0.8182112957339124,
        "longitude": 131.2963557798708
    }
]