[
    {
        "code": 7601,
        "province_code": 76,
        "name": "Kab. Pasangkayu",
        "latitude": -1.4896573788987502,
        "longitude": 119.5076335133788
    },
    {
        "code": 7602,
        "province_code": 76,
        "name": "Kab. Mamuju",
        "latitude": -2.519697790734661,
        "longitude": 119.34457596991619
    },
    {
        "code": 7603,
        "province_code": 76,
        "name": "Kab. Mamasa",
        "latitude": -2.945739799711806,
        "longitude": 119.31439347605969
    },
    {
        "code": 7604,
        "province_code": 76,
        "name": "Kab. Polewali Mandar",
        "latitude": -3.3101502738008928,
        "longitude": 119.14732655546528
    },
    {
        "code": 7605,
        "province_code": 76,
        "name": "Kab. Majene",
        "latitude": -3.173163960081831,
        "longitude": 118.91846698602926
    },
    {
        "code": 7606,
        "province_code": 76,
        "name": "Kab. Mamuju Tengah",
        "latitude": -2.0026542496796775,
        "longitude": 119.5110891019249
    }
]