[
    {
        "code": 7601,
        "province_code": 76,
        "name": "Kab. Pasangkayu",
        "latitude": -1.1737447997757244,
        "longitude": 119.37723724714068
    },
    {
        "code": 7602,
        "province_code": 76,
        "name": "Kab. Mamuju",
        "latitude": -2.6897491591296983,
        "longitude": 118.88453367460207
    },
    {
        "code": 7603,
        "province_code": 76,
        "name": "Kab. Mamasa",
        "latitude": -2.9556254753926536,
        "longitude": 119.36286435705937
    },
    {
        "code": 7604,
        "province_code": 76,
        "name": "Kab. Polewali Mandar",
        "latitude": -3.4077171800221633,
        "longitude": 119.31115423620673
    },
    {
        "code": 7605,
        "province_code": 76,
        "name": "Kab. Majene",
        "latitude": -3.548096071882418,
        "longitude": 118.95929449246914
    },
    {
        "code": 7606,
        "province_code": 76,
        "name": "Kab. Mamuju Tengah",
        "latitude": -2.08191948325633,
        "longitude": 119.30101480907719
    }
]