code,district_code,regency_code,province_code,name,postal_code,latitude,longitude
7601011006,760101,7601,76,Bambalamotu,91575,-1.1128100531017,119.46359684533
7601012003,760101,7601,76,Polewali,91575,-1.1435277638688,119.46456517713
7601012004,760101,7601,76,Randomayang,91575,-1.050815703944,119.48549065297
7601012007,760101,7601,76,Pangiang,91575,-1.1344579464174,119.42414632334
7601012008,760101,7601,76,Kalola,91575,-1.1051182186667,119.52089732486
7601012009,760101,7601,76,Wulai,91575,-1.0590526215758,119.54326714355
7601021001,760102,7601,76,Pasangkayu,91571,-1.2089701469169,119.37741822071
7601021002,760102,7601,76,Martajaya,91571,-1.1790042693126,119.42862279306
7601022010,760102,7601,76,Pakava,91571,-1.1771439569182,119.52869617813
7601022014,760102,7601,76,"Karya Bersama",91571,-1.2218825102292,119.3414840737
7601022015,760102,7601,76,Ako,91571,-1.1808329102108,119.40160506544
7601022016,760102,7601,76,"Gunung Sari",91571,-1.2180138440477,119.45996209888
7601031001,760103,7601,76,Baras,91572,-1.584734829404,119.33921546552
7601032002,760103,7601,76,Balanti,91572,-1.586868474656,119.45008587371
7601032003,760103,7601,76,Motu,91572,-1.5355376623486,119.44545562538
7601032012,760103,7601,76,"Bulu Parigi",91572,-1.6095575123158,119.34128702028
7601032013,760103,7601,76,Towoni,91572,-1.6070035006664,119.38826967279
7601032016,760103,7601,76,Kasano,91572,-1.5393052019229,119.34077892128
7601042001,760104,7601,76,Sarudu,91576,-1.686589403593,119.31219057397
7601042003,760104,7601,76,"Bulu Mario",91576,-1.6743505543769,119.35539179116
7601042005,760104,7601,76,Kumasari,91576,-1.7103679293307,119.35371217648
7601042011,760104,7601,76,Patika,91576,-1.6431102677269,119.34706518183
7601042012,760104,7601,76,Doda,91576,-1.6372224752558,119.31512241608
7601052001,760105,7601,76,Dapurang,91581,-1.73278209316,119.35820198176
7601052002,760105,7601,76,Benggaulu,91581,-1.7274378303303,119.63839575511
7601052003,760105,7601,76,Tirtabuana,91581,-1.7520075069507,119.36052728223
7601052004,760105,7601,76,"Bulu Bonggu",91581,-1.665597309092,119.50035991473
7601052005,760105,7601,76,Sarasa,91581,-1.7797775270656,119.33440923453
7601062001,760106,7601,76,Tammarunang,91573,-1.6572340645088,119.41998573286
7601062002,760106,7601,76,Saptanajaya,91573,-1.6444441881697,119.37282418599
7601062003,760106,7601,76,Taranggi,91573,-1.6598669247977,119.39587891472
7601062004,760106,7601,76,Sipakainga,91573,-1.5978909675654,119.57973044095
7601072001,760107,7601,76,Lilimori,91578,-1.4660272055541,119.42571749351
7601072002,760107,7601,76,Karave,91578,-1.4953749671561,119.39884292313
7601072003,760107,7601,76,"Bukit Harapan",91578,-1.4920803993106,119.59291139342
7601072004,760107,7601,76,Kastabuana,91578,-1.4275741804451,119.45694308835
7601072005,760107,7601,76,"Sumber Sari",91578,-1.4366743656005,119.42110868557
7601072006,760107,7601,76,Lelejae,91578,-1.4353732806253,119.41241231018
7601072007,760107,7601,76,Ompi,91578,-1.4415618012325,119.50017815034
7601082001,760108,7601,76,Tikke,91579,-1.3330357508633,119.34929637961
7601082002,760108,7601,76,"Makmur Jaya",91579,-1.3561489035344,119.40940862896
7601082003,760108,7601,76,Lariang,91579,-1.4069063021133,119.37149292457
7601082004,760108,7601,76,Pajalele,91579,-1.3092656926239,119.41613122367
7601082005,760108,7601,76,"Jengeng Raya",91579,-1.3679485893053,119.35758559714
7601092001,760109,7601,76,Malei,91570,-1.2732000821914,119.33237262774
7601092002,760109,7601,76,Pedanda,91570,-1.2543680033233,119.35705034542
7601092003,760109,7601,76,"Batu Oge",91570,-1.266931179577,119.31450762329
7601092004,760109,7601,76,Martasari,91570,-1.2714510445988,119.41578146575
7601102001,760110,7601,76,Bambaira,91574,-0.97833570917095,119.52055736479
7601102002,760110,7601,76,Kasoloang,91574,-1.0158369676095,119.49899377004
7601102003,760110,7601,76,Tampaure,91574,-0.95785749431531,119.53354607286
7601102004,760110,7601,76,"Kaluku Nangka",91574,-1.0007864565825,119.53840116401
7601112001,760111,7601,76,Sarjo,91591,-0.8780243688433,119.55102799729
7601112002,760111,7601,76,Maponu,91591,-0.93119655589995,119.53694627338
7601112003,760111,7601,76,Letawa,91591,-0.90341683086669,119.54806630057
7601112004,760111,7601,76,Sarude,91591,-0.87065348138428,119.563055517
7601122001,760112,7601,76,Parabu,91577,-1.4743787037353,119.37507946026
7601122002,760112,7601,76,Kenangan,91577,-1.4687656818393,119.35688801243
7601122003,760112,7601,76,Bajawali,91577,-1.4924049255733,119.36315641218
7601122004,760112,7601,76,Singgani,91577,-1.479461046277,119.32451681035
7601122005,760112,7601,76,Kulu,91577,-1.4584845698211,119.38262522781
7601122006,760112,7601,76,"Batu Matoru",91577,-1.4422750364605,119.33509325462
7601122007,760112,7601,76,Bambakoro,91577,-1.441705014844,119.30605028376
7602011002,760201,7602,76,Binanga,91511,-2.7491916511389,118.9673451543
7602011003,760201,7602,76,Mamunyu,91511,-2.7144372218778,118.95994010176
7602011012,760201,7602,76,Karema,91515,-2.7491780535013,118.91318171602
7602011013,760201,7602,76,Rimuku,91515,-2.6915473564838,118.89635262059
7602012005,760201,7602,76,Bambu,91514,-2.697182011404,118.97000580979
7602012006,760201,7602,76,Karampuang,91515,-2.6326647658663,118.88725179969
7602012010,760201,7602,76,Tadui,91511,-2.6680028240476,118.97913826627
7602012014,760201,7602,76,"Batu Pannu",91511,-2.6887789539433,118.9722331219
7602021001,760202,7602,76,Galung,91551,-2.824567479892,118.91682756222
7602021002,760202,7602,76,Kasambang,91551,-2.8770617794533,118.91169212575
7602021014,760202,7602,76,Dayanginna,91551,-2.8646639802729,118.87409296618
7602022003,760202,7602,76,Orobatu,91551,-2.8329321358546,118.84811444432
7602022006,760202,7602,76,Takandeang,91551,-2.8121113101511,118.87039385832
7602022009,760202,7602,76,Bela,91551,-2.9085224857022,118.99470258659
7602022010,760202,7602,76,Taan,91551,-2.9094280893001,118.91446018631
7602022011,760202,7602,76,Tampalang,91551,-2.8085409147967,118.91243673079
7602022012,760202,7602,76,Rantedoda,91551,-2.8277005279518,118.95809825076
7602022013,760202,7602,76,Kopeang,91551,-2.8508371736666,118.98007633994
7602031001,760203,7602,76,Sinyonyoi,91561,-2.5669501243305,119.05163211803
7602031002,760203,7602,76,Bebanga,91561,-2.6477469085923,119.01656020193
7602031003,760203,7602,76,"Kalukku ",91561,-2.5534355872028,119.07067192591
7602031014,760203,7602,76,"Sinyonyoi Selatan",91561,-2.6174135451051,119.05212134989
7602032004,760203,7602,76,Sondoang,91561,-2.5947705770922,119.1251051959
7602032005,760203,7602,76,Beru-Beru,91561,-2.5160655499288,119.07056154568
7602032006,760203,7602,76,"Belang Belang",91561,-2.5169089476428,119.17560779302
7602032007,760203,7602,76,Kabuloang,91561,-2.5100092282752,119.1142041268
7602032008,760203,7602,76,Keang,91561,-2.6557139146011,119.13177096506
7602032009,760203,7602,76,Pokkang,91561,-2.5373329902412,119.10555564394
7602032010,760203,7602,76,Guliling,91561,-2.568910195002,119.14910797339
7602032011,760203,7602,76,Uhaimate,91561,-2.6485450321146,119.09628584972
7602032012,760203,7602,76,"Kalukku Barat",91561,-2.5328307258032,119.04604568154
7602032013,760203,7602,76,Pammulukang,91561,-2.651623651554,119.06330079212
7602042001,760204,7602,76,Kalumpang,91560,-2.417597825629,119.45302078157
7602042003,760204,7602,76,Karataun,91560,-2.619996928176,119.54904196198
7602042004,760204,7602,76,Karama,91560,-2.325543200707,119.65388122382
7602042006,760204,7602,76,Siraun,91560,-2.6004475083216,119.65542336476
7602042007,760204,7602,76,Tumoga,91560,-2.4398442856582,119.63308636392
7602042010,760204,7602,76,Salumakki,91560,-2.5614433758379,119.70084721257
7602042011,760204,7602,76,Polio,91560,-2.3978628643907,119.65858513592
7602042012,760204,7602,76,Limbong,91560,-2.4685917571258,119.59629176307
7602042013,760204,7602,76,Sandapang,91560,-2.3480865560888,119.57126457751
7602042014,760204,7602,76,"Kondo Bulo",91560,-2.6308776848568,119.48192193933
7602042015,760204,7602,76,Makkaliki,91560,-2.5121250505212,119.56461805008
7602042016,760204,7602,76,"Batu Makkada",91560,-2.4360547467216,119.69632500719
7602042017,760204,7602,76,Lasa',91560,-2.6858910357426,119.65611470923
7602072001,760207,7602,76,Toabo,91565,-2.38264124158,119.17898670504
7602072002,760207,7602,76,Papalang,91565,-2.4651792746542,119.18394622412
7602072003,760207,7602,76,Bonda,91565,-2.3736483392161,119.14840539368
7602072004,760207,7602,76,Topore,91565,-2.4459638641293,119.21231308475
7602072005,760207,7602,76,Salukayu,91565,-2.4002680235717,119.22396332843
7602072006,760207,7602,76,Sukadamai,91565,-2.3703893356932,119.21887247302
7602072007,760207,7602,76,Boda-Boda,91565,-2.4260365517448,119.2449591249
7602072008,760207,7602,76,Sisango,91565,-2.4369515403667,119.23000757526
7602072009,760207,7602,76,"Batu Ampa",91565,-2.4808181700853,119.22408075752
7602082001,760208,7602,76,Bunde,91563,-2.3466090368764,119.17911029735
7602082002,760208,7602,76,Kalonding,91563,-2.3807591650961,119.27071139833
7602082003,760208,7602,76,Tarailu,91563,-2.3172930120968,119.1751230325
7602082004,760208,7602,76,Sampaga,91563,-2.3154353992767,119.13913776004
7602082005,760208,7602,76,Tanambuah,91563,-2.3481138928423,119.21655285051
7602082006,760208,7602,76,Salubarana,91563,-2.3850739183672,119.24442291488
7602082007,760208,7602,76,Losso,91563,-2.326519852863,119.20910852622
7602112001,760211,7602,76,Tommo,91564,-2.2807659903943,119.25102609517
7602112002,760211,7602,76,Campaloga,91564,-2.329732189487,119.33835994004
7602112003,760211,7602,76,"Buana Sakti",91564,-2.2736975831618,119.2747893637
7602112004,760211,7602,76,Tamemongga,91564,-2.3233508356672,119.2623654865
7602112005,760211,7602,76,Tamejarra,91564,-2.270859352664,119.30761598041
7602112006,760211,7602,76,Rantemario,91564,-2.3021087420499,119.33903405785
7602112007,760211,7602,76,Malino,91564,-2.2479055383275,119.29452713055
7602112008,760211,7602,76,Kakullasang,91564,-2.2526344327371,119.34915357449
7602112009,760211,7602,76,Leling,91564,-2.2818693371625,119.50809782645
7602112010,760211,7602,76,Kalepu,91564,-2.3026967958454,119.22020081617
7602112011,760211,7602,76,Sandana,91564,-2.2547041440021,119.38230197322
7602112012,760211,7602,76,"Leling Barat",91564,-2.2139174445551,119.39877516612
7602112013,760211,7602,76,"Leling Utara",91564,-2.1869105580626,119.59056277701
7602112014,760211,7602,76,Saludengen,91564,-2.3641401503228,119.32099051983
7602121001,760212,7602,76,Simboro,91512,-2.6955698933149,118.85136508857
7602121002,760212,7602,76,Rangas,91512,-2.6760128162671,118.83173435694
7602122003,760212,7602,76,Botteng,91512,-2.7785272414527,118.87265299208
7602122004,760212,7602,76,Saletto,91512,-2.7302070373451,118.84093562818
7602122005,760212,7602,76,Sumare,91513,-2.6634135809811,118.80971902532
7602122007,760212,7602,76,"Botteng Utara",91512,-2.7547864001304,118.83729715324
7602122008,760212,7602,76,Tapandullu,91512,-2.6969347356495,118.79447278243
7602122009,760212,7602,76,Pati'di,91512,-2.7250126606313,118.87723063751
7602132001,760213,7602,76,Dungkait,91552,-2.8300115541039,118.78945597615
7602132002,760213,7602,76,Lebani,91552,-2.739712154936,118.79321779796
7602132003,760213,7602,76,"Labuang Rano",91552,-2.7893644817269,118.77523637105
7602132004,760213,7602,76,Pasabu,91552,-2.8164434226723,118.8369253997
7602132005,760213,7602,76,"Tanete Pao",91552,-2.781376647606,118.82185850485
7602132006,760213,7602,76,Pangasaan,91552,-2.7724025024305,118.80529092952
7602132007,760213,7602,76,Ahu,91552,-2.8192421909382,118.81646639112
7602152001,760215,7602,76,Bonehau,91562,-2.5153576950824,119.34355707198
7602152002,760215,7602,76,Salutiwo,91562,-2.5354017315527,119.36465906248
7602152003,760215,7602,76,Buttuada,91562,-2.6773950641832,119.3008077203
7602152004,760215,7602,76,Tamalea,91562,-2.4762274560625,119.32768185951
7602152005,760215,7602,76,Lumika,91562,-2.495781715101,119.37523764319
7602152006,760215,7602,76,Mappu,91562,-2.4641911428399,119.39974518033
7602152009,760215,7602,76,Banuada,91562,-2.6144480676638,119.27905028002
7602152010,760215,7602,76,Hinua,91562,-2.5723560852641,119.25538369609
7602152011,760215,7602,76,Kinatang,91562,-2.6268509403603,119.3786123321
7602162001,760216,7602,76,"Bala Balakang",91512,-2.3105988364476,117.21040013824
7602162002,760216,7602,76,"Bala-Balakang Timur",91512,-2.8690871481314,117.57529803012
7603011001,760301,7603,76,Mambi,91370,-2.9504012923581,119.16791088943
7603011002,760301,7603,76,Talipukki,91370,-2.9471954160425,119.13750783208
7603012004,760301,7603,76,Rantebulahan,91370,-2.9790219776573,119.1861812543
7603012008,760301,7603,76,Sondonglayu,91370,-2.9391515154362,119.18198576952
7603012016,760301,7603,76,Salubanua,91370,-3.0498286387003,119.10940808018
7603012017,760301,7603,76,Tapalina,91370,-2.9195190809067,119.16322099726
7603012019,760301,7603,76,Sendana,91370,-2.9587709502287,119.18101410938
7603012024,760301,7603,76,Pamosean,91370,-2.9919806399092,119.10706896988
7603012025,760301,7603,76,Selumaka,91370,-3.0095609050633,119.1435814082
7603012026,760301,7603,76,"Bujung Manurung",91370,-2.930648504934,119.17285487447
7603012027,760301,7603,76,"Salu Alo",91370,-2.9966989440545,119.17630473023
7603012029,760301,7603,76,Indobanua,91370,-2.9606949498993,119.07203687299
7603012030,760301,7603,76,Saludurian,91370,-2.9722925465035,119.15815733502
7603021001,760302,7603,76,Aralle,91373,-2.8820722146703,119.15076032515
7603022003,760302,7603,76,"Ralle Anak",91373,-2.8966513504524,119.0934462317
7603022004,760302,7603,76,Panetean,91373,-2.8509535908542,119.1050509744
7603022005,760302,7603,76,Uhailanu,91373,-2.9124667109684,119.14497152169
7603022007,760302,7603,76,"Aralle Utara",91373,-2.8737490065334,119.14988574904
7603022009,760302,7603,76,Uhaidaho,91373,-2.9079250032492,119.07359116824
7603022010,760302,7603,76,Baruru,91373,-2.8315281464176,119.06390725826
7603022015,760302,7603,76,"Ralleanak Utara",91373,-2.8819687133123,119.10610823665
7603022016,760302,7603,76,"Pamoseang Pangga",91373,-2.9356022515718,119.06836868278
7603022017,760302,7603,76,Kalabe,91373,-2.8719722327696,119.118773632
7603022018,760302,7603,76,"Aralle Selatan",91373,-2.892791493483,119.14808528625
7603022019,760302,7603,76,Hahangan,91373,-2.8987355973621,119.17855838217
7603031001,760303,7603,76,Mamasa,91362,-2.9461369041535,119.38177445136
7603032002,760303,7603,76,Rambusaratu,91362,-2.8280507061123,119.40913375357
7603032003,760303,7603,76,Osango,91362,-2.9516610136505,119.35982702828
7603032004,760303,7603,76,Lambanan,91362,-2.830344277183,119.49439102505
7603032005,760303,7603,76,"Lembana Salulo",91362,-2.9415297279253,119.33125987652
7603032006,760303,7603,76,Taupe,91362,-2.9187549283679,119.35127006748
7603032007,760303,7603,76,"Buntu Buda",91362,-2.9360513438157,119.37153498216
7603032008,760303,7603,76,"Tondok Bakaru",91362,-2.851805517959,119.37815541985
7603032009,760303,7603,76,Pebassian,91362,-2.9544687360893,119.32056680545
7603032010,760303,7603,76,Mambuliling,91362,-2.8543475033086,119.3473546848
7603032011,760303,7603,76,"Bombong Lambe",91362,-2.9682683665732,119.35789254906
7603032012,760303,7603,76,"Bubun Batu",91362,-2.9331741893951,119.33779252705
7603041001,760304,7603,76,Pana,91369,-3.0631811296693,119.5631803094
7603042003,760304,7603,76,Manipi,91369,-3.1021468178745,119.60589600069
7603042005,760304,7603,76,Mamullu,91369,-3.0779404269626,119.58673541989
7603042006,760304,7603,76,Sapan,91369,-3.0329998461438,119.55752298738
7603042009,760304,7603,76,Datubaringan,91369,-3.1221951809557,119.56064176007
7603042010,760304,7603,76,Panura,91369,-3.0935909639381,119.54360290793
7603042011,760304,7603,76,"Tallang Bulawan",91369,-3.0781052818709,119.57063992044
7603042012,760304,7603,76,Karaka,91369,-3.0487589534067,119.57956753932
7603042013,760304,7603,76,Ulusalu,91369,-3.0499151451644,119.52299587812
7603042014,760304,7603,76,Weri,91369,-3.0668844148664,119.54062767943
7603042015,760304,7603,76,Salutambun,91369,-3.057732379979,119.53144763611
7603042016,760304,7603,76,Saloan,91369,-3.0070248715282,119.50816506283
7603042017,760304,7603,76,"Ulusalu Indah",91369,-3.0443444876531,119.48890953013
7603051001,760305,7603,76,"Lakahang ",91372,-2.6799232915988,119.17250629806
7603052002,760305,7603,76,Periangan,91372,-2.7264811802445,119.21423879684
7603052003,760305,7603,76,Malatiro,91372,-2.7835083152526,119.13176070142
7603052004,760305,7603,76,Tabulahan,91372,-2.7722412202494,119.21875984729
7603052005,760305,7603,76,Saluleang,91372,-2.7646991365625,119.28580726504
7603052007,760305,7603,76,"Tampak Kurra",91372,-2.7441599894738,119.1739140935
7603052008,760305,7603,76,"Gandang Dewata",91372,-2.7408388497684,119.33171486233
7603052009,760305,7603,76,Burana,91372,-2.7086322008145,119.12160503469
7603052010,760305,7603,76,Salubakka,91372,-2.7636133680237,119.19148306352
7603052011,760305,7603,76,Pangandaran,91372,-2.7602421695498,119.06543251071
7603052012,760305,7603,76,Talopak,91372,-2.6982277831053,119.20030636476
7603052013,760305,7603,76,Peu',91372,-2.810868214485,119.27734863586
7603052014,760305,7603,76,Timoro,91372,-2.6636941385689,119.18398033048
7603052015,760305,7603,76,"Lakahang Utama",91372,-2.6995954129877,119.17992986113
7603061001,760306,7603,76,Sumarorong,91360,-3.1424215199354,119.31121742452
7603061002,760306,7603,76,Tabone,91360,-3.175720076899,119.33138232456
7603062003,760306,7603,76,"Batang Uru",91360,-3.179505603746,119.37554683903
7603062004,760306,7603,76,Sasakan,91360,-3.1663665362572,119.28685349244
7603062005,760306,7603,76,Tadisi,91360,-3.1451008638011,119.33224179402
7603062006,760306,7603,76,Sibanawa,91360,-3.1975233074352,119.34209805222
7603062007,760306,7603,76,"Batangnguru Timur",91360,-3.1615483793691,119.40097211481
7603062008,760306,7603,76,Salubalo,91360,-3.1173026404676,119.28212661553
7603062009,760306,7603,76,Banea,91360,-3.1227939029565,119.38765306279
7603062010,760306,7603,76,"Rante Kamase",91360,-3.1244312977106,119.31581228815
7603071001,760307,7603,76,Messawa,91361,-3.2639314698246,119.34428598494
7603072002,760307,7603,76,Rippung,91361,-3.2274067453948,119.34364966111
7603072003,760307,7603,76,Makuang,91361,-3.2843964054865,119.360070333
7603072004,760307,7603,76,Sepang,91361,-3.3200044829422,119.42962898673
7603072005,760307,7603,76,Malimbong,91361,-3.2528268110902,119.3826347369
7603072006,760307,7603,76,Matande,91361,-3.2843161659565,119.38894555546
7603072007,760307,7603,76,Sipai,91361,-3.2798361947852,119.41207569053
7603072008,760307,7603,76,"Pasma Mambu",91361,-3.2449607633951,119.31196692031
7603072009,760307,7603,76,"Tanete Batu",91361,-3.2988435138835,119.41785438759
7603082002,760308,7603,76,Orobua,91365,-2.9827449860154,119.40057877106
7603082003,760308,7603,76,Paladan,91365,-2.9920826308636,119.38207115113
7603082004,760308,7603,76,"Orobua Timur",91365,-2.9976359675347,119.44280941731
7603082006,760308,7603,76,"Rante Puang",91365,-2.9925154820399,119.36250428649
7603082007,760308,7603,76,Satenetean,91365,-3.0259702417041,119.41825563621
7603082008,760308,7603,76,"Lisuan Ada",91365,-2.9782073455402,119.44157871052
7603082010,760308,7603,76,"Orobua Selatan",91365,-3.0175595756379,119.4335493066
7603082012,760308,7603,76,"Malangkena Padang",91365,-3.0422141349989,119.37654636491
7603082013,760308,7603,76,Malimbong,91365,-3.0346192662821,119.40472359463
7603082014,760308,7603,76,"Marampan Orobua",91365,-3.0061545989272,119.42733636578
7603091011,760309,7603,76,Minake,91367,-3.0620023464966,119.2801956544
7603092001,760309,7603,76,Malabo,91367,-3.0244090608069,119.30543200935
7603092005,760309,7603,76,Sindagamanik,91367,-3.0250790153527,119.26661455346
7603092006,760309,7603,76,Parondobulawan,91367,-3.0105674428963,119.28244946408
7603092007,760309,7603,76,Tamalantik,91367,-3.0711062181099,119.33327957006
7603092008,760309,7603,76,Mannababa,91367,-2.9994062514727,119.26279940258
7603092009,760309,7603,76,Mesakada,91367,-3.0980974570593,119.31664794527
7603092010,760309,7603,76,Ballabatu,91367,-3.0493980815659,119.30619330604
7603092012,760309,7603,76,Pambe,91367,-3.0169621461168,119.3067817552
7603092013,760309,7603,76,Salurano,91367,-3.0578107079416,119.3502181972
7603092014,760309,7603,76,Talimbung,91367,-3.012084537425,119.29594430689
7603092015,760309,7603,76,Kanan,91367,-3.0910859636233,119.34130070244
7603101001,760310,7603,76,Tabang,91364,-2.9676216253333,119.56488187441
7603102003,760310,7603,76,Tadokalua,91364,-2.9403862165097,119.50375380332
7603102004,760310,7603,76,"Tabang Barat",91364,-2.9941641475325,119.54855106293
7603102005,760310,7603,76,Masupu,91364,-3.0197586083665,119.56346134949
7603102006,760310,7603,76,Kalama,91364,-2.9827799952304,119.48409678224
7603102007,760310,7603,76,Bakadisura,91364,-2.9492957797289,119.53337714105
7603102008,760310,7603,76,Salukona,91364,-2.9184220905705,119.54737441483
7603112001,760311,7603,76,Mokallang,91371,-2.8975202332888,119.24155959445
7603112002,760311,7603,76,Masoso,91371,-2.9287951013302,119.22100380972
7603112003,760311,7603,76,Saluassing,91371,-2.9193052216165,119.19506699127
7603112004,760311,7603,76,Salubulo,91371,-2.9631252190845,119.21095439678
7603112005,760311,7603,76,Salukadi,91371,-2.9389782444815,119.22219190587
7603112006,760311,7603,76,Salukepopok,91371,-2.9177864873881,119.18191744353
7603112007,760311,7603,76,"Ulumambi Barat",91371,-2.8825675916246,119.2727957316
7603112008,760311,7603,76,Limbadebata,91371,-2.9570861594246,119.24927715634
7603112009,760311,7603,76,"Tanete Tomba",91371,-2.9621410765736,119.22320076336
7603112010,760311,7603,76,Bambang,91371,-2.9535558699532,119.20203964335
7603112011,760311,7603,76,Rantelemo,91371,-2.9377089232494,119.23183163833
7603112012,760311,7603,76,Saludengen,91371,-2.894696746005,119.21315250848
7603112013,760311,7603,76,Ulumambi,91371,-2.9369927436215,119.27388752138
7603112014,760311,7603,76,"Bambang Timur",91371,-2.9481598367054,119.21518832489
7603112015,760311,7603,76,Minanga,91371,-2.9456377355566,119.19431479574
7603112016,760311,7603,76,Sikamase,91371,-2.8943153831284,119.30900133259
7603112017,760311,7603,76,Rantetarima,91371,-2.8894675190298,119.22856648201
7603112018,760311,7603,76,Salururu,91371,-2.9438543827598,119.24735575168
7603112019,760311,7603,76,Salutabang,91371,-2.9289395318542,119.23585551724
7603112020,760311,7603,76,Balatana,91371,-2.9517441172098,119.22659770578
7603122001,760312,7603,76,Balla,91366,-2.9924856524687,119.33971909577
7603122002,760312,7603,76,"Balla Barat",91366,-2.9859915886893,119.31521093729
7603122003,760312,7603,76,"Balla Satanetean",91366,-2.9810143157872,119.32569022679
7603122004,760312,7603,76,"Balla Tumuka",91366,-2.9773239564434,119.28605790084
7603122005,760312,7603,76,Sepakuan,91366,-3.0154946096662,119.32768819324
7603122006,760312,7603,76,Pidara,91366,-2.9723852748077,119.30173096446
7603122007,760312,7603,76,Bambapuang,91366,-3.0303020877877,119.35251315629
7603122008,760312,7603,76,"Balla Timur",91366,-3.0042622954372,119.34924869799
7603131001,760313,7603,76,"Nosu ",91363,-3.1235153917519,119.47823947341
7603132002,760313,7603,76,Minanga,91363,-3.0814625946343,119.43648606572
7603132003,760313,7603,76,Batupapan,91363,-3.1499348753498,119.47208960595
7603132004,760313,7603,76,Masewwe,91363,-3.1752953276058,119.47651164378
7603132005,760313,7603,76,Siwi,91363,-3.1057944552692,119.50112546253
7603132006,760313,7603,76,"Minanga Timur",91363,-3.092248207454,119.48730621993
7603132007,760313,7603,76,Parinding,91363,-3.0776427752674,119.47412672804
7603141001,760314,7603,76,Tawalian,91368,-2.9598799996347,119.39507921056
7603142002,760314,7603,76,"Tawalian Timur",91368,-2.9544556757898,119.44397220267
7603142003,760314,7603,76,Kariango,91368,-2.9386823088698,119.42689175222
7603142004,760314,7603,76,Rantetangnga,91368,-2.9658653276629,119.37331107619
7603152001,760315,7603,76,Salumokanan,91376,-2.9970726880098,119.23333954656
7603152003,760315,7603,76,"Salumokanan Barat",91376,-2.9806609945211,119.21234666581
7603152004,760315,7603,76,Buangin,91376,-2.9774219921992,119.25114521148
7603152005,760315,7603,76,"Bambang Buda",91376,-2.9751261692088,119.19740340155
7603152006,760315,7603,76,Leko,91376,-3.0076914759986,119.23514400432
7603152007,760315,7603,76,Kirak,91376,-2.99591149239,119.21448784892
7603152008,760315,7603,76,"Salumokanan Utara",91376,-2.9790910678781,119.23062582762
7603152009,760315,7603,76,Sampale,91376,-3.0068995696523,119.22480776325
7603162001,760316,7603,76,Buntumalangka,91374,-2.8216066892744,119.16911457017
7603162002,760316,7603,76,Ranteberan,91374,-2.8298380511939,119.22513753684
7603162003,760316,7603,76,Kebanga,91374,-2.8501814960528,119.19784228469
7603162004,760316,7603,76,Salurindu,91374,-2.8431765409357,119.15489087283
7603162005,760316,7603,76,Taora,91374,-2.801735397804,119.17600180956
7603162006,760316,7603,76,Kabae,91374,-2.8538748121938,119.16670173098
7603162007,760316,7603,76,"Salutambun Barat",91374,-2.8663321098224,119.16634992071
7603162008,760316,7603,76,Penatangan,91374,-2.8289772300532,119.14248518513
7603162009,760316,7603,76,"Salutambun Timur",91374,-2.8767450531882,119.19700222387
7603162010,760316,7603,76,Salutambun,91374,-2.8709208240273,119.17941167399
7603162011,760316,7603,76,"Aralle Timur",91374,-2.8874194597312,119.18013505518
7603172001,760317,7603,76,Mehalaan,91375,-3.0230872368485,119.19873900811
7603172002,760317,7603,76,Botteng,91375,-3.066604259641,119.179873526
7603172003,760317,7603,76,Salukonta,91375,-3.0282550544831,119.24554995987
7603172004,760317,7603,76,Mesakada,91375,-3.0418237517716,119.23295873033
7603172005,760317,7603,76,"Mehalaan Barat",91375,-3.0340092202738,119.18750861559
7603172006,760317,7603,76,Saluahok,91375,-3.002325169055,119.1923974326
7603172007,760317,7603,76,Salubalo,91375,-3.0011891760084,119.20812504703
7603172008,760317,7603,76,Passembuk,91375,-3.0770301793027,119.20742211517
7603172009,760317,7603,76,Kondo,91375,-3.0894066000724,119.12168956657
7603172010,760317,7603,76,"Leko Sukamaju",91375,-3.0145742040052,119.23698254038
7603172011,760317,7603,76,Ulumea,91375,-2.9966532237838,119.25106707196
7604011001,760401,7604,76,Tinambung,91356,-3.5050600126157,119.02193962711
7604012002,760401,7604,76,Karama,91356,-3.5096422044241,119.04282109776
7604012003,760401,7604,76,"Tangnga Tangnga",91356,-3.5120317730952,119.02816012913
7604012004,760401,7604,76,Lekopadis,91356,-3.4995166208546,119.0114475811
7604012005,760401,7604,76,"Galung Lombok",91356,-3.4940245798027,118.98436294051
7604012006,760401,7604,76,Tandung,91356,-3.5165238995293,119.0040478186
7604012007,760401,7604,76,Batulaya,91356,-3.4986525869952,119.02830288696
7604012008,760401,7604,76,Sepabatu,91356,-3.5101768994589,119.01603943233
7604021001,760402,7604,76,Pappang,91357,-3.4866353785234,119.1430204255
7604022002,760402,7604,76,Laliko,91357,-3.5035411823543,119.11608133909
7604022003,760402,7604,76,Bonde,91357,-3.4777466419227,119.14106577331
7604022004,760402,7604,76,"Katumbangan Lemo",91357,-3.4699772106531,119.18244239297
7604022005,760402,7604,76,Panyampa,91357,-3.4832550086745,119.16926234462
7604022006,760402,7604,76,Suruang,91357,-3.4823361818062,119.10865709384
7604022007,760402,7604,76,Lampoko,91357,-3.4468472830058,119.14844957795
7604022008,760402,7604,76,Katumbangan,91357,-3.4494613798315,119.17644535574
7604022009,760402,7604,76,Lapeo,91357,-3.4888894250112,119.12839817201
7604022010,760402,7604,76,Parappe,91357,-3.4705323196453,119.15356225169
7604022011,760402,7604,76,Ongko,91357,-3.4564415199901,119.09264529915
7604022012,760402,7604,76,Kenje,91357,-3.4795428154694,119.12933842689
7604022013,760402,7604,76,Sumarrang,91357,-3.4328254553322,119.08819908742
7604022014,760402,7604,76,Botto,91357,-3.4305458026235,119.16191560862
7604022015,760402,7604,76,Gattungan,91357,-3.4238866919637,119.13556550958
7604022016,760402,7604,76,"Padang Timur",91357,-3.4622395571754,119.12215186248
7604022017,760402,7604,76,Padang,91357,-3.4711242721885,119.0912063847
7604022018,760402,7604,76,Lagi-Agi,91357,-3.4601076896073,119.14142055598
7604031001,760403,7604,76,Sidodadi,91342,-3.3993016467236,119.21413016525
7604032002,760403,7604,76,Sidorejo,91342,-3.4099670291348,119.21744484263
7604032003,760403,7604,76,Sumberjo,91342,-3.3878891885648,119.22891862349
7604032004,760403,7604,76,Bumiayu,91342,-3.4223634209959,119.21359335341
7604032005,760403,7604,76,Kebunsari,91342,-3.4450893997309,119.21831035411
7604032006,760403,7604,76,"Banua Baru",91342,-3.3902419221066,119.20211342701
7604032007,760403,7604,76,Nepo,91342,-3.4619220843063,119.2329537743
7604032008,760403,7604,76,Sugihwaras,91342,-3.3835092031551,119.21376743952
7604032009,760403,7604,76,Campurjo,91342,-3.4071202490017,119.2308221721
7604032010,760403,7604,76,Bumimulyo,91342,-3.4338487250094,119.22895726515
7604032011,760403,7604,76,Tumpiling,91342,-3.4178271872545,119.25989626223
7604032012,760403,7604,76,Bakka-Bakka,91342,-3.3764779165516,119.20159171933
7604032013,760403,7604,76,"Arjo Sari",91342,-3.4343852938705,119.20495006656
7604032014,760403,7604,76,Galeso,91342,-3.4386843849121,119.25174100111
7604041001,760404,7604,76,Polewali,91311,-3.4352338003843,119.35185223425
7604041002,760404,7604,76,Wattang,91315,-3.4299283422826,119.3457255305
7604041003,760404,7604,76,Sulewatang,91315,-3.4044408046315,119.35751710982
7604041004,760404,7604,76,Lantora,91313,-3.425363977788,119.33818709883
7604041005,760404,7604,76,Takatidung,91311,-3.4220811355032,119.32602094768
7604041006,760404,7604,76,Pekkabata,91311,-3.4137417731783,119.31387071409
7604041007,760404,7604,76,"Madatte ",91315,-3.4039322563196,119.30593791559
7604041008,760404,7604,76,Manding,91311,-3.4187913426588,119.30169491028
7604041009,760404,7604,76,Darma,91314,-3.3986495266248,119.33201958114
7604051001,760405,7604,76,Taramanu,91355,-3.3290731959226,119.01484861623
7604052002,760405,7604,76,Ambopadang,91355,-3.2934946405096,119.05761368548
7604052003,760405,7604,76,Tubbi,91355,-3.1629878117516,119.04021409629
7604052004,760405,7604,76,Ratte,91355,-3.2209035339253,118.9632443918
7604052005,760405,7604,76,Besoangin,91355,-3.2492025826238,118.94202582532
7604052006,760405,7604,76,"Piriang Tapiko",91355,-3.1462067939732,118.99315772195
7604052007,760405,7604,76,Peburru,91355,-3.2657163304841,119.07566669015
7604052008,760405,7604,76,Taloba,91355,-3.1313654613504,119.05300140985
7604052009,760405,7604,76,Pollewani,91355,-3.233397803678,119.04861270877
7604052010,760405,7604,76,Arabua,91355,-3.3294560741079,119.05555036533
7604052011,760405,7604,76,"Besoangin Utara",91355,-3.1844087885702,118.93878788476
7604052012,760405,7604,76,Poda,91355,-3.369065249443,119.02760487894
7604052013,760405,7604,76,"Taramanu Tua",91355,-3.2600365349745,119.00638475151
7604061005,760406,7604,76,Amassangan,91312,-3.4505707634611,119.41765148857
7604062001,760406,7604,76,Tonyaman,91312,-3.4645466017664,119.36845942209
7604062002,760406,7604,76,Kuajang,91351,-3.4281969928996,119.37504691015
7604062003,760406,7604,76,Paku,91351,-3.4792899984251,119.4744671141
7604062004,760406,7604,76,Mirring,91312,-3.4485428638768,119.44643352353
7604062006,760406,7604,76,Batetangnga,91312,-3.3975346902133,119.41296530225
7604062007,760406,7604,76,Mammi,91311,-3.4153229683316,119.36520132374
7604062008,760406,7604,76,Kaleok,91312,-3.3815578833682,119.4474886174
7604062009,760406,7604,76,Amola,91312,-3.4382220176713,119.46388952878
7604062010,760406,7604,76,Rea,91312,-3.4433387078541,119.38902687767
7604071001,760407,7604,76,Pelitakan,91341,-3.3628489421908,119.23604802517
7604072002,760407,7604,76,Tapango,91341,-3.3191220006879,119.25268372109
7604072003,760407,7604,76,Rappang,91341,-3.3502995633475,119.20036670264
7604072004,760407,7604,76,Dakka,91341,-3.3590549822383,119.22331988077
7604072005,760407,7604,76,Batu,91341,-3.2976047819697,119.23615144637
7604072006,760407,7604,76,Riso,91341,-3.3100342537367,119.28471345158
7604072007,760407,7604,76,Palatta,91341,-3.2724889533574,119.24490659099
7604072008,760407,7604,76,"Tapango Barat",91341,-3.32497099071,119.22571400411
7604072009,760407,7604,76,Kurrak,91341,-3.2816186365939,119.31791513443
7604072010,760407,7604,76,Bussu,91341,-3.3158756065901,119.2104096496
7604072011,760407,7604,76,Tuttula,91341,-3.3145097793621,119.19489156104
7604072012,760407,7604,76,"Jambu Malea",91341,-3.3525176187873,119.21250755072
7604072013,760407,7604,76,Kalimbua,91341,-3.2882683974289,119.28888715765
7604072014,760407,7604,76,"Banato Rejo",91341,-3.3394116265391,119.23861039428
7604081001,760408,7604,76,"Mapilli ",91359,-3.4098723901959,119.18102308299
7604082002,760408,7604,76,Ugibaru,91359,-3.4069575611577,119.19810702121
7604082003,760408,7604,76,Rumpa,91359,-3.45291596965,119.20035796338
7604082005,760408,7604,76,Kurma,91359,-3.3716479960806,119.17063553524
7604082007,760408,7604,76,Buku,91359,-3.4783632104903,119.20492789054
7604082009,760408,7604,76,"Bonne Bonne",91359,-3.3985119006393,119.18830223871
7604082011,760408,7604,76,Beroangin,91359,-3.333625476756,119.14684177527
7604082015,760408,7604,76,Segerang,91359,-3.4268644658559,119.19166192927
7604082016,760408,7604,76,Bonra,91359,-3.4002835518537,119.17037976015
7604082017,760408,7604,76,Sattoko,91359,-3.3097748292475,119.12918207655
7604082018,760408,7604,76,"Rappang Barat",91359,-3.3484184116123,119.17740545336
7604082019,760408,7604,76,"Landi Kanusuang",91359,-3.2886252280478,119.18168128603
7604091001,760409,7604,76,Matangnga,91350,-3.101940186621,119.24038008253
7604092002,760409,7604,76,Lilli,91350,-3.1770714365879,119.18823057607
7604092003,760409,7604,76,Rangoan,91350,-3.1309603806839,119.18233221014
7604092004,760409,7604,76,Tapua,91350,-3.2099211555031,119.23145618537
7604092005,760409,7604,76,"Mambu Tapua",91350,-3.237142443688,119.27612849469
7604092006,760409,7604,76,"Ba'ba Tapua",91350,-3.2792974141947,119.21457996101
7604092007,760409,7604,76,Katimbang,91350,-3.1462387280999,119.23771038789
7604101004,760410,7604,76,Batupanga,91358,-3.3510201983898,119.12171038869
7604102001,760410,7604,76,Mambu,91358,-3.3749891896652,119.13849070793
7604102002,760410,7604,76,Tenggelang,91358,-3.4004100280551,119.11406553152
7604102003,760410,7604,76,Baru,91358,-3.4110470449551,119.1562196555
7604102005,760410,7604,76,Pussui,91358,-3.3607549121875,119.09206272774
7604102006,760410,7604,76,"Mapilli Barat",91358,-3.4040773604778,119.16097452028
7604102007,760410,7604,76,"Sambali Wali",91358,-3.3948965842735,119.08145242231
7604102008,760410,7604,76,"Batupanga Daala",91358,-3.3123051573622,119.09981174096
7604102009,760410,7604,76,Luyo,91358,-3.3851232149792,119.13494219661
7604102010,760410,7604,76,"Pussui Barat",91358,-3.360644864167,119.06602087198
7604102011,760410,7604,76,Puccadi,91358,-3.3856883122183,119.15988556057
7604111001,760411,7604,76,Limboro,91321,-3.4879442676017,119.01037570784
7604112002,760411,7604,76,"Lembang Lembang",91321,-3.4634801391133,119.00568069059
7604112003,760411,7604,76,Tandassura,91321,-3.4664016685496,118.97915398939
7604112004,760411,7604,76,Samasundu,91321,-3.4744437518418,119.01988787943
7604112005,760411,7604,76,Napo,91321,-3.470711933902,119.03188845865
7604112006,760411,7604,76,"Todang Todang",91321,-3.4406656218947,119.04293453994
7604112007,760411,7604,76,Pendulangan,91321,-3.4056011762228,119.0432435922
7604112008,760411,7604,76,Renggeang,91321,-3.4838141095388,118.98798093877
7604112009,760411,7604,76,Salarri,91321,-3.4470561337543,119.01884870493
7604112010,760411,7604,76,"Tangan Baru",91321,-3.4527358520496,118.96714959111
7604112011,760411,7604,76,Palece,91321,-3.4791919103426,119.00314535177
7604121002,760412,7604,76,Balanipa,91354,-3.4869552135495,119.04479349285
7604122001,760412,7604,76,Tammajarra,91354,-3.4868283899849,119.03250806301
7604122003,760412,7604,76,Tammangalle,91354,-3.4989249228136,119.05633791544
7604122004,760412,7604,76,Mosso,91354,-3.4635554348337,119.0554850074
7604122005,760412,7604,76,"Galung Tuluk",91354,-3.4952482053161,119.0660512927
7604122006,760412,7604,76,"Sabang Subik",91354,-3.4991063340263,119.07373538895
7604122007,760412,7604,76,Pambusuang,91354,-3.5019230639407,119.08095113428
7604122008,760412,7604,76,Bala,91354,-3.4990677413275,119.09479584108
7604122009,760412,7604,76,Lambanan,91354,-3.4841772438282,119.07481436697
7604122010,760412,7604,76,Lego,91354,-3.4878775271867,119.08391170365
7604122011,760412,7604,76,Pallis,91354,-3.4779358473934,119.06468927141
7604131001,760413,7604,76,"Anreapi ",91315,-3.3823633588377,119.3572563116
7604132002,760413,7604,76,Duampanua,91315,-3.3759069076905,119.32955292919
7604132003,760413,7604,76,"Kelapa Dua",91315,-3.330680055595,119.37279756414
7604132004,760413,7604,76,Pappandangan,91315,-3.3283416395275,119.3425796677
7604132005,760413,7604,76,Kunyi,91315,-3.3546604101073,119.39349017449
7604141001,760414,7604,76,"Matakali ",91352,-3.3863793728345,119.27673961786
7604142002,760414,7604,76,Petampanua,91352,-3.4091927089377,119.28820663829
7604142003,760414,7604,76,Barumbung,91352,-3.3557173673574,119.28078996278
7604142004,760414,7604,76,Pasiang,91352,-3.352975373614,119.30996075217
7604142005,760414,7604,76,Tonrolima,91352,-3.3784220449064,119.25209134345
7604142006,760414,7604,76,Indomakkombong,91352,-3.3497551066796,119.26105103179
7604142007,760414,7604,76,Bunga-Bunga,91352,-3.388543394542,119.3072159056
7604151009,760415,7604,76,Petoosang,91325,-3.4154610389647,118.99883288639
7604152002,760415,7604,76,Mombi,91325,-3.4399121080553,118.99240459097
7604152003,760415,7604,76,Kalumammang,91325,-3.394983056935,118.94211235348
7604152004,760415,7604,76,Pao-pao,91325,-3.3636571374017,118.98157332088
7604152005,760415,7604,76,Puppuuring,91325,-3.3087888104405,118.95198980575
7604152006,760415,7604,76,Saragian,91325,-3.4302306009217,118.96806916109
7604152007,760415,7604,76,Sayoang,91325,-3.4216567564566,119.01501819703
7604152008,760415,7604,76,Alu,91325,-3.4013039535831,118.97735200329
7604162001,760416,7604,76,Bulo,91353,-3.2347447833724,119.14204041807
7604162002,760416,7604,76,Pulliwa,91353,-3.2892239405437,119.15195629764
7604162003,760416,7604,76,Patambanua,91353,-3.1540882063334,119.12787347686
7604162004,760416,7604,76,Karombang,91353,-3.2076727237369,119.13086725698
7604162005,760416,7604,76,"Daala Timur",91353,-3.2717511495942,119.11266705951
7604162006,760416,7604,76,Lenggo,91353,-3.184248971913,119.08945982124
7604162007,760416,7604,76,Sabura,91353,-3.2368925641004,119.18041365567
7604162008,760416,7604,76,Sepporraki,91353,-3.2068489251726,119.17134295866
7604162009,760416,7604,76,Ihing,91353,-3.2532595325908,119.15372036595
7605011001,760501,7605,76,Banggae,91411,-3.5343335717519,118.96342009925
7605011003,760501,7605,76,Baru,91415,-3.542127141279,118.94781623485
7605011007,760501,7605,76,"Pangali Ali",91411,-3.5389897478501,118.95734272134
7605011009,760501,7605,76,Totoli,91415,-3.5357022501703,118.93367341945
7605011010,760501,7605,76,Rangas,91415,-3.5616195136107,118.9375651386
7605011013,760501,7605,76,Galung,91411,-3.524393467664,118.9698868098
7605012011,760501,7605,76,"Palipi Soreang",91415,-3.54559922147,118.92934094911
7605012012,760501,7605,76,Pamboborang,91415,-3.5288679313359,118.93845044183
7605021001,760502,7605,76,Lalampanua,91451,-3.4862095254973,118.89748021426
7605021002,760502,7605,76,Sirindu,91451,-3.4351337779227,118.88012937686
7605022003,760502,7605,76,Adolang,91451,-3.4369165584343,118.91424865818
7605022004,760502,7605,76,Bababulo,91451,-3.5150361805245,118.9072635673
7605022005,760502,7605,76,Bonde,91451,-3.5335794449519,118.91963569805
7605022006,760502,7605,76,Betteng,91451,-3.4664894909718,118.92575745768
7605022007,760502,7605,76,Simbang,91451,-3.4899788447228,118.93066802745
7605022008,760502,7605,76,"Bonde Utara",91451,-3.5269031507402,118.91383656968
7605022009,760502,7605,76,"Bababulo Utara",91451,-3.50365118925,118.90090938272
7605022010,760502,7605,76,"Buttu Pamboang",91451,-3.5071210095011,118.91869390645
7605022011,760502,7605,76,"Banua Adolang",91451,-3.4586476268392,118.90439565125
7605022012,760502,7605,76,"Adolang Dhua",91451,-3.4233169964934,118.90308844675
7605022013,760502,7605,76,Tinambung,91451,-3.4949886020048,118.90531688836
7605022014,760502,7605,76,Pesuloang,91451,-3.4634357632174,118.88200557757
7605022015,760502,7605,76,Balombong,91451,-3.4490366209003,118.8898568283
7605031001,760503,7605,76,Mosso,91452,-3.3826629376603,118.87231330564
7605031002,760503,7605,76,"Mosso Dhua",91452,-3.4092974450302,118.88846890996
7605032004,760503,7605,76,"Totolisi Sendana",91452,-3.3273197815176,118.84853484418
7605032007,760503,7605,76,Tallubanua,91452,-3.2901505225511,118.8834067754
7605032015,760503,7605,76,Lalatedzong,91452,-3.3610453817767,118.84944420864
7605032016,760503,7605,76,Binanga,91452,-3.3392569885501,118.85358555639
7605032017,760503,7605,76,Puttada,91452,-3.3638490490093,118.88084517756
7605032018,760503,7605,76,Paminggalan,91452,-3.357566809432,118.91548083473
7605032019,760503,7605,76,Leppangang,91452,-3.3430218544311,118.87574803718
7605032020,760503,7605,76,Pundau,91452,-3.3275154653428,118.87633440654
7605032021,760503,7605,76,Sendana,91452,-3.3182410414354,118.87735758062
7605032022,760503,7605,76,"Banua Sendana",91452,-3.3074854281441,118.87937063157
7605032023,760503,7605,76,"Tallubanua Utara",91452,-3.2711294647205,118.87245423482
7605032024,760503,7605,76,"Limboro Rambu-Rambu",91452,-3.2968994955731,118.9117515976
7605032025,760503,7605,76,Limbua,91452,-3.3741232340303,118.85715083994
7605032026,760503,7605,76,"Bukit Samang",91452,-3.3933604778629,118.88722657092
7605041001,760504,7605,76,Malunda,91453,-3.0031865895262,118.85668208376
7605041015,760504,7605,76,"Lamungang Batu",91453,-3.0208083488522,118.86244422761
7605042002,760504,7605,76,Bambangan,91453,-2.9627414178773,118.95672087963
7605042004,760504,7605,76,Lombang,91453,-3.0074017676121,118.88961354819
7605042005,760504,7605,76,Lombong,91453,-2.9862538740662,118.85716691623
7605042006,760504,7605,76,Mekkatta,91453,-2.9467150047424,118.90539124592
7605042010,760504,7605,76,Maliaya,91453,-2.9325026638529,118.88175917015
7605042011,760504,7605,76,"Lombang Timur",91453,-3.0116464360747,118.93899034547
7605042012,760504,7605,76,Salutahongan,91453,-2.992026534598,118.98746318072
7605042013,760504,7605,76,"Lombong Timur",91453,-2.9841732811479,118.86997684226
7605042014,760504,7605,76,"Mekkatta Selatan",91453,-2.968295324157,118.86939127968
7605042016,760504,7605,76,Kayuangin,91453,-2.9970161942805,118.87645175829
7605052001,760505,7605,76,Kabiraan,91454,-3.048069040086,118.88447068405
7605052002,760505,7605,76,Sambabo,91454,-3.1074963895962,118.86388377632
7605052003,760505,7605,76,Tandeallo,91454,-3.0752714203413,118.91174168244
7605052004,760505,7605,76,Ulumanda,91454,-3.0630519601099,118.98944772318
7605052005,760505,7605,76,Salutambung,91454,-3.1214630826011,118.84660587658
7605052006,760505,7605,76,Popenga,91454,-3.0245277296416,119.03585370721
7605052007,760505,7605,76,Sulai,91454,-3.048308139303,118.85994925079
7605052008,760505,7605,76,Panggalo,91454,-3.1422379427956,118.90927923464
7605062001,760506,7605,76,Seppong,91450,-3.2246447762398,118.86143090269
7605062002,760506,7605,76,Tammerodo,91450,-3.2624468583208,118.85081825199
7605062003,760506,7605,76,Ulidang,91450,-3.2144006941522,118.83914622404
7605062004,760506,7605,76,Tallambalao,91450,-3.2499842590977,118.87698727288
7605062005,760506,7605,76,"Tammerodo Utara",91450,-3.2409345509672,118.8398440023
7605062006,760506,7605,76,Manyamba,91450,-3.2260879486633,118.89085999008
7605062007,760506,7605,76,Awo,91450,-3.1981122307056,118.85955712552
7605072001,760507,7605,76,Onang,91455,-3.1639192371721,118.84652619556
7605072002,760507,7605,76,Tubo,91455,-3.0993187809458,118.8139708965
7605072003,760507,7605,76,"Onang Utara",91455,-3.1321580883905,118.81285406425
7605072004,760507,7605,76,"Tubo Selatan",91455,-3.1004158903231,118.78856793173
7605072005,760507,7605,76,"Bonde bonde",91455,-3.1145227164849,118.79354373631
7605072006,760507,7605,76,"Tubo Tengah",91455,-3.091975442164,118.79511691609
7605072007,760507,7605,76,"Tubo Poang",91455,-3.1037798208724,118.83034952494
7605081001,760508,7605,76,Baurung,91412,-3.5479154059611,118.99470677549
7605081002,760508,7605,76,Baruga,91414,-3.5131553544718,118.94801349371
7605081003,760508,7605,76,"Baruga Dhua",91411,-3.483993503075,118.95627092033
7605081004,760508,7605,76,Labuang,91412,-3.5457490313002,118.97272350831
7605081005,760508,7605,76,Tande,91413,-3.5102600215509,118.97695561866
7605081006,760508,7605,76,Lembang,91413,-3.5439556475115,118.9847441693
7605081007,760508,7605,76,"Labuang Utara",91413,-3.5386298880053,118.97530730681
7605081008,760508,7605,76,"Tande Timur",91413,-3.524698802957,118.99042268833
7605082009,760508,7605,76,"Buttu Baruga",91413,-3.4977342996888,118.94878875856
7606012001,760601,7606,76,Mahahe,91463,-2.1216969791607,119.36380976357
7606012002,760601,7606,76,Salobaja,91463,-2.1500518236199,119.35036941383
7606012003,760601,7606,76,Tobadak,91463,-2.099001407686,119.32279946696
7606012004,760601,7606,76,Palongaan,91463,-2.1052533483419,119.40275443148
7606012005,760601,7606,76,"Batu Parigi",91463,-2.092752377428,119.51571381625
7606012006,760601,7606,76,Bambadaru,91463,-2.1715581781286,119.37036707564
7606012007,760601,7606,76,Sejati,91463,-2.1380806782897,119.45231887563
7606012008,760601,7606,76,Saloadak,91463,-2.1573893126759,119.4121945699
7606022001,760602,7606,76,"Polo Pangale",91462,-2.2763837857693,119.19531185165
7606022002,760602,7606,76,Pangale,91462,-2.2910114037118,119.14966608773
7606022003,760602,7606,76,Sartanamaju,91462,-2.2666698731773,119.17003475424
7606022004,760602,7606,76,"Polo Lereng",91462,-2.2448559869174,119.19312050129
7606022005,760602,7606,76,Kuo,91462,-2.2504454833631,119.23341512015
7606022006,760602,7606,76,"Polo Camba",91462,-2.2250938781618,119.19101004134
7606022007,760602,7606,76,Lamba-lamba,91462,-2.2136580893213,119.16382103425
7606022008,760602,7606,76,Kombiling,91462,-2.2608512249337,119.15077439827
7606022009,760602,7606,76,Lemo-Lemo,91462,-2.2968978464667,119.19351814674
7606032001,760603,7606,76,Babana,91461,-2.1183017350496,119.25986719678
7606032002,760603,7606,76,Lumu,91461,-2.1787497622268,119.170203841
7606032003,760603,7606,76,Pontanakayang,91461,-2.159912083124,119.27118091843
7606032004,760603,7606,76,Salogatta,91461,-2.1686219266084,119.24153785572
7606032005,760603,7606,76,Kire,91461,-2.1379214640421,119.21305009587
7606032006,760603,7606,76,Tinali,91461,-2.1877243911158,119.23305815763
7606032007,760603,7606,76,Salumanurung,91461,-2.1819955087292,119.19747252319
7606032008,760603,7606,76,Pasapa,91461,-2.1944827155797,119.33686513019
7606032009,760603,7606,76,Bojo,91461,-2.1952225160001,119.30325059517
7606032010,760603,7606,76,Barakkang,91461,-2.2164169543837,119.23824530653
7606032011,760603,7606,76,"Lembah Hada",91461,-2.2034468466567,119.26564753066
7606042001,760604,7606,76,Budong-Budong,91464,-2.0556932608924,119.22211258053
7606042002,760604,7606,76,Topoyo,91464,-2.0682858832414,119.28373837386
7606042003,760604,7606,76,Tumbu,91464,-2.0170901436584,119.23177883816
7606042004,760604,7606,76,Kabubu,91464,-2.0438706495989,119.26177066349
7606042005,760604,7606,76,Waeputeh,91464,-2.0325740226444,119.27093367208
7606042006,760604,7606,76,Tangkou,91464,-2.0456253889858,119.31698085331
7606042007,760604,7606,76,Tabolang,91464,-2.0537137873606,119.34631709594
7606042008,760604,7606,76,Paraili,91464,-2.0590941033664,119.25389776126
7606042009,760604,7606,76,Salupangkang,91464,-2.0255586622353,119.31322477454
7606042010,760604,7606,76,"Salupangkang IV",91464,-1.9992378285332,119.28357101731
7606042011,760604,7606,76,Tappilina,91464,-2.0267294512835,119.28775059001
7606042012,760604,7606,76,Bambamanurung,91464,-2.0037467193646,119.31167403177
7606042013,760604,7606,76,Salulekbo,91464,-2.034474758879,119.64202300661
7606042014,760604,7606,76,Pangalloang,91464,-2.0807749019636,119.24844139867
7606042015,760604,7606,76,Sinabatta,91464,-1.9858494917236,119.26174199375
7606052001,760605,7606,76,Karossa,91460,-1.837837379174,119.62308163162
7606052002,760605,7606,76,Tasokko,91460,-1.9325292281935,119.53726769718
7606052003,760605,7606,76,Lara,91460,-1.8793986356062,119.61977612419
7606052004,760605,7606,76,Kadaila,91460,-1.7735859749678,119.37936621797
7606052005,760605,7606,76,"Kayu Calla",91460,-1.7931913047615,119.36823096374
7606052006,760605,7606,76,"Lembah Hopo",91460,-1.8445179199462,119.4684684344
7606052007,760605,7606,76,Benggaulu,91460,-1.756675317145,119.42414733956
7606052008,760605,7606,76,"Suka Maju",91460,-1.8488871294736,119.43250294967
7606052009,760605,7606,76,Kambunong,91460,-1.9648170796543,119.54386846271
7606052010,760605,7606,76,Salubiro,91460,-1.9039368363048,119.56876003856
7606052011,760605,7606,76,Sanjango,91460,-1.8110458590658,119.65224029328
