[
    {
        "code": 7201011006,
        "district_code": 720101,
        "regency_code": 7201,
        "province_code": 72,
        "name": "Bugis",
        "postal_code": "94762",
        "latitude": -1.279746860881124,
        "longitude": 122.56214106432363
    },
    {
        "code": 7201011007,
        "district_code": 720101,
        "regency_code": 7201,
        "province_code": 72,
        "name": "Balantang",
        "postal_code": "94762",
        "latitude": -1.2498019597883758,
        "longitude": 122.53493131524993
    },
    {
        "code": 7201011008,
        "district_code": 720101,
        "regency_code": 7201,
        "province_code": 72,
        "name": "Batui",
        "postal_code": "94762",
        "latitude": -1.279377752995423,
        "longitude": 122.55591684551449
    },
    {
        "code": 7201011009,
        "district_code": 720101,
        "regency_code": 7201,
        "province_code": 72,
        "name": "Tolando",
        "postal_code": "94762",
        "latitude": -1.1647553971547713,
        "longitude": 122.4179008247435
    },
    {
        "code": 7201011010,
        "district_code": 720101,
        "regency_code": 7201,
        "province_code": 72,
        "name": "Lamo",
        "postal_code": "94762",
        "latitude": -1.1493076197400056,
        "longitude": 122.44530999581893
    },
    {
        "code": 7201011017,
        "district_code": 720101,
        "regency_code": 7201,
        "province_code": 72,
        "name": "Sisipan",
        "postal_code": "94762",
        "latitude": -1.194588774907376,
        "longitude": 122.41167936211258
    },
    {
        "code": 7201011023,
        "district_code": 720101,
        "regency_code": 7201,
        "province_code": 72,
        "name": "Bakung",
        "postal_code": "94762",
        "latitude": -1.3026213510424107,
        "longitude": 122.51258762754044
    },
    {
        "code": 7201012002,
        "district_code": 720101,
        "regency_code": 7201,
        "province_code": 72,
        "name": "Nonong",
        "postal_code": "94762",
        "latitude": -1.3026413155095888,
        "longitude": 122.46887614642381
    },
    {
        "code": 7201012003,
        "district_code": 720101,
        "regency_code": 7201,
        "province_code": 72,
        "name": "Kayowa",
        "postal_code": "94762",
        "latitude": -1.2803612935531186,
        "longitude": 122.47041007023105
    },
    {
        "code": 7201012005,
        "district_code": 720101,
        "regency_code": 7201,
        "province_code": 72,
        "name": "Ondo-Ondolu",
        "postal_code": "94762",
        "latitude": -1.1904916024828187,
        "longitude": 122.36236404688485
    },
    {
        "code": 7201012011,
        "district_code": 720101,
        "regency_code": 7201,
        "province_code": 72,
        "name": "Honbola",
        "postal_code": "94762",
        "latitude": -1.1336999212860328,
        "longitude": 122.461289111388
    },
    {
        "code": 7201012012,
        "district_code": 720101,
        "regency_code": 7201,
        "province_code": 72,
        "name": "Uso",
        "postal_code": "94762",
        "latitude": -1.1635012189137643,
        "longitude": 122.52346788622208
    },
    {
        "code": 7201012016,
        "district_code": 720101,
        "regency_code": 7201,
        "province_code": 72,
        "name": "Ondo-Ondolu I",
        "postal_code": "94762",
        "latitude": -1.2565981845489194,
        "longitude": 122.4726773084219
    },
    {
        "code": 7201021014,
        "district_code": 720102,
        "regency_code": 7201,
        "province_code": 72,
        "name": "Bunta I",
        "postal_code": "94753",
        "latitude": -0.8346439080918654,
        "longitude": 122.16408710448273
    },
    {
        "code": 7201021025,
        "district_code": 720102,
        "regency_code": 7201,
        "province_code": 72,
        "name": "Bunta II",
        "postal_code": "94753",
        "latitude": -0.8203594190600252,
        "longitude": 122.17191328766826
    },
    {
        "code": 7201021047,
        "district_code": 720102,
        "regency_code": 7201,
        "province_code": 72,
        "name": "Salabenda",
        "postal_code": "94753",
        "latitude": -0.8351730335471804,
        "longitude": 122.17927518657486
    },
    {
        "code": 7201021048,
        "district_code": 720102,
        "regency_code": 7201,
        "province_code": 72,
        "name": "Kalaka",
        "postal_code": "94753",
        "latitude": -0.8543753433951697,
        "longitude": 122.18199365742942
    },
    {
        "code": 7201022015,
        "district_code": 720102,
        "regency_code": 7201,
        "province_code": 72,
        "name": "Bohotokong",
        "postal_code": "94753",
        "latitude": -0.8703848017728847,
        "longitude": 122.17065145616085
    },
    {
        "code": 7201022016,
        "district_code": 720102,
        "regency_code": 7201,
        "province_code": 72,
        "name": "Dondo Soboli",
        "postal_code": "94753",
        "latitude": -0.877852810143969,
        "longitude": 122.18588709514485
    },
    {
        "code": 7201022017,
        "district_code": 720102,
        "regency_code": 7201,
        "province_code": 72,
        "name": "Laonggo",
        "postal_code": "94753",
        "latitude": -0.8893356593996634,
        "longitude": 122.19412019621709
    },
    {
        "code": 7201022023,
        "district_code": 720102,
        "regency_code": 7201,
        "province_code": 72,
        "name": "Hion",
        "postal_code": "94753",
        "latitude": -0.8537601590537642,
        "longitude": 122.22558097642103
    },
    {
        "code": 7201022024,
        "district_code": 720102,
        "regency_code": 7201,
        "province_code": 72,
        "name": "Tombongan Ulos",
        "postal_code": "94753",
        "latitude": -0.8437823066409592,
        "longitude": 122.21452265626378
    },
    {
        "code": 7201022026,
        "district_code": 720102,
        "regency_code": 7201,
        "province_code": 72,
        "name": "Pongian",
        "postal_code": "94753",
        "latitude": -0.8155722353569178,
        "longitude": 122.22633974380402
    },
    {
        "code": 7201022027,
        "district_code": 720102,
        "regency_code": 7201,
        "province_code": 72,
        "name": "Tuntung",
        "postal_code": "94753",
        "latitude": -0.795630379918465,
        "longitude": 122.2705626325063
    },
    {
        "code": 7201022028,
        "district_code": 720102,
        "regency_code": 7201,
        "province_code": 72,
        "name": "Nanga-Nangaon",
        "postal_code": "94753",
        "latitude": -0.8356629292747358,
        "longitude": 122.30145624827564
    },
    {
        "code": 7201022029,
        "district_code": 720102,
        "regency_code": 7201,
        "province_code": 72,
        "name": "Toima",
        "postal_code": "94753",
        "latitude": -0.7886056651961976,
        "longitude": 122.34902998974094
    },
    {
        "code": 7201022030,
        "district_code": 720102,
        "regency_code": 7201,
        "province_code": 72,
        "name": "Matabas",
        "postal_code": "94753",
        "latitude": -0.9228540920681196,
        "longitude": 122.34184103004861
    },
    {
        "code": 7201022031,
        "district_code": 720102,
        "regency_code": 7201,
        "province_code": 72,
        "name": "Huhak",
        "postal_code": "94753",
        "latitude": -0.9002777485837633,
        "longitude": 122.38619396829846
    },
    {
        "code": 7201022032,
        "district_code": 720102,
        "regency_code": 7201,
        "province_code": 72,
        "name": "Lontio",
        "postal_code": "94753",
        "latitude": -0.8952831840496318,
        "longitude": 122.4119073438602
    },
    {
        "code": 7201022041,
        "district_code": 720102,
        "regency_code": 7201,
        "province_code": 72,
        "name": "Demangan Jaya",
        "postal_code": "94753",
        "latitude": -0.8395770811433607,
        "longitude": 122.19972736578929
    },
    {
        "code": 7201022042,
        "district_code": 720102,
        "regency_code": 7201,
        "province_code": 72,
        "name": "Balanga",
        "postal_code": "94753",
        "latitude": -0.865158274045057,
        "longitude": 122.45158595074287
    },
    {
        "code": 7201022043,
        "district_code": 720102,
        "regency_code": 7201,
        "province_code": 72,
        "name": "Longgolian",
        "postal_code": "94753",
        "latitude": -0.800644989777253,
        "longitude": 122.32648840211758
    },
    {
        "code": 7201022044,
        "district_code": 720102,
        "regency_code": 7201,
        "province_code": 72,
        "name": "Kalumbangan",
        "postal_code": "94753",
        "latitude": -0.8844365504687386,
        "longitude": 122.16035627940595
    },
    {
        "code": 7201022045,
        "district_code": 720102,
        "regency_code": 7201,
        "province_code": 72,
        "name": "Polo",
        "postal_code": "94753",
        "latitude": -0.860875033065848,
        "longitude": 122.16588618489274
    },
    {
        "code": 7201022049,
        "district_code": 720102,
        "regency_code": 7201,
        "province_code": 72,
        "name": "Koili",
        "postal_code": "94753",
        "latitude": -0.9148764278493711,
        "longitude": 122.36832943350052
    },
    {
        "code": 7201031006,
        "district_code": 720103,
        "regency_code": 7201,
        "province_code": 72,
        "name": "Kintom",
        "postal_code": "94761",
        "latitude": -1.0980263587785024,
        "longitude": 122.60247291266936
    },
    {
        "code": 7201031010,
        "district_code": 720103,
        "regency_code": 7201,
        "province_code": 72,
        "name": "Mendono",
        "postal_code": "94761",
        "latitude": -1.0837643634555818,
        "longitude": 122.66201288700238
    },
    {
        "code": 7201031017,
        "district_code": 720103,
        "regency_code": 7201,
        "province_code": 72,
        "name": "Mondonun",
        "postal_code": "94761",
        "latitude": -1.1306675277501088,
        "longitude": 122.69790749929783
    },
    {
        "code": 7201032001,
        "district_code": 720103,
        "regency_code": 7201,
        "province_code": 72,
        "name": "Kalolos",
        "postal_code": "94761",
        "latitude": -1.1804153176578085,
        "longitude": 122.59358426976992
    },
    {
        "code": 7201032002,
        "district_code": 720103,
        "regency_code": 7201,
        "province_code": 72,
        "name": "Tangkiang",
        "postal_code": "94761",
        "latitude": -1.112473283616756,
        "longitude": 122.55138201067669
    },
    {
        "code": 7201032003,
        "district_code": 720103,
        "regency_code": 7201,
        "province_code": 72,
        "name": "Padang",
        "postal_code": "94761",
        "latitude": -1.0967589482580755,
        "longitude": 122.51427738237828
    },
    {
        "code": 7201032004,
        "district_code": 720103,
        "regency_code": 7201,
        "province_code": 72,
        "name": "Manyula",
        "postal_code": "94761",
        "latitude": -1.089245943442784,
        "longitude": 122.5630407670443
    },
    {
        "code": 7201032005,
        "district_code": 720103,
        "regency_code": 7201,
        "province_code": 72,
        "name": "Uling",
        "postal_code": "94761",
        "latitude": -1.0892235196897952,
        "longitude": 122.58106702913989
    },
    {
        "code": 7201032007,
        "district_code": 720103,
        "regency_code": 7201,
        "province_code": 72,
        "name": "Samadoya",
        "postal_code": "94761",
        "latitude": -1.105881202364642,
        "longitude": 122.61659030693424
    },
    {
        "code": 7201032008,
        "district_code": 720103,
        "regency_code": 7201,
        "province_code": 72,
        "name": "Dimpalon",
        "postal_code": "94761",
        "latitude": -1.1041670387676927,
        "longitude": 122.62369961308708
    },
    {
        "code": 7201032009,
        "district_code": 720103,
        "regency_code": 7201,
        "province_code": 72,
        "name": "Solan",
        "postal_code": "94761",
        "latitude": -1.0744065102840132,
        "longitude": 122.61430754095667
    },
    {
        "code": 7201032013,
        "district_code": 720103,
        "regency_code": 7201,
        "province_code": 72,
        "name": "Babang Buyangge",
        "postal_code": "94761",
        "latitude": -1.186779067722466,
        "longitude": 122.5816882060787
    },
    {
        "code": 7201032015,
        "district_code": 720103,
        "regency_code": 7201,
        "province_code": 72,
        "name": "Solan Baru",
        "postal_code": "94761",
        "latitude": -1.0484410497915242,
        "longitude": 122.603311242208
    },
    {
        "code": 7201032019,
        "district_code": 720103,
        "regency_code": 7201,
        "province_code": 72,
        "name": "Dimpalon Baru",
        "postal_code": "94761",
        "latitude": -1.0906156400268492,
        "longitude": 122.61938845499276
    },
    {
        "code": 7201041009,
        "district_code": 720104,
        "regency_code": 7201,
        "province_code": 72,
        "name": "Luwuk",
        "postal_code": "94711",
        "latitude": -0.950680404222549,
        "longitude": 122.78831590230246
    },
    {
        "code": 7201041010,
        "district_code": 720104,
        "regency_code": 7201,
        "province_code": 72,
        "name": "Baru",
        "postal_code": "94711",
        "latitude": -0.9447992033165425,
        "longitude": 122.79237507454579
    },
    {
        "code": 7201041011,
        "district_code": 720104,
        "regency_code": 7201,
        "province_code": 72,
        "name": "Soho",
        "postal_code": "94713",
        "latitude": -0.9430633897137338,
        "longitude": 122.79601270710164
    },
    {
        "code": 7201041012,
        "district_code": 720104,
        "regency_code": 7201,
        "province_code": 72,
        "name": "Bungin",
        "postal_code": "94712",
        "latitude": -0.9412706481575582,
        "longitude": 122.8028135039737
    },
    {
        "code": 7201041031,
        "district_code": 720104,
        "regency_code": 7201,
        "province_code": 72,
        "name": "Karaton",
        "postal_code": "94711",
        "latitude": -0.9565309741061604,
        "longitude": 122.79243859269059
    },
    {
        "code": 7201041033,
        "district_code": 720104,
        "regency_code": 7201,
        "province_code": 72,
        "name": "Kaleke",
        "postal_code": "94713",
        "latitude": -0.9324723444092893,
        "longitude": 122.79919692444497
    },
    {
        "code": 7201041034,
        "district_code": 720104,
        "regency_code": 7201,
        "province_code": 72,
        "name": "Bungin Timur",
        "postal_code": "94712",
        "latitude": -0.9309861665356595,
        "longitude": 122.81569749626868
    },
    {
        "code": 7201041035,
        "district_code": 720104,
        "regency_code": 7201,
        "province_code": 72,
        "name": "Mangkio Baru-Hanga Permai",
        "postal_code": "94711",
        "latitude": -0.9374868999055735,
        "longitude": 122.78188400450698
    },
    {
        "code": 7201042008,
        "district_code": 720104,
        "regency_code": 7201,
        "province_code": 72,
        "name": "Tontouan",
        "postal_code": "94711",
        "latitude": -0.923161778822943,
        "longitude": 122.75103667512806
    },
    {
        "code": 7201042013,
        "district_code": 720104,
        "regency_code": 7201,
        "province_code": 72,
        "name": "Lumpoknyo",
        "postal_code": "94711",
        "latitude": -0.8985101762094546,
        "longitude": 122.7771648974598
    },
    {
        "code": 7201052009,
        "district_code": 720105,
        "regency_code": 7201,
        "province_code": 72,
        "name": "Nipa",
        "postal_code": "94771",
        "latitude": -0.9261635970729686,
        "longitude": 123.22015943172634
    },
    {
        "code": 7201052010,
        "district_code": 720105,
        "regency_code": 7201,
        "province_code": 72,
        "name": "Kagitakan",
        "postal_code": "94771",
        "latitude": -0.9297917580037882,
        "longitude": 123.1769042611657
    },
    {
        "code": 7201052011,
        "district_code": 720105,
        "regency_code": 7201,
        "province_code": 72,
        "name": "Sirom",
        "postal_code": "94771",
        "latitude": -0.9045223810273569,
        "longitude": 123.19889979190434
    },
    {
        "code": 7201052012,
        "district_code": 720105,
        "regency_code": 7201,
        "province_code": 72,
        "name": "Poroan",
        "postal_code": "94771",
        "latitude": -0.8918901724048554,
        "longitude": 123.20027938917379
    },
    {
        "code": 7201052013,
        "district_code": 720105,
        "regency_code": 7201,
        "province_code": 72,
        "name": "Lomba",
        "postal_code": "94771",
        "latitude": -0.8772734621058843,
        "longitude": 123.20378329895891
    },
    {
        "code": 7201052014,
        "district_code": 720105,
        "regency_code": 7201,
        "province_code": 72,
        "name": "Bonebobakal",
        "postal_code": "94771",
        "latitude": -0.9026091449021434,
        "longitude": 123.13999682257383
    },
    {
        "code": 7201052015,
        "district_code": 720105,
        "regency_code": 7201,
        "province_code": 72,
        "name": "Baruga",
        "postal_code": "94771",
        "latitude": -0.8795092445735221,
        "longitude": 123.16659790072727
    },
    {
        "code": 7201052016,
        "district_code": 720105,
        "regency_code": 7201,
        "province_code": 72,
        "name": "Kotabaru",
        "postal_code": "94771",
        "latitude": -0.8655639053244852,
        "longitude": 123.16947966210762
    },
    {
        "code": 7201052017,
        "district_code": 720105,
        "regency_code": 7201,
        "province_code": 72,
        "name": "Labotan",
        "postal_code": "94771",
        "latitude": -0.8600155083856413,
        "longitude": 123.22193612276645
    },
    {
        "code": 7201052023,
        "district_code": 720105,
        "regency_code": 7201,
        "province_code": 72,
        "name": "Tinonda",
        "postal_code": "94771",
        "latitude": -0.8695850564447534,
        "longitude": 123.19913833797519
    },
    {
        "code": 7201052027,
        "district_code": 720105,
        "regency_code": 7201,
        "province_code": 72,
        "name": "Bahari Makmur",
        "postal_code": "94771",
        "latitude": -0.8861612094179641,
        "longitude": 123.17052356178904
    },
    {
        "code": 7201052028,
        "district_code": 720105,
        "regency_code": 7201,
        "province_code": 72,
        "name": "Kota Raya",
        "postal_code": "94771",
        "latitude": -0.8938906097517939,
        "longitude": 123.15089402086387
    },
    {
        "code": 7201061020,
        "district_code": 720106,
        "regency_code": 7201,
        "province_code": 72,
        "name": "Balantak",
        "postal_code": "94773",
        "latitude": -0.8870822789187438,
        "longitude": 123.38836745476196
    },
    {
        "code": 7201061030,
        "district_code": 720106,
        "regency_code": 7201,
        "province_code": 72,
        "name": "Dale-Dale",
        "postal_code": "94773",
        "latitude": -0.8707045988993538,
        "longitude": 123.39033659247235
    },
    {
        "code": 7201061031,
        "district_code": 720106,
        "regency_code": 7201,
        "province_code": 72,
        "name": "Talang Batu",
        "postal_code": "94773",
        "latitude": -0.8669815867241566,
        "longitude": 123.40055779448336
    },
    {
        "code": 7201062009,
        "district_code": 720106,
        "regency_code": 7201,
        "province_code": 72,
        "name": "Talima A",
        "postal_code": "94773",
        "latitude": -0.8969858923729174,
        "longitude": 123.30830974479319
    },
    {
        "code": 7201062010,
        "district_code": 720106,
        "regency_code": 7201,
        "province_code": 72,
        "name": "Talima B",
        "postal_code": "94773",
        "latitude": -0.8859769370801495,
        "longitude": 123.31347711895074
    },
    {
        "code": 7201062013,
        "district_code": 720106,
        "regency_code": 7201,
        "province_code": 72,
        "name": "Dolom",
        "postal_code": "94773",
        "latitude": -0.8651524334202808,
        "longitude": 123.30031985449335
    },
    {
        "code": 7201062014,
        "district_code": 720106,
        "regency_code": 7201,
        "province_code": 72,
        "name": "Kiloma",
        "postal_code": "94773",
        "latitude": -0.8431220862645542,
        "longitude": 123.32351490726215
    },
    {
        "code": 7201062015,
        "district_code": 720106,
        "regency_code": 7201,
        "province_code": 72,
        "name": "Ra'u",
        "postal_code": "94773",
        "latitude": -0.885196856545208,
        "longitude": 123.34927187687147
    },
    {
        "code": 7201062016,
        "district_code": 720106,
        "regency_code": 7201,
        "province_code": 72,
        "name": "Tanotu",
        "postal_code": "94773",
        "latitude": -0.8500726986859298,
        "longitude": 123.34887030912081
    },
    {
        "code": 7201062017,
        "district_code": 720106,
        "regency_code": 7201,
        "province_code": 72,
        "name": "Padang",
        "postal_code": "94773",
        "latitude": -0.8539854098379333,
        "longitude": 123.3646577736319
    },
    {
        "code": 7201062018,
        "district_code": 720106,
        "regency_code": 7201,
        "province_code": 72,
        "name": "Mamping",
        "postal_code": "94773",
        "latitude": -0.8541548015380771,
        "longitude": 123.37990337283725
    },
    {
        "code": 7201062021,
        "district_code": 720106,
        "regency_code": 7201,
        "province_code": 72,
        "name": "Luok",
        "postal_code": "94773",
        "latitude": -0.8398951830397694,
        "longitude": 123.41252117994885
    },
    {
        "code": 7201062027,
        "district_code": 720106,
        "regency_code": 7201,
        "province_code": 72,
        "name": "Boloak",
        "postal_code": "94773",
        "latitude": -0.8900483734732056,
        "longitude": 123.29969064909098
    },
    {
        "code": 7201071011,
        "district_code": 720107,
        "regency_code": 7201,
        "province_code": 72,
        "name": "Pakowa",
        "postal_code": "94751",
        "latitude": -0.7955726693680726,
        "longitude": 122.58074702288064
    },
    {
        "code": 7201071018,
        "district_code": 720107,
        "regency_code": 7201,
        "province_code": 72,
        "name": "Pagimana",
        "postal_code": "94751",
        "latitude": -0.7981897852120774,
        "longitude": 122.65036843141846
    },
    {
        "code": 7201071022,
        "district_code": 720107,
        "regency_code": 7201,
        "province_code": 72,
        "name": "Basabungan",
        "postal_code": "94751",
        "latitude": -0.8747920098897549,
        "longitude": 122.64645916623141
    },
    {
        "code": 7201072001,
        "district_code": 720107,
        "regency_code": 7201,
        "province_code": 72,
        "name": "Baloa Doda",
        "postal_code": "94751",
        "latitude": -0.9483451524229868,
        "longitude": 122.49498046262691
    },
    {
        "code": 7201072002,
        "district_code": 720107,
        "regency_code": 7201,
        "province_code": 72,
        "name": "Tampe",
        "postal_code": "94751",
        "latitude": -0.48580279086536865,
        "longitude": 122.58263034338319
    },
    {
        "code": 7201072010,
        "district_code": 720107,
        "regency_code": 7201,
        "province_code": 72,
        "name": "Asaan",
        "postal_code": "94751",
        "latitude": -0.8330098923202649,
        "longitude": 122.5922091783195
    },
    {
        "code": 7201072012,
        "district_code": 720107,
        "regency_code": 7201,
        "province_code": 72,
        "name": "Balai Gondi",
        "postal_code": "94751",
        "latitude": -0.4996057484504821,
        "longitude": 122.54351796242791
    },
    {
        "code": 7201072013,
        "district_code": 720107,
        "regency_code": 7201,
        "province_code": 72,
        "name": "Bajo Poat",
        "postal_code": "94751",
        "latitude": -0.5083889620299032,
        "longitude": 122.57034887578884
    },
    {
        "code": 7201072014,
        "district_code": 720107,
        "regency_code": 7201,
        "province_code": 72,
        "name": "Gomuo",
        "postal_code": "94751",
        "latitude": -0.49538439237079146,
        "longitude": 122.60437112736649
    },
    {
        "code": 7201072015,
        "district_code": 720107,
        "regency_code": 7201,
        "province_code": 72,
        "name": "Nain",
        "postal_code": "94751",
        "latitude": -0.8103088877414675,
        "longitude": 122.60914999399468
    },
    {
        "code": 7201072016,
        "district_code": 720107,
        "regency_code": 7201,
        "province_code": 72,
        "name": "Lamo",
        "postal_code": "94751",
        "latitude": -0.7795386427164633,
        "longitude": 122.61128370547472
    },
    {
        "code": 7201072017,
        "district_code": 720107,
        "regency_code": 7201,
        "province_code": 72,
        "name": "Tongkonunuk",
        "postal_code": "94751",
        "latitude": -0.7820207925772569,
        "longitude": 122.63276933388605
    },
    {
        "code": 7201072019,
        "district_code": 720107,
        "regency_code": 7201,
        "province_code": 72,
        "name": "Hohudongan",
        "postal_code": "94751",
        "latitude": -0.7975272139652929,
        "longitude": 122.63922217258484
    },
    {
        "code": 7201072020,
        "district_code": 720107,
        "regency_code": 7201,
        "province_code": 72,
        "name": "Sinampangnyo",
        "postal_code": "94751",
        "latitude": -0.8153683141947112,
        "longitude": 122.63552325038138
    },
    {
        "code": 7201072021,
        "district_code": 720107,
        "regency_code": 7201,
        "province_code": 72,
        "name": "Jaya Bakti",
        "postal_code": "94751",
        "latitude": -0.7867538527785354,
        "longitude": 122.6493686223015
    },
    {
        "code": 7201072023,
        "district_code": 720107,
        "regency_code": 7201,
        "province_code": 72,
        "name": "Pisou",
        "postal_code": "94751",
        "latitude": -0.8631842177590259,
        "longitude": 122.66077437418505
    },
    {
        "code": 7201072024,
        "district_code": 720107,
        "regency_code": 7201,
        "province_code": 72,
        "name": "Lambangan",
        "postal_code": "94751",
        "latitude": -0.8718437156089609,
        "longitude": 122.67090890789697
    },
    {
        "code": 7201072025,
        "district_code": 720107,
        "regency_code": 7201,
        "province_code": 72,
        "name": "Toipan",
        "postal_code": "94751",
        "latitude": -0.7841319670110868,
        "longitude": 122.8790922760922
    },
    {
        "code": 7201072026,
        "district_code": 720107,
        "regency_code": 7201,
        "province_code": 72,
        "name": "Siuna",
        "postal_code": "94751",
        "latitude": -0.7466796700594778,
        "longitude": 122.97175530303126
    },
    {
        "code": 7201072027,
        "district_code": 720107,
        "regency_code": 7201,
        "province_code": 72,
        "name": "Pinapuan",
        "postal_code": "94751",
        "latitude": -0.8029615705524117,
        "longitude": 122.6274298962127
    },
    {
        "code": 7201072029,
        "district_code": 720107,
        "regency_code": 7201,
        "province_code": 72,
        "name": "Sepa",
        "postal_code": "94751",
        "latitude": -0.8641798646292709,
        "longitude": 122.68580569148162
    },
    {
        "code": 7201072030,
        "district_code": 720107,
        "regency_code": 7201,
        "province_code": 72,
        "name": "Taloyon",
        "postal_code": "94751",
        "latitude": -0.8534036716794356,
        "longitude": 122.70557549372928
    },
    {
        "code": 7201072031,
        "district_code": 720107,
        "regency_code": 7201,
        "province_code": 72,
        "name": "Uwedaka",
        "postal_code": "94751",
        "latitude": -0.8436798217040117,
        "longitude": 122.7240861200507
    },
    {
        "code": 7201072032,
        "district_code": 720107,
        "regency_code": 7201,
        "province_code": 72,
        "name": "Tintingan",
        "postal_code": "94751",
        "latitude": -0.8411934085054578,
        "longitude": 122.74897547701383
    },
    {
        "code": 7201072033,
        "district_code": 720107,
        "regency_code": 7201,
        "province_code": 72,
        "name": "Bungawon",
        "postal_code": "94751",
        "latitude": -0.8249630499448708,
        "longitude": 122.78114823655926
    },
    {
        "code": 7201072034,
        "district_code": 720107,
        "regency_code": 7201,
        "province_code": 72,
        "name": "Huhak",
        "postal_code": "94751",
        "latitude": -0.8090525001889464,
        "longitude": 122.79987340774757
    },
    {
        "code": 7201072035,
        "district_code": 720107,
        "regency_code": 7201,
        "province_code": 72,
        "name": "Poh",
        "postal_code": "94751",
        "latitude": -0.7917020816003345,
        "longitude": 122.8448975573637
    },
    {
        "code": 7201072037,
        "district_code": 720107,
        "regency_code": 7201,
        "province_code": 72,
        "name": "Bondat",
        "postal_code": "94751",
        "latitude": -0.834242321090197,
        "longitude": 122.76893268341719
    },
    {
        "code": 7201072038,
        "district_code": 720107,
        "regency_code": 7201,
        "province_code": 72,
        "name": "Sammajatem",
        "postal_code": "94751",
        "latitude": -0.6670212806298134,
        "longitude": 122.74007181748613
    },
    {
        "code": 7201072039,
        "district_code": 720107,
        "regency_code": 7201,
        "province_code": 72,
        "name": "Bulu",
        "postal_code": "94751",
        "latitude": -0.910104656510541,
        "longitude": 122.56814835930922
    },
    {
        "code": 7201072041,
        "district_code": 720107,
        "regency_code": 7201,
        "province_code": 72,
        "name": "Tombang",
        "postal_code": "94751",
        "latitude": -0.8029912989343915,
        "longitude": 122.82527009423588
    },
    {
        "code": 7201072043,
        "district_code": 720107,
        "regency_code": 7201,
        "province_code": 72,
        "name": "Ampera",
        "postal_code": "94751",
        "latitude": -0.897871908872671,
        "longitude": 122.60827366555289
    },
    {
        "code": 7201072044,
        "district_code": 720107,
        "regency_code": 7201,
        "province_code": 72,
        "name": "Dongkalan",
        "postal_code": "94751",
        "latitude": -0.82499530207792,
        "longitude": 122.56633162503344
    },
    {
        "code": 7201082001,
        "district_code": 720108,
        "regency_code": 7201,
        "province_code": 72,
        "name": "Bualemo A",
        "postal_code": "94752",
        "latitude": -0.5913294776902048,
        "longitude": 123.16038549657749
    },
    {
        "code": 7201082002,
        "district_code": 720108,
        "regency_code": 7201,
        "province_code": 72,
        "name": "Tikupan",
        "postal_code": "94752",
        "latitude": -0.6750840700448622,
        "longitude": 122.84137195984756
    },
    {
        "code": 7201082003,
        "district_code": 720108,
        "regency_code": 7201,
        "province_code": 72,
        "name": "Trans Mayayap",
        "postal_code": "94752",
        "latitude": -0.6527154384885789,
        "longitude": 122.93108543243532
    },
    {
        "code": 7201082004,
        "district_code": 720108,
        "regency_code": 7201,
        "province_code": 72,
        "name": "Toiba",
        "postal_code": "94752",
        "latitude": -0.680954903909824,
        "longitude": 123.00083051172909
    },
    {
        "code": 7201082005,
        "district_code": 720108,
        "regency_code": 7201,
        "province_code": 72,
        "name": "Longkoga Barat",
        "postal_code": "94752",
        "latitude": -0.6782476141633871,
        "longitude": 123.06988352391312
    },
    {
        "code": 7201082006,
        "district_code": 720108,
        "regency_code": 7201,
        "province_code": 72,
        "name": "Longkoga Timur",
        "postal_code": "94752",
        "latitude": -0.5937602382791278,
        "longitude": 123.11267959082926
    },
    {
        "code": 7201082007,
        "district_code": 720108,
        "regency_code": 7201,
        "province_code": 72,
        "name": "Bualemo B",
        "postal_code": "94752",
        "latitude": -0.5923245158044638,
        "longitude": 123.13589141065582
    },
    {
        "code": 7201082008,
        "district_code": 720108,
        "regency_code": 7201,
        "province_code": 72,
        "name": "Taima",
        "postal_code": "94752",
        "latitude": -0.6440187105399845,
        "longitude": 123.34565379290443
    },
    {
        "code": 7201082009,
        "district_code": 720108,
        "regency_code": 7201,
        "province_code": 72,
        "name": "Sampaka",
        "postal_code": "94752",
        "latitude": -0.6843079043626564,
        "longitude": 123.15530059294679
    },
    {
        "code": 7201082010,
        "district_code": 720108,
        "regency_code": 7201,
        "province_code": 72,
        "name": "Malik",
        "postal_code": "94752",
        "latitude": -0.6722542551075249,
        "longitude": 123.2551953033719
    },
    {
        "code": 7201082011,
        "district_code": 720108,
        "regency_code": 7201,
        "province_code": 72,
        "name": "Binsil",
        "postal_code": "94752",
        "latitude": -0.5928160261110907,
        "longitude": 123.26808072056537
    },
    {
        "code": 7201082012,
        "district_code": 720108,
        "regency_code": 7201,
        "province_code": 72,
        "name": "Binsil Padang",
        "postal_code": "94752",
        "latitude": -0.6366805711572864,
        "longitude": 123.29345307114858
    },
    {
        "code": 7201082013,
        "district_code": 720108,
        "regency_code": 7201,
        "province_code": 72,
        "name": "Lembah Tompotika",
        "postal_code": "94752",
        "latitude": -0.5949922852892073,
        "longitude": 123.05433429422743
    },
    {
        "code": 7201082014,
        "district_code": 720108,
        "regency_code": 7201,
        "province_code": 72,
        "name": "Mayayap",
        "postal_code": "94752",
        "latitude": -0.6755765056252058,
        "longitude": 122.90824912756827
    },
    {
        "code": 7201082015,
        "district_code": 720108,
        "regency_code": 7201,
        "province_code": 72,
        "name": "Bima Karya",
        "postal_code": "94752",
        "latitude": -0.6203549041494777,
        "longitude": 123.30489270609453
    },
    {
        "code": 7201082016,
        "district_code": 720108,
        "regency_code": 7201,
        "province_code": 72,
        "name": "Salipi",
        "postal_code": "94752",
        "latitude": -0.6741020291923046,
        "longitude": 122.79192759162004
    },
    {
        "code": 7201082017,
        "district_code": 720108,
        "regency_code": 7201,
        "province_code": 72,
        "name": "Nipa Kalemoan",
        "postal_code": "94752",
        "latitude": -0.6618739013339277,
        "longitude": 123.2107174638605
    },
    {
        "code": 7201082018,
        "district_code": 720108,
        "regency_code": 7201,
        "province_code": 72,
        "name": "Malik Makmur",
        "postal_code": "94752",
        "latitude": -0.589841307187218,
        "longitude": 123.21564571233436
    },
    {
        "code": 7201082019,
        "district_code": 720108,
        "regency_code": 7201,
        "province_code": 72,
        "name": "Lembah Makmur",
        "postal_code": "94752",
        "latitude": -0.7030264934830542,
        "longitude": 123.10707506265197
    },
    {
        "code": 7201082020,
        "district_code": 720108,
        "regency_code": 7201,
        "province_code": 72,
        "name": "Dwi Karya",
        "postal_code": "94752",
        "latitude": -0.6109846883140114,
        "longitude": 123.08978106525944
    },
    {
        "code": 7201091054,
        "district_code": 720109,
        "regency_code": 7201,
        "province_code": 72,
        "name": "Cendana",
        "postal_code": "94764",
        "latitude": -1.4550880774097483,
        "longitude": 122.34642034890564
    },
    {
        "code": 7201092001,
        "district_code": 720109,
        "regency_code": 7201,
        "province_code": 72,
        "name": "Cendana Pura",
        "postal_code": "94764",
        "latitude": -1.4601567819271166,
        "longitude": 122.35401839638449
    },
    {
        "code": 7201092011,
        "district_code": 720109,
        "regency_code": 7201,
        "province_code": 72,
        "name": "Sentral Sari",
        "postal_code": "94764",
        "latitude": -1.490041526464609,
        "longitude": 122.354560505992
    },
    {
        "code": 7201092012,
        "district_code": 720109,
        "regency_code": 7201,
        "province_code": 72,
        "name": "Tohiti Sari",
        "postal_code": "94764",
        "latitude": -1.517383754145259,
        "longitude": 122.3008124471926
    },
    {
        "code": 7201092013,
        "district_code": 720109,
        "regency_code": 7201,
        "province_code": 72,
        "name": "Tirta Kencana",
        "postal_code": "94764",
        "latitude": -1.4678154878052896,
        "longitude": 122.33098363487035
    },
    {
        "code": 7201092014,
        "district_code": 720109,
        "regency_code": 7201,
        "province_code": 72,
        "name": "Singkoyo",
        "postal_code": "94764",
        "latitude": -1.3832129944645921,
        "longitude": 122.2674029607498
    },
    {
        "code": 7201092015,
        "district_code": 720109,
        "regency_code": 7201,
        "province_code": 72,
        "name": "Tolisu",
        "postal_code": "94764",
        "latitude": -1.3459614753497628,
        "longitude": 122.1901979118549
    },
    {
        "code": 7201092016,
        "district_code": 720109,
        "regency_code": 7201,
        "province_code": 72,
        "name": "Piondo",
        "postal_code": "94764",
        "latitude": -1.4351841615959382,
        "longitude": 122.2027043735743
    },
    {
        "code": 7201092017,
        "district_code": 720109,
        "regency_code": 7201,
        "province_code": 72,
        "name": "Tirta Sari",
        "postal_code": "94764",
        "latitude": -1.4833223527154795,
        "longitude": 122.33579053653395
    },
    {
        "code": 7201092026,
        "district_code": 720109,
        "regency_code": 7201,
        "province_code": 72,
        "name": "Rusa Kencana",
        "postal_code": "94764",
        "latitude": -1.4365657720300156,
        "longitude": 122.33025297040224
    },
    {
        "code": 7201092027,
        "district_code": 720109,
        "regency_code": 7201,
        "province_code": 72,
        "name": "Bukit Jaya",
        "postal_code": "94764",
        "latitude": -1.3974190498293708,
        "longitude": 122.19221862275096
    },
    {
        "code": 7201092036,
        "district_code": 720109,
        "regency_code": 7201,
        "province_code": 72,
        "name": "Samalore",
        "postal_code": "94764",
        "latitude": -1.3649859902227006,
        "longitude": 122.33277402351966
    },
    {
        "code": 7201092037,
        "district_code": 720109,
        "regency_code": 7201,
        "province_code": 72,
        "name": "Ue Mea",
        "postal_code": "94764",
        "latitude": -1.2565649256468472,
        "longitude": 122.1986388193477
    },
    {
        "code": 7201092038,
        "district_code": 720109,
        "regency_code": 7201,
        "province_code": 72,
        "name": "Benteng",
        "postal_code": "94764",
        "latitude": -1.4033481911547911,
        "longitude": 122.33001308041831
    },
    {
        "code": 7201092039,
        "district_code": 720109,
        "regency_code": 7201,
        "province_code": 72,
        "name": "Mansahang",
        "postal_code": "94764",
        "latitude": -1.4311269420911965,
        "longitude": 122.35238239351332
    },
    {
        "code": 7201092041,
        "district_code": 720109,
        "regency_code": 7201,
        "province_code": 72,
        "name": "Sindang Baru",
        "postal_code": "94764",
        "latitude": -1.39590494877944,
        "longitude": 122.25251641618627
    },
    {
        "code": 7201092045,
        "district_code": 720109,
        "regency_code": 7201,
        "province_code": 72,
        "name": "Tanah Abang",
        "postal_code": "94764",
        "latitude": -1.453144544642255,
        "longitude": 122.32615626126477
    },
    {
        "code": 7201092047,
        "district_code": 720109,
        "regency_code": 7201,
        "province_code": 72,
        "name": "Jaya Kencana",
        "postal_code": "94764",
        "latitude": -1.4702510612409814,
        "longitude": 122.34308319094616
    },
    {
        "code": 7201092048,
        "district_code": 720109,
        "regency_code": 7201,
        "province_code": 72,
        "name": "Mekar Kencana",
        "postal_code": "94764",
        "latitude": -1.4562076621147262,
        "longitude": 122.31131631701702
    },
    {
        "code": 7201092049,
        "district_code": 720109,
        "regency_code": 7201,
        "province_code": 72,
        "name": "Marga Kencana",
        "postal_code": "94764",
        "latitude": -1.4629399050422773,
        "longitude": 122.30755677718633
    },
    {
        "code": 7201092050,
        "district_code": 720109,
        "regency_code": 7201,
        "province_code": 72,
        "name": "Sari Buana",
        "postal_code": "94764",
        "latitude": -1.5066502564624886,
        "longitude": 122.32421281345327
    },
    {
        "code": 7201092051,
        "district_code": 720109,
        "regency_code": 7201,
        "province_code": 72,
        "name": "Sentral Timur",
        "postal_code": "94764",
        "latitude": -1.496548733621227,
        "longitude": 122.3641721062047
    },
    {
        "code": 7201092055,
        "district_code": 720109,
        "regency_code": 7201,
        "province_code": 72,
        "name": "Mulya Sari",
        "postal_code": "94764",
        "latitude": -1.4667019951630769,
        "longitude": 122.30529174439559
    },
    {
        "code": 7201092056,
        "district_code": 720109,
        "regency_code": 7201,
        "province_code": 72,
        "name": "Tirta Jaya",
        "postal_code": "94764",
        "latitude": -1.4760442693032736,
        "longitude": 122.30543083139779
    },
    {
        "code": 7201092057,
        "district_code": 720109,
        "regency_code": 7201,
        "province_code": 72,
        "name": "Sidomukti",
        "postal_code": "94764",
        "latitude": -1.4328905381804014,
        "longitude": 122.37090723928948
    },
    {
        "code": 7201102001,
        "district_code": 720110,
        "regency_code": 7201,
        "province_code": 72,
        "name": "Tangeban",
        "postal_code": "94772",
        "latitude": -0.8218033550360101,
        "longitude": 123.23807402708573
    },
    {
        "code": 7201102002,
        "district_code": 720110,
        "regency_code": 7201,
        "province_code": 72,
        "name": "Taugi",
        "postal_code": "94772",
        "latitude": -0.8424076092672739,
        "longitude": 123.16855466940795
    },
    {
        "code": 7201102003,
        "district_code": 720110,
        "regency_code": 7201,
        "province_code": 72,
        "name": "Eteng",
        "postal_code": "94772",
        "latitude": -0.8415579543157138,
        "longitude": 123.13948582106556
    },
    {
        "code": 7201102004,
        "district_code": 720110,
        "regency_code": 7201,
        "province_code": 72,
        "name": "Minang Andala",
        "postal_code": "94772",
        "latitude": -0.8205666986887251,
        "longitude": 123.13380801545361
    },
    {
        "code": 7201102005,
        "district_code": 720110,
        "regency_code": 7201,
        "province_code": 72,
        "name": "Kospa Duatakarya",
        "postal_code": "94772",
        "latitude": -0.8244163846066248,
        "longitude": 123.18164901726101
    },
    {
        "code": 7201102006,
        "district_code": 720110,
        "regency_code": 7201,
        "province_code": 72,
        "name": "Purwo Agung",
        "postal_code": "94772",
        "latitude": -0.826668894620968,
        "longitude": 123.12613565050184
    },
    {
        "code": 7201102007,
        "district_code": 720110,
        "regency_code": 7201,
        "province_code": 72,
        "name": "Kembang Merta",
        "postal_code": "94772",
        "latitude": -0.8103159479126222,
        "longitude": 123.1219566851506
    },
    {
        "code": 7201102008,
        "district_code": 720110,
        "regency_code": 7201,
        "province_code": 72,
        "name": "Simpangan",
        "postal_code": "94772",
        "latitude": -0.7813978454162895,
        "longitude": 123.190747706696
    },
    {
        "code": 7201102009,
        "district_code": 720110,
        "regency_code": 7201,
        "province_code": 72,
        "name": "Tompotika Makmur",
        "postal_code": "94772",
        "latitude": -0.785980405136429,
        "longitude": 123.11993974741934
    },
    {
        "code": 7201102010,
        "district_code": 720110,
        "regency_code": 7201,
        "province_code": 72,
        "name": "Duata Karya",
        "postal_code": "94772",
        "latitude": -0.8285215038318868,
        "longitude": 123.194434328263
    },
    {
        "code": 7201102011,
        "district_code": 720110,
        "regency_code": 7201,
        "province_code": 72,
        "name": "Serese",
        "postal_code": "94772",
        "latitude": -0.8738434592818995,
        "longitude": 123.15202701953726
    },
    {
        "code": 7201102012,
        "district_code": 720110,
        "regency_code": 7201,
        "province_code": 72,
        "name": "Cemerlang",
        "postal_code": "94772",
        "latitude": -0.8588889449855708,
        "longitude": 123.14761887590934
    },
    {
        "code": 7201102013,
        "district_code": 720110,
        "regency_code": 7201,
        "province_code": 72,
        "name": "Padangon",
        "postal_code": "94772",
        "latitude": -0.8447642423762531,
        "longitude": 123.15037147150395
    },
    {
        "code": 7201102014,
        "district_code": 720110,
        "regency_code": 7201,
        "province_code": 72,
        "name": "Rangga-Rangga",
        "postal_code": "94772",
        "latitude": -0.8149393342037609,
        "longitude": 123.10232833401815
    },
    {
        "code": 7201112001,
        "district_code": 720111,
        "regency_code": 7201,
        "province_code": 72,
        "name": "Kayutanyo",
        "postal_code": "94723",
        "latitude": -0.8941624950814125,
        "longitude": 123.01411113643593
    },
    {
        "code": 7201112002,
        "district_code": 720111,
        "regency_code": 7201,
        "province_code": 72,
        "name": "Pohi",
        "postal_code": "94723",
        "latitude": -0.853822213384725,
        "longitude": 122.99012076410547
    },
    {
        "code": 7201112003,
        "district_code": 720111,
        "regency_code": 7201,
        "province_code": 72,
        "name": "Hunduhon",
        "postal_code": "94723",
        "latitude": -0.837096572611737,
        "longitude": 122.99887343792325
    },
    {
        "code": 7201112004,
        "district_code": 720111,
        "regency_code": 7201,
        "province_code": 72,
        "name": "Baya",
        "postal_code": "94723",
        "latitude": -0.8253138034429448,
        "longitude": 123.02614046664395
    },
    {
        "code": 7201112005,
        "district_code": 720111,
        "regency_code": 7201,
        "province_code": 72,
        "name": "Uwedikan",
        "postal_code": "94723",
        "latitude": -0.8817338111836591,
        "longitude": 123.05016904923573
    },
    {
        "code": 7201112006,
        "district_code": 720111,
        "regency_code": 7201,
        "province_code": 72,
        "name": "Bantayan",
        "postal_code": "94723",
        "latitude": -0.8380180971021604,
        "longitude": 123.07090682259894
    },
    {
        "code": 7201112007,
        "district_code": 720111,
        "regency_code": 7201,
        "province_code": 72,
        "name": "Lauwon",
        "postal_code": "94723",
        "latitude": -0.8209166090944003,
        "longitude": 122.94776425743761
    },
    {
        "code": 7201112008,
        "district_code": 720111,
        "regency_code": 7201,
        "province_code": 72,
        "name": "Boitan",
        "postal_code": "94723",
        "latitude": -0.793456440600514,
        "longitude": 123.08119148388597
    },
    {
        "code": 7201112009,
        "district_code": 720111,
        "regency_code": 7201,
        "province_code": 72,
        "name": "Molino",
        "postal_code": "94723",
        "latitude": -0.7964107933390115,
        "longitude": 123.0283051215626
    },
    {
        "code": 7201112010,
        "district_code": 720111,
        "regency_code": 7201,
        "province_code": 72,
        "name": "Louk",
        "postal_code": "94723",
        "latitude": -0.8962756756921787,
        "longitude": 122.9804714038409
    },
    {
        "code": 7201112011,
        "district_code": 720111,
        "regency_code": 7201,
        "province_code": 72,
        "name": "Lontos",
        "postal_code": "94723",
        "latitude": -0.8795056701722355,
        "longitude": 122.97486535127645
    },
    {
        "code": 7201112012,
        "district_code": 720111,
        "regency_code": 7201,
        "province_code": 72,
        "name": "Indang Sari",
        "postal_code": "94723",
        "latitude": -0.8575105113979972,
        "longitude": 122.9640562359246
    },
    {
        "code": 7201112013,
        "district_code": 720111,
        "regency_code": 7201,
        "province_code": 72,
        "name": "Bukit Mulya",
        "postal_code": "94723",
        "latitude": -0.7938002984466079,
        "longitude": 123.05654799688901
    },
    {
        "code": 7201122001,
        "district_code": 720112,
        "regency_code": 7201,
        "province_code": 72,
        "name": "Dongin",
        "postal_code": "94766",
        "latitude": -1.5434671149609631,
        "longitude": 122.26604890989852
    },
    {
        "code": 7201122002,
        "district_code": 720112,
        "regency_code": 7201,
        "province_code": 72,
        "name": "Pandan Wangi",
        "postal_code": "94766",
        "latitude": -1.529909701548193,
        "longitude": 122.28987119123352
    },
    {
        "code": 7201122003,
        "district_code": 720112,
        "regency_code": 7201,
        "province_code": 72,
        "name": "Kami Wangi",
        "postal_code": "94766",
        "latitude": -1.541412032906917,
        "longitude": 122.25537152557976
    },
    {
        "code": 7201122004,
        "district_code": 720112,
        "regency_code": 7201,
        "province_code": 72,
        "name": "Sindang Sari",
        "postal_code": "94766",
        "latitude": -1.5283224860394387,
        "longitude": 122.23508087651963
    },
    {
        "code": 7201122005,
        "district_code": 720112,
        "regency_code": 7201,
        "province_code": 72,
        "name": "Makapa",
        "postal_code": "94766",
        "latitude": -1.4921411006205614,
        "longitude": 122.17271189658415
    },
    {
        "code": 7201122006,
        "district_code": 720112,
        "regency_code": 7201,
        "province_code": 72,
        "name": "Karya Makmur",
        "postal_code": "94766",
        "latitude": -1.4915330070900426,
        "longitude": 122.14693551836815
    },
    {
        "code": 7201122007,
        "district_code": 720112,
        "regency_code": 7201,
        "province_code": 72,
        "name": "Mantawa",
        "postal_code": "94766",
        "latitude": -1.4589679781518718,
        "longitude": 122.10759145316085
    },
    {
        "code": 7201122008,
        "district_code": 720112,
        "regency_code": 7201,
        "province_code": 72,
        "name": "Pasir Lamba",
        "postal_code": "94766",
        "latitude": -1.573323629115272,
        "longitude": 122.1711726657129
    },
    {
        "code": 7201122009,
        "district_code": 720112,
        "regency_code": 7201,
        "province_code": 72,
        "name": "Mantawa Bonebae",
        "postal_code": "94766",
        "latitude": -1.4497639836986236,
        "longitude": 122.07414160501637
    },
    {
        "code": 7201122010,
        "district_code": 720112,
        "regency_code": 7201,
        "province_code": 72,
        "name": "Gunung Kramat",
        "postal_code": "94766",
        "latitude": -1.5241363813670812,
        "longitude": 122.09480115845071
    },
    {
        "code": 7201122011,
        "district_code": 720112,
        "regency_code": 7201,
        "province_code": 72,
        "name": "Lembah Kramat",
        "postal_code": "94766",
        "latitude": -1.580513182951502,
        "longitude": 122.07910686916169
    },
    {
        "code": 7201122012,
        "district_code": 720112,
        "regency_code": 7201,
        "province_code": 72,
        "name": "Rata",
        "postal_code": "94766",
        "latitude": -1.5738841655278588,
        "longitude": 122.08087622919813
    },
    {
        "code": 7201122013,
        "district_code": 720112,
        "regency_code": 7201,
        "province_code": 72,
        "name": "Bukit Makarti",
        "postal_code": "94766",
        "latitude": -1.5007906077562863,
        "longitude": 122.22269665241001
    },
    {
        "code": 7201122014,
        "district_code": 720112,
        "regency_code": 7201,
        "province_code": 72,
        "name": "Uwe Lolu",
        "postal_code": "94766",
        "latitude": -1.4929413068536215,
        "longitude": 122.24922973502447
    },
    {
        "code": 7201122015,
        "district_code": 720112,
        "regency_code": 7201,
        "province_code": 72,
        "name": "Bumi Harapan",
        "postal_code": "94766",
        "latitude": -1.443244008657162,
        "longitude": 122.1572268683111
    },
    {
        "code": 7201122016,
        "district_code": 720112,
        "regency_code": 7201,
        "province_code": 72,
        "name": "Mekar Sari",
        "postal_code": "94766",
        "latitude": -1.5208821803454038,
        "longitude": 122.22038933132113
    },
    {
        "code": 7201122017,
        "district_code": 720112,
        "regency_code": 7201,
        "province_code": 72,
        "name": "Mekar Jaya",
        "postal_code": "94766",
        "latitude": -1.5874874438954578,
        "longitude": 122.21246987012165
    },
    {
        "code": 7201132001,
        "district_code": 720113,
        "regency_code": 7201,
        "province_code": 72,
        "name": "Bangketa",
        "postal_code": "94754",
        "latitude": -1.0762026484087188,
        "longitude": 122.04966054707737
    },
    {
        "code": 7201132002,
        "district_code": 720113,
        "regency_code": 7201,
        "province_code": 72,
        "name": "Tobelombang",
        "postal_code": "94754",
        "latitude": -1.069427885442347,
        "longitude": 122.08490173651168
    },
    {
        "code": 7201132003,
        "district_code": 720113,
        "regency_code": 7201,
        "province_code": 72,
        "name": "Balaan",
        "postal_code": "94754",
        "latitude": -1.0016929617047028,
        "longitude": 122.10491807915058
    },
    {
        "code": 7201132004,
        "district_code": 720113,
        "regency_code": 7201,
        "province_code": 72,
        "name": "Mantan B",
        "postal_code": "94754",
        "latitude": -0.9611996559693452,
        "longitude": 122.1744587486238
    },
    {
        "code": 7201132005,
        "district_code": 720113,
        "regency_code": 7201,
        "province_code": 72,
        "name": "Tomeang",
        "postal_code": "94754",
        "latitude": -0.9438548926387736,
        "longitude": 122.14788363711307
    },
    {
        "code": 7201132006,
        "district_code": 720113,
        "regency_code": 7201,
        "province_code": 72,
        "name": "Pakowa Bunta",
        "postal_code": "94754",
        "latitude": -0.931541464288551,
        "longitude": 122.15694605925661
    },
    {
        "code": 7201132007,
        "district_code": 720113,
        "regency_code": 7201,
        "province_code": 72,
        "name": "Pibombo",
        "postal_code": "94754",
        "latitude": -0.9449842311482031,
        "longitude": 122.18099918720188
    },
    {
        "code": 7201132008,
        "district_code": 720113,
        "regency_code": 7201,
        "province_code": 72,
        "name": "Bolobungkang",
        "postal_code": "94754",
        "latitude": -0.9218834864711758,
        "longitude": 122.16864172732193
    },
    {
        "code": 7201132009,
        "district_code": 720113,
        "regency_code": 7201,
        "province_code": 72,
        "name": "Petak",
        "postal_code": "94754",
        "latitude": -0.912158396963802,
        "longitude": 122.15643072990117
    },
    {
        "code": 7201132010,
        "district_code": 720113,
        "regency_code": 7201,
        "province_code": 72,
        "name": "Bella",
        "postal_code": "94754",
        "latitude": -0.8962459192994825,
        "longitude": 122.15877166609255
    },
    {
        "code": 7201132011,
        "district_code": 720113,
        "regency_code": 7201,
        "province_code": 72,
        "name": "Binohu",
        "postal_code": "94754",
        "latitude": -0.9107419489850603,
        "longitude": 122.18571703359775
    },
    {
        "code": 7201132012,
        "district_code": 720113,
        "regency_code": 7201,
        "province_code": 72,
        "name": "Damai Makmur",
        "postal_code": "94754",
        "latitude": -1.0034043604514749,
        "longitude": 122.14740194577521
    },
    {
        "code": 7201132013,
        "district_code": 720113,
        "regency_code": 7201,
        "province_code": 72,
        "name": "Jaya Makmur",
        "postal_code": "94754",
        "latitude": -1.019043159241712,
        "longitude": 122.23415809669274
    },
    {
        "code": 7201132014,
        "district_code": 720113,
        "regency_code": 7201,
        "province_code": 72,
        "name": "Saiti",
        "postal_code": "94754",
        "latitude": -0.9285314474102718,
        "longitude": 122.21235199437606
    },
    {
        "code": 7201132015,
        "district_code": 720113,
        "regency_code": 7201,
        "province_code": 72,
        "name": "Sumber Agung",
        "postal_code": "94754",
        "latitude": -1.0462532535967943,
        "longitude": 122.20442223841842
    },
    {
        "code": 7201132016,
        "district_code": 720113,
        "regency_code": 7201,
        "province_code": 72,
        "name": "Batu Hitam",
        "postal_code": "94754",
        "latitude": -1.1217857708985277,
        "longitude": 122.02375476927581
    },
    {
        "code": 7201132017,
        "district_code": 720113,
        "regency_code": 7201,
        "province_code": 72,
        "name": "Kabua Bua",
        "postal_code": "94754",
        "latitude": -1.0776682217319908,
        "longitude": 122.17637451548096
    },
    {
        "code": 7201132018,
        "district_code": 720113,
        "regency_code": 7201,
        "province_code": 72,
        "name": "Pulo Dalagan",
        "postal_code": "94754",
        "latitude": -1.0667463176254273,
        "longitude": 122.11684996449031
    },
    {
        "code": 7201132019,
        "district_code": 720113,
        "regency_code": 7201,
        "province_code": 72,
        "name": "Obo Balingara",
        "postal_code": "94754",
        "latitude": -1.0587361645590891,
        "longitude": 121.91235896943206
    },
    {
        "code": 7201132020,
        "district_code": 720113,
        "regency_code": 7201,
        "province_code": 72,
        "name": "Tetesulu",
        "postal_code": "94754",
        "latitude": -0.9315875003995809,
        "longitude": 122.1872653456181
    },
    {
        "code": 7201142001,
        "district_code": 720114,
        "regency_code": 7201,
        "province_code": 72,
        "name": "Saluan",
        "postal_code": "94765",
        "latitude": -1.4615810316766062,
        "longitude": 122.39353968802433
    },
    {
        "code": 7201142002,
        "district_code": 720114,
        "regency_code": 7201,
        "province_code": 72,
        "name": "Toili",
        "postal_code": "94765",
        "latitude": -1.2395700297705123,
        "longitude": 122.25845677541446
    },
    {
        "code": 7201142003,
        "district_code": 720114,
        "regency_code": 7201,
        "province_code": 72,
        "name": "Selamet Raharjo",
        "postal_code": "94765",
        "latitude": -1.4291919721961008,
        "longitude": 122.3936940002684
    },
    {
        "code": 7201142004,
        "district_code": 720114,
        "regency_code": 7201,
        "province_code": 72,
        "name": "Mulyoharjo",
        "postal_code": "94765",
        "latitude": -1.4219619705092283,
        "longitude": 122.38041978783967
    },
    {
        "code": 7201142005,
        "district_code": 720114,
        "regency_code": 7201,
        "province_code": 72,
        "name": "Sidoharjo",
        "postal_code": "94765",
        "latitude": -1.4458505265786075,
        "longitude": 122.3748403638401
    },
    {
        "code": 7201142006,
        "district_code": 720114,
        "regency_code": 7201,
        "province_code": 72,
        "name": "Bumi Harjo",
        "postal_code": "94765",
        "latitude": -1.4543015911509123,
        "longitude": 122.37450168942192
    },
    {
        "code": 7201142007,
        "district_code": 720114,
        "regency_code": 7201,
        "province_code": 72,
        "name": "Minakarya",
        "postal_code": "94765",
        "latitude": -1.463115688981478,
        "longitude": 122.37043446465225
    },
    {
        "code": 7201142008,
        "district_code": 720114,
        "regency_code": 7201,
        "province_code": 72,
        "name": "Minahaki",
        "postal_code": "94765",
        "latitude": -1.4869393949626164,
        "longitude": 122.38023712171956
    },
    {
        "code": 7201142009,
        "district_code": 720114,
        "regency_code": 7201,
        "province_code": 72,
        "name": "Arga Kencana",
        "postal_code": "94765",
        "latitude": -1.3942698862737242,
        "longitude": 122.36076551364056
    },
    {
        "code": 7201142010,
        "district_code": 720114,
        "regency_code": 7201,
        "province_code": 72,
        "name": "Moilong",
        "postal_code": "94765",
        "latitude": -1.4310245951738074,
        "longitude": 122.41843297542667
    },
    {
        "code": 7201142011,
        "district_code": 720114,
        "regency_code": 7201,
        "province_code": 72,
        "name": "Karang Anyar",
        "postal_code": "94765",
        "latitude": -1.4399807293560234,
        "longitude": 122.38184009691003
    },
    {
        "code": 7201142012,
        "district_code": 720114,
        "regency_code": 7201,
        "province_code": 72,
        "name": "Sumber Harjo",
        "postal_code": "94765",
        "latitude": -1.43293154592742,
        "longitude": 122.40308349839457
    },
    {
        "code": 7201142013,
        "district_code": 720114,
        "regency_code": 7201,
        "province_code": 72,
        "name": "Karya Jaya",
        "postal_code": "94765",
        "latitude": -1.446771574539634,
        "longitude": 122.36402587194954
    },
    {
        "code": 7201142014,
        "district_code": 720114,
        "regency_code": 7201,
        "province_code": 72,
        "name": "Tou",
        "postal_code": "94765",
        "latitude": -1.4712510808173247,
        "longitude": 122.40279426757925
    },
    {
        "code": 7201142015,
        "district_code": 720114,
        "regency_code": 7201,
        "province_code": 72,
        "name": "Argo Mulyo",
        "postal_code": "94765",
        "latitude": -1.412927333810252,
        "longitude": 122.36136421584911
    },
    {
        "code": 7201142016,
        "district_code": 720114,
        "regency_code": 7201,
        "province_code": 72,
        "name": "Sido Makmur",
        "postal_code": "94765",
        "latitude": -1.4065602038998402,
        "longitude": 122.38275974398576
    },
    {
        "code": 7201152001,
        "district_code": 720115,
        "regency_code": 7201,
        "province_code": 72,
        "name": "Maasing",
        "postal_code": "94763",
        "latitude": -1.3381319265451335,
        "longitude": 122.4687100620505
    },
    {
        "code": 7201152002,
        "district_code": 720115,
        "regency_code": 7201,
        "province_code": 72,
        "name": "Gori-Gori",
        "postal_code": "94763",
        "latitude": -1.376812350502197,
        "longitude": 122.43117328601596
    },
    {
        "code": 7201152003,
        "district_code": 720115,
        "regency_code": 7201,
        "province_code": 72,
        "name": "Sinorang",
        "postal_code": "94763",
        "latitude": -1.2991390488517356,
        "longitude": 122.35219288794731
    },
    {
        "code": 7201152004,
        "district_code": 720115,
        "regency_code": 7201,
        "province_code": 72,
        "name": "Sukamaju",
        "postal_code": "94763",
        "latitude": -1.3124427760218325,
        "longitude": 122.40743445367922
    },
    {
        "code": 7201152005,
        "district_code": 720115,
        "regency_code": 7201,
        "province_code": 72,
        "name": "Sukamaju Satu",
        "postal_code": "94763",
        "latitude": -1.323273131571218,
        "longitude": 122.42487180710886
    },
    {
        "code": 7201152006,
        "district_code": 720115,
        "regency_code": 7201,
        "province_code": 72,
        "name": "Paisu Buloli",
        "postal_code": "94763",
        "latitude": -1.378069417968227,
        "longitude": 122.47399128562446
    },
    {
        "code": 7201152007,
        "district_code": 720115,
        "regency_code": 7201,
        "province_code": 72,
        "name": "Ombolu",
        "postal_code": "94763",
        "latitude": -1.3157358062301967,
        "longitude": 122.38750919342634
    },
    {
        "code": 7201152008,
        "district_code": 720115,
        "regency_code": 7201,
        "province_code": 72,
        "name": "Bonebalantak",
        "postal_code": "94763",
        "latitude": -1.3543512498662567,
        "longitude": 122.4446439989402
    },
    {
        "code": 7201152009,
        "district_code": 720115,
        "regency_code": 7201,
        "province_code": 72,
        "name": "Masungkang",
        "postal_code": "94763",
        "latitude": -1.2614562190412426,
        "longitude": 122.41346215323465
    },
    {
        "code": 7201152010,
        "district_code": 720115,
        "regency_code": 7201,
        "province_code": 72,
        "name": "Maleo Jaya",
        "postal_code": "94763",
        "latitude": -1.2854908157853637,
        "longitude": 122.3952771725674
    },
    {
        "code": 7201162001,
        "district_code": 720116,
        "regency_code": 7201,
        "province_code": 72,
        "name": "Lobu",
        "postal_code": "94750",
        "latitude": -0.773677542499393,
        "longitude": 122.50738845513999
    },
    {
        "code": 7201162002,
        "district_code": 720116,
        "regency_code": 7201,
        "province_code": 72,
        "name": "Bolobungkang",
        "postal_code": "94750",
        "latitude": -0.7869570456857888,
        "longitude": 122.52108142130399
    },
    {
        "code": 7201162003,
        "district_code": 720116,
        "regency_code": 7201,
        "province_code": 72,
        "name": "Niubulan",
        "postal_code": "94750",
        "latitude": -0.783589756500953,
        "longitude": 122.50468570712411
    },
    {
        "code": 7201162004,
        "district_code": 720116,
        "regency_code": 7201,
        "province_code": 72,
        "name": "Kadodi",
        "postal_code": "94750",
        "latitude": -0.7878734714503427,
        "longitude": 122.50360062534777
    },
    {
        "code": 7201162005,
        "district_code": 720116,
        "regency_code": 7201,
        "province_code": 72,
        "name": "Uha Uhangon",
        "postal_code": "94750",
        "latitude": -0.7964346593576889,
        "longitude": 122.49944058863917
    },
    {
        "code": 7201162006,
        "district_code": 720116,
        "regency_code": 7201,
        "province_code": 72,
        "name": "Bahingin",
        "postal_code": "94750",
        "latitude": -0.8223065438799916,
        "longitude": 122.48665317486268
    },
    {
        "code": 7201162007,
        "district_code": 720116,
        "regency_code": 7201,
        "province_code": 72,
        "name": "Uwe Daka-Daka",
        "postal_code": "94750",
        "latitude": -0.8104762246502099,
        "longitude": 122.54834934273464
    },
    {
        "code": 7201162008,
        "district_code": 720116,
        "regency_code": 7201,
        "province_code": 72,
        "name": "Balean",
        "postal_code": "94750",
        "latitude": -0.7912610770054139,
        "longitude": 122.48448297826842
    },
    {
        "code": 7201162009,
        "district_code": 720116,
        "regency_code": 7201,
        "province_code": 72,
        "name": "Dolom",
        "postal_code": "94750",
        "latitude": -0.8375306506196213,
        "longitude": 122.5184412174006
    },
    {
        "code": 7201162010,
        "district_code": 720116,
        "regency_code": 7201,
        "province_code": 72,
        "name": "Lambuli",
        "postal_code": "94750",
        "latitude": -0.8112961628051593,
        "longitude": 122.52331478913034
    },
    {
        "code": 7201172001,
        "district_code": 720117,
        "regency_code": 7201,
        "province_code": 72,
        "name": "Beringin Jaya",
        "postal_code": "94755",
        "latitude": -0.8755365475751918,
        "longitude": 122.2179960382127
    },
    {
        "code": 7201172002,
        "district_code": 720117,
        "regency_code": 7201,
        "province_code": 72,
        "name": "Rantau Jaya",
        "postal_code": "94755",
        "latitude": -0.9010542093272544,
        "longitude": 122.240603603079
    },
    {
        "code": 7201172003,
        "district_code": 720117,
        "regency_code": 7201,
        "province_code": 72,
        "name": "Koninis",
        "postal_code": "94755",
        "latitude": -0.8567395047608896,
        "longitude": 122.25880689494925
    },
    {
        "code": 7201172004,
        "district_code": 720117,
        "regency_code": 7201,
        "province_code": 72,
        "name": "Gonohop",
        "postal_code": "94755",
        "latitude": -0.8882258322848029,
        "longitude": 122.26989231181115
    },
    {
        "code": 7201172005,
        "district_code": 720117,
        "regency_code": 7201,
        "province_code": 72,
        "name": "Sumber Mulia",
        "postal_code": "94755",
        "latitude": -0.9456389768184286,
        "longitude": 122.24388693524544
    },
    {
        "code": 7201172006,
        "district_code": 720117,
        "regency_code": 7201,
        "province_code": 72,
        "name": "Doda Bunta",
        "postal_code": "94755",
        "latitude": -0.9171703157608604,
        "longitude": 122.29555541812647
    },
    {
        "code": 7201172007,
        "district_code": 720117,
        "regency_code": 7201,
        "province_code": 72,
        "name": "Simpang Satu",
        "postal_code": "94755",
        "latitude": -0.9134098765501903,
        "longitude": 122.22846357568011
    },
    {
        "code": 7201172008,
        "district_code": 720117,
        "regency_code": 7201,
        "province_code": 72,
        "name": "Simpang Dua",
        "postal_code": "94755",
        "latitude": -0.9247536379175261,
        "longitude": 122.24152350523504
    },
    {
        "code": 7201172009,
        "district_code": 720117,
        "regency_code": 7201,
        "province_code": 72,
        "name": "Dowiwi",
        "postal_code": "94755",
        "latitude": -0.921478846446668,
        "longitude": 122.2272954987416
    },
    {
        "code": 7201172010,
        "district_code": 720117,
        "regency_code": 7201,
        "province_code": 72,
        "name": "Mantan A",
        "postal_code": "94755",
        "latitude": -0.9515186313377973,
        "longitude": 122.24514569882537
    },
    {
        "code": 7201172011,
        "district_code": 720117,
        "regency_code": 7201,
        "province_code": 72,
        "name": "Dwipa Karya",
        "postal_code": "94755",
        "latitude": -0.9169411537826555,
        "longitude": 122.2634248487813
    },
    {
        "code": 7201172012,
        "district_code": 720117,
        "regency_code": 7201,
        "province_code": 72,
        "name": "Lokait",
        "postal_code": "94755",
        "latitude": -1.0124067400281078,
        "longitude": 122.30133910190555
    },
    {
        "code": 7201182001,
        "district_code": 720118,
        "regency_code": 7201,
        "province_code": 72,
        "name": "Tombos",
        "postal_code": "94774",
        "latitude": -0.9551428138569482,
        "longitude": 123.37061554404247
    },
    {
        "code": 7201182002,
        "district_code": 720118,
        "regency_code": 7201,
        "province_code": 72,
        "name": "Dondo",
        "postal_code": "94774",
        "latitude": -0.9281526390448457,
        "longitude": 123.3583545285643
    },
    {
        "code": 7201182003,
        "district_code": 720118,
        "regency_code": 7201,
        "province_code": 72,
        "name": "Sepe",
        "postal_code": "94774",
        "latitude": -0.9396004837442204,
        "longitude": 123.36234924545143
    },
    {
        "code": 7201182004,
        "district_code": 720118,
        "regency_code": 7201,
        "province_code": 72,
        "name": "Booy",
        "postal_code": "94774",
        "latitude": -0.9504643610765033,
        "longitude": 123.33659862375374
    },
    {
        "code": 7201182005,
        "district_code": 720118,
        "regency_code": 7201,
        "province_code": 72,
        "name": "Tintingon",
        "postal_code": "94774",
        "latitude": -0.9207095044234122,
        "longitude": 123.31432002949319
    },
    {
        "code": 7201182006,
        "district_code": 720118,
        "regency_code": 7201,
        "province_code": 72,
        "name": "Resarna",
        "postal_code": "94774",
        "latitude": -0.9212075466694613,
        "longitude": 123.37532064476203
    },
    {
        "code": 7201182007,
        "district_code": 720118,
        "regency_code": 7201,
        "province_code": 72,
        "name": "Giwang",
        "postal_code": "94774",
        "latitude": -0.9159464239220726,
        "longitude": 123.38401901231897
    },
    {
        "code": 7201182008,
        "district_code": 720118,
        "regency_code": 7201,
        "province_code": 72,
        "name": "Tongke",
        "postal_code": "94774",
        "latitude": -0.9129114914095304,
        "longitude": 123.36517994548413
    },
    {
        "code": 7201182009,
        "district_code": 720118,
        "regency_code": 7201,
        "province_code": 72,
        "name": "Gorontalo",
        "postal_code": "94774",
        "latitude": -0.9050510479377051,
        "longitude": 123.38780147551486
    },
    {
        "code": 7201182010,
        "district_code": 720118,
        "regency_code": 7201,
        "province_code": 72,
        "name": "Poyang",
        "postal_code": "94774",
        "latitude": -0.9028667612538552,
        "longitude": 123.36730499972276
    },
    {
        "code": 7201182011,
        "district_code": 720118,
        "regency_code": 7201,
        "province_code": 72,
        "name": "Tanggawas",
        "postal_code": "94774",
        "latitude": -0.8977884311697747,
        "longitude": 123.37619171352145
    },
    {
        "code": 7201192001,
        "district_code": 720119,
        "regency_code": 7201,
        "province_code": 72,
        "name": "Kampangar",
        "postal_code": "94775",
        "latitude": -0.8117220032125023,
        "longitude": 123.36622935712558
    },
    {
        "code": 7201192002,
        "district_code": 720119,
        "regency_code": 7201,
        "province_code": 72,
        "name": "Kuntang",
        "postal_code": "94775",
        "latitude": -0.8128160644283603,
        "longitude": 123.42590021140408
    },
    {
        "code": 7201192003,
        "district_code": 720119,
        "regency_code": 7201,
        "province_code": 72,
        "name": "Pulau Dua",
        "postal_code": "94775",
        "latitude": -0.799298731220561,
        "longitude": 123.43171579600877
    },
    {
        "code": 7201192004,
        "district_code": 720119,
        "regency_code": 7201,
        "province_code": 72,
        "name": "Teku",
        "postal_code": "94775",
        "latitude": -0.7867678388898721,
        "longitude": 123.35341254662569
    },
    {
        "code": 7201192005,
        "district_code": 720119,
        "regency_code": 7201,
        "province_code": 72,
        "name": "Ondoliang",
        "postal_code": "94775",
        "latitude": -0.7466647761736497,
        "longitude": 123.34470029178644
    },
    {
        "code": 7201192006,
        "district_code": 720119,
        "regency_code": 7201,
        "province_code": 72,
        "name": "Batu Simpang",
        "postal_code": "94775",
        "latitude": -0.7129174973671992,
        "longitude": 123.34006462364991
    },
    {
        "code": 7201192007,
        "district_code": 720119,
        "regency_code": 7201,
        "province_code": 72,
        "name": "Batu Mandi",
        "postal_code": "94775",
        "latitude": -0.7292587044858173,
        "longitude": 123.40108992428122
    },
    {
        "code": 7201192008,
        "district_code": 720119,
        "regency_code": 7201,
        "province_code": 72,
        "name": "Pangkalaseang",
        "postal_code": "94775",
        "latitude": -0.67270868337827,
        "longitude": 123.35428940986247
    },
    {
        "code": 7201192009,
        "district_code": 720119,
        "regency_code": 7201,
        "province_code": 72,
        "name": "Pangkalaseang Baru",
        "postal_code": "94775",
        "latitude": -0.6873289123825563,
        "longitude": 123.35035841868044
    },
    {
        "code": 7201192010,
        "district_code": 720119,
        "regency_code": 7201,
        "province_code": 72,
        "name": "Toweer",
        "postal_code": "94775",
        "latitude": -0.7662456715988675,
        "longitude": 123.35694481173415
    },
    {
        "code": 7201201002,
        "district_code": 720120,
        "regency_code": 7201,
        "province_code": 72,
        "name": "Simpong",
        "postal_code": "94717",
        "latitude": -0.9648784912090466,
        "longitude": 122.78881536405683
    },
    {
        "code": 7201201003,
        "district_code": 720120,
        "regency_code": 7201,
        "province_code": 72,
        "name": "Hanga Hanga",
        "postal_code": "94717",
        "latitude": -0.9382036671459206,
        "longitude": 122.73025922849004
    },
    {
        "code": 7201201004,
        "district_code": 720120,
        "regency_code": 7201,
        "province_code": 72,
        "name": "Jole",
        "postal_code": "94717",
        "latitude": -0.9615270612810475,
        "longitude": 122.79092035996403
    },
    {
        "code": 7201201005,
        "district_code": 720120,
        "regency_code": 7201,
        "province_code": 72,
        "name": "Hanga-Hanga Permai",
        "postal_code": "94717",
        "latitude": -0.9661027828272777,
        "longitude": 122.77852150920539
    },
    {
        "code": 7201201006,
        "district_code": 720120,
        "regency_code": 7201,
        "province_code": 72,
        "name": "Kompo",
        "postal_code": "94717",
        "latitude": -0.9684622619211977,
        "longitude": 122.7855198601122
    },
    {
        "code": 7201201007,
        "district_code": 720120,
        "regency_code": 7201,
        "province_code": 72,
        "name": "Bukit Mambual",
        "postal_code": "94717",
        "latitude": -0.9750153846448122,
        "longitude": 122.76086857134926
    },
    {
        "code": 7201201008,
        "district_code": 720120,
        "regency_code": 7201,
        "province_code": 72,
        "name": "Tombang Permai",
        "postal_code": "94717",
        "latitude": -0.9930012335569011,
        "longitude": 122.78929197191647
    },
    {
        "code": 7201201009,
        "district_code": 720120,
        "regency_code": 7201,
        "province_code": 72,
        "name": "Maahas",
        "postal_code": "94717",
        "latitude": -0.9720543804535186,
        "longitude": 122.7257694963771
    },
    {
        "code": 7201201010,
        "district_code": 720120,
        "regency_code": 7201,
        "province_code": 72,
        "name": "Tanjung Tuwis",
        "postal_code": "94717",
        "latitude": -1.004323999817392,
        "longitude": 122.78965874055145
    },
    {
        "code": 7201202001,
        "district_code": 720120,
        "regency_code": 7201,
        "province_code": 72,
        "name": "Bubung",
        "postal_code": "94717",
        "latitude": -1.0082275130406941,
        "longitude": 122.73756707511738
    },
    {
        "code": 7201211010,
        "district_code": 720121,
        "regency_code": 7201,
        "province_code": 72,
        "name": "Kilongan",
        "postal_code": "94711",
        "latitude": -0.9265576152379001,
        "longitude": 122.8305465524958
    },
    {
        "code": 7201211011,
        "district_code": 720121,
        "regency_code": 7201,
        "province_code": 72,
        "name": "Kilongan Permai",
        "postal_code": "94711",
        "latitude": -0.8826653771402029,
        "longitude": 122.81427591011914
    },
    {
        "code": 7201212001,
        "district_code": 720121,
        "regency_code": 7201,
        "province_code": 72,
        "name": "Biak",
        "postal_code": "94711",
        "latitude": -0.9104911416948415,
        "longitude": 122.87914494623648
    },
    {
        "code": 7201212002,
        "district_code": 720121,
        "regency_code": 7201,
        "province_code": 72,
        "name": "Bunga",
        "postal_code": "94711",
        "latitude": -0.9030356798604153,
        "longitude": 122.91007279116197
    },
    {
        "code": 7201212003,
        "district_code": 720121,
        "regency_code": 7201,
        "province_code": 72,
        "name": "Kamumu",
        "postal_code": "94711",
        "latitude": -0.8543884600774952,
        "longitude": 122.89269045322368
    },
    {
        "code": 7201212004,
        "district_code": 720121,
        "regency_code": 7201,
        "province_code": 72,
        "name": "Salodik",
        "postal_code": "94711",
        "latitude": -0.8183416806530492,
        "longitude": 122.8718135666806
    },
    {
        "code": 7201212005,
        "district_code": 720121,
        "regency_code": 7201,
        "province_code": 72,
        "name": "Lenyek",
        "postal_code": "94711",
        "latitude": -0.7988122629119023,
        "longitude": 122.91130857062466
    },
    {
        "code": 7201212006,
        "district_code": 720121,
        "regency_code": 7201,
        "province_code": 72,
        "name": "Buon Mandiri",
        "postal_code": "94711",
        "latitude": -0.8851510294272331,
        "longitude": 122.93646652612122
    },
    {
        "code": 7201212007,
        "district_code": 720121,
        "regency_code": 7201,
        "province_code": 72,
        "name": "Boyou",
        "postal_code": "94711",
        "latitude": -0.8465752658395472,
        "longitude": 122.84535841578136
    },
    {
        "code": 7201212008,
        "district_code": 720121,
        "regency_code": 7201,
        "province_code": 72,
        "name": "Awu",
        "postal_code": "94711",
        "latitude": -0.8843058947632708,
        "longitude": 122.84635303803341
    },
    {
        "code": 7201212009,
        "district_code": 720121,
        "regency_code": 7201,
        "province_code": 72,
        "name": "Bumi Beringin",
        "postal_code": "94711",
        "latitude": -0.8829649424856766,
        "longitude": 122.83088670566018
    },
    {
        "code": 7201222001,
        "district_code": 720122,
        "regency_code": 7201,
        "province_code": 72,
        "name": "Pondan",
        "postal_code": "94770",
        "latitude": -0.9560792363947646,
        "longitude": 123.23572021982258
    },
    {
        "code": 7201222002,
        "district_code": 720122,
        "regency_code": 7201,
        "province_code": 72,
        "name": "Sobol",
        "postal_code": "94770",
        "latitude": -0.9551179621118322,
        "longitude": 123.26056394652211
    },
    {
        "code": 7201222003,
        "district_code": 720122,
        "regency_code": 7201,
        "province_code": 72,
        "name": "Sobol Baru",
        "postal_code": "94770",
        "latitude": -0.9788999040141718,
        "longitude": 123.2598156727104
    },
    {
        "code": 7201222004,
        "district_code": 720122,
        "regency_code": 7201,
        "province_code": 72,
        "name": "Binotik",
        "postal_code": "94770",
        "latitude": -0.9978694891065271,
        "longitude": 123.26642815052324
    },
    {
        "code": 7201222005,
        "district_code": 720122,
        "regency_code": 7201,
        "province_code": 72,
        "name": "Garuga",
        "postal_code": "94770",
        "latitude": -0.9548156334250277,
        "longitude": 123.29632451148666
    },
    {
        "code": 7201222006,
        "district_code": 720122,
        "regency_code": 7201,
        "province_code": 72,
        "name": "Bollo",
        "postal_code": "94770",
        "latitude": -1.032257480273601,
        "longitude": 123.28389638574917
    },
    {
        "code": 7201222007,
        "district_code": 720122,
        "regency_code": 7201,
        "province_code": 72,
        "name": "Sulubombong",
        "postal_code": "94770",
        "latitude": -1.0093527618143479,
        "longitude": 123.32779110520731
    },
    {
        "code": 7201222008,
        "district_code": 720122,
        "regency_code": 7201,
        "province_code": 72,
        "name": "Boras",
        "postal_code": "94770",
        "latitude": -0.9988735868115686,
        "longitude": 123.35195415462645
    },
    {
        "code": 7201222009,
        "district_code": 720122,
        "regency_code": 7201,
        "province_code": 72,
        "name": "Lonas",
        "postal_code": "94770",
        "latitude": -0.982672220185859,
        "longitude": 123.36539527841684
    },
    {
        "code": 7201222010,
        "district_code": 720122,
        "regency_code": 7201,
        "province_code": 72,
        "name": "Bombongan",
        "postal_code": "94770",
        "latitude": -0.9957251796727723,
        "longitude": 123.29597007957754
    },
    {
        "code": 7201231003,
        "district_code": 720123,
        "regency_code": 7201,
        "province_code": 72,
        "name": "Nambo Padang",
        "postal_code": "94760",
        "latitude": -1.0270550719985436,
        "longitude": 122.6649648283942
    },
    {
        "code": 7201231004,
        "district_code": 720123,
        "regency_code": 7201,
        "province_code": 72,
        "name": "Nambo Bosaa",
        "postal_code": "94760",
        "latitude": -1.018418659487,
        "longitude": 122.66446908534769
    },
    {
        "code": 7201231005,
        "district_code": 720123,
        "regency_code": 7201,
        "province_code": 72,
        "name": "Nambo Lempek",
        "postal_code": "94760",
        "latitude": -1.018035305106763,
        "longitude": 122.68165672694494
    },
    {
        "code": 7201231006,
        "district_code": 720123,
        "regency_code": 7201,
        "province_code": 72,
        "name": "Nambo Lempek Baru",
        "postal_code": "94760",
        "latitude": -1.0199553447807037,
        "longitude": 122.675090320209
    },
    {
        "code": 7201231007,
        "district_code": 720123,
        "regency_code": 7201,
        "province_code": 72,
        "name": "Lontio",
        "postal_code": "94760",
        "latitude": -1.0312591536775115,
        "longitude": 122.65256243233553
    },
    {
        "code": 7201231008,
        "district_code": 720123,
        "regency_code": 7201,
        "province_code": 72,
        "name": "Lontio Baru",
        "postal_code": "94760",
        "latitude": -1.0912316381674292,
        "longitude": 122.71260181434357
    },
    {
        "code": 7201232001,
        "district_code": 720123,
        "regency_code": 7201,
        "province_code": 72,
        "name": "Koyoan",
        "postal_code": "94760",
        "latitude": -0.9957284596794914,
        "longitude": 122.68956925668122
    },
    {
        "code": 7201232002,
        "district_code": 720123,
        "regency_code": 7201,
        "province_code": 72,
        "name": "Koyoan Permai",
        "postal_code": "94760",
        "latitude": -1.0153388542175408,
        "longitude": 122.68849586856535
    },
    {
        "code": 7201232009,
        "district_code": 720123,
        "regency_code": 7201,
        "province_code": 72,
        "name": "Padungnyo",
        "postal_code": "94760",
        "latitude": -1.0508179607728243,
        "longitude": 122.64176521930167
    },
    {
        "code": 7201232010,
        "district_code": 720123,
        "regency_code": 7201,
        "province_code": 72,
        "name": "Sayambongin",
        "postal_code": "94760",
        "latitude": -1.044443072143756,
        "longitude": 122.62323962268846
    },
    {
        "code": 7201232011,
        "district_code": 720123,
        "regency_code": 7201,
        "province_code": 72,
        "name": "Lumbe",
        "postal_code": "94760",
        "latitude": -1.0432790334808728,
        "longitude": 122.64589326239765
    },
    {
        "code": 7202011001,
        "district_code": 720201,
        "regency_code": 7202,
        "province_code": 72,
        "name": "Moengko Lama",
        "postal_code": "94618",
        "latitude": -1.4048965474054405,
        "longitude": 120.7240634548976
    },
    {
        "code": 7202011002,
        "district_code": 720201,
        "regency_code": 7202,
        "province_code": 72,
        "name": "Moengko Baru",
        "postal_code": "94618",
        "latitude": -1.3864500832021598,
        "longitude": 120.73720114855584
    },
    {
        "code": 7202011003,
        "district_code": 720201,
        "regency_code": 7202,
        "province_code": 72,
        "name": "Kayamanya",
        "postal_code": "94617",
        "latitude": -1.3956690252929254,
        "longitude": 120.73763193992849
    },
    {
        "code": 7202011007,
        "district_code": 720201,
        "regency_code": 7202,
        "province_code": 72,
        "name": "Gebangrejo",
        "postal_code": "94619",
        "latitude": -1.4044459717818798,
        "longitude": 120.74865952344003
    },
    {
        "code": 7202011016,
        "district_code": 720201,
        "regency_code": 7202,
        "province_code": 72,
        "name": "Gebangrejo Timur",
        "postal_code": "94619",
        "latitude": -1.3920956456464422,
        "longitude": 120.75698100560336
    },
    {
        "code": 7202011017,
        "district_code": 720201,
        "regency_code": 7202,
        "province_code": 72,
        "name": "Gebangrejo Barat",
        "postal_code": "94619",
        "latitude": -1.3963459786193082,
        "longitude": 120.74963904172539
    },
    {
        "code": 7202011018,
        "district_code": 720201,
        "regency_code": 7202,
        "province_code": 72,
        "name": "Kayamanya Sentral",
        "postal_code": "94617",
        "latitude": -1.4030979296403905,
        "longitude": 120.74024442735528
    },
    {
        "code": 7202021008,
        "district_code": 720202,
        "regency_code": 7202,
        "province_code": 72,
        "name": "Kasinguncu",
        "postal_code": "94652",
        "latitude": -1.4306836418538142,
        "longitude": 120.64295594055211
    },
    {
        "code": 7202021009,
        "district_code": 720202,
        "regency_code": 7202,
        "province_code": 72,
        "name": "Mapane",
        "postal_code": "94652",
        "latitude": -1.4129879856521304,
        "longitude": 120.66493909720809
    },
    {
        "code": 7202021031,
        "district_code": 720202,
        "regency_code": 7202,
        "province_code": 72,
        "name": "Tabalu",
        "postal_code": "94652",
        "latitude": -1.4451132794545487,
        "longitude": 120.6382494788612
    },
    {
        "code": 7202022007,
        "district_code": 720202,
        "regency_code": 7202,
        "province_code": 72,
        "name": "Betania",
        "postal_code": "94652",
        "latitude": -1.4366430111762594,
        "longitude": 120.67367048139042
    },
    {
        "code": 7202022010,
        "district_code": 720202,
        "regency_code": 7202,
        "province_code": 72,
        "name": "Toini",
        "postal_code": "94652",
        "latitude": -1.4305765715961254,
        "longitude": 120.69682976037788
    },
    {
        "code": 7202022012,
        "district_code": 720202,
        "regency_code": 7202,
        "province_code": 72,
        "name": "Bega",
        "postal_code": "94652",
        "latitude": -1.3944558580338196,
        "longitude": 120.66154203867117
    },
    {
        "code": 7202022013,
        "district_code": 720202,
        "regency_code": 7202,
        "province_code": 72,
        "name": "Masamba",
        "postal_code": "94652",
        "latitude": -1.4037339606848056,
        "longitude": 120.64218154400804
    },
    {
        "code": 7202022014,
        "district_code": 720202,
        "regency_code": 7202,
        "province_code": 72,
        "name": "Saatu",
        "postal_code": "94652",
        "latitude": -1.4129376168564098,
        "longitude": 120.54926611287739
    },
    {
        "code": 7202022015,
        "district_code": 720202,
        "regency_code": 7202,
        "province_code": 72,
        "name": "Pinedapa",
        "postal_code": "94652",
        "latitude": -1.3965060378556429,
        "longitude": 120.53926655438178
    },
    {
        "code": 7202022016,
        "district_code": 720202,
        "regency_code": 7202,
        "province_code": 72,
        "name": "Masani",
        "postal_code": "94652",
        "latitude": -1.377018031089227,
        "longitude": 120.62400150479297
    },
    {
        "code": 7202022017,
        "district_code": 720202,
        "regency_code": 7202,
        "province_code": 72,
        "name": "Tokorondo",
        "postal_code": "94652",
        "latitude": -1.366933229726207,
        "longitude": 120.53050927771285
    },
    {
        "code": 7202022018,
        "district_code": 720202,
        "regency_code": 7202,
        "province_code": 72,
        "name": "Tiwaa",
        "postal_code": "94652",
        "latitude": -1.3386865852326983,
        "longitude": 120.56040226911709
    },
    {
        "code": 7202022027,
        "district_code": 720202,
        "regency_code": 7202,
        "province_code": 72,
        "name": "Lanto Jaya",
        "postal_code": "94652",
        "latitude": -1.4169173993185933,
        "longitude": 120.7110247715443
    },
    {
        "code": 7202022028,
        "district_code": 720202,
        "regency_code": 7202,
        "province_code": 72,
        "name": "Lape",
        "postal_code": "94652",
        "latitude": -1.3644899334942637,
        "longitude": 120.62850854643197
    },
    {
        "code": 7202022029,
        "district_code": 720202,
        "regency_code": 7202,
        "province_code": 72,
        "name": "Towu",
        "postal_code": "94652",
        "latitude": -1.321369491210141,
        "longitude": 120.57266183461121
    },
    {
        "code": 7202022030,
        "district_code": 720202,
        "regency_code": 7202,
        "province_code": 72,
        "name": "Ueralulu",
        "postal_code": "94652",
        "latitude": -1.3572995822845226,
        "longitude": 120.60300843185779
    },
    {
        "code": 7202032001,
        "district_code": 720203,
        "regency_code": 7202,
        "province_code": 72,
        "name": "Tampemadoro",
        "postal_code": "94661",
        "latitude": -1.5783275410254654,
        "longitude": 120.74955827626532
    },
    {
        "code": 7202032002,
        "district_code": 720203,
        "regency_code": 7202,
        "province_code": 72,
        "name": "Pandiri",
        "postal_code": "94661",
        "latitude": -1.5327391667711625,
        "longitude": 120.74563533932951
    },
    {
        "code": 7202032003,
        "district_code": 720203,
        "regency_code": 7202,
        "province_code": 72,
        "name": "Watuawu",
        "postal_code": "94661",
        "latitude": -1.4860057659798391,
        "longitude": 120.76494224781678
    },
    {
        "code": 7202032004,
        "district_code": 720203,
        "regency_code": 7202,
        "province_code": 72,
        "name": "Tambaro",
        "postal_code": "94661",
        "latitude": -1.4680631336829233,
        "longitude": 120.75841035585837
    },