[
    {
        "code": 1601072001,
        "district_code": 160107,
        "regency_code": 1601,
        "province_code": 16,
        "name": "Negeri Sindang",
        "postal_code": "32151",
        "latitude": -4.192244652812185,
        "longitude": 104.0108420013917
    },
    {
        "code": 1601072002,
        "district_code": 160107,
        "regency_code": 1601,
        "province_code": 16,
        "name": "Rantau Kumpai",
        "postal_code": "32151",
        "latitude": -4.172437561175084,
        "longitude": 104.05785092710205
    },
    {
        "code": 1601072003,
        "district_code": 160107,
        "regency_code": 1601,
        "province_code": 16,
        "name": "Lubuk Baru",
        "postal_code": "32151",
        "latitude": -4.1741328721226685,
        "longitude": 104.09781832155008
    },
    {
        "code": 1601072004,
        "district_code": 160107,
        "regency_code": 1601,
        "province_code": 16,
        "name": "Kungkilan",
        "postal_code": "32151",
        "latitude": -4.256707814572323,
        "longitude": 104.09075610661353
    },
    {
        "code": 1601072005,
        "district_code": 160107,
        "regency_code": 1601,
        "province_code": 16,
        "name": "Penyandingan",
        "postal_code": "32151",
        "latitude": -4.215875744469784,
        "longitude": 104.08849193562172
    },
    {
        "code": 1601072006,
        "district_code": 160107,
        "regency_code": 1601,
        "province_code": 16,
        "name": "Bandar",
        "postal_code": "32151",
        "latitude": -4.199735307304417,
        "longitude": 104.1036076205524
    },
    {
        "code": 1601072007,
        "district_code": 160107,
        "regency_code": 1601,
        "province_code": 16,
        "name": "Lubuk Leban",
        "postal_code": "32151",
        "latitude": -4.186718608577137,
        "longitude": 104.17210999712881
    },
    {
        "code": 1601072008,
        "district_code": 160107,
        "regency_code": 1601,
        "province_code": 16,
        "name": "Tungku Jaya",
        "postal_code": "32151",
        "latitude": -4.143774934466701,
        "longitude": 104.07894963927154
    },
    {
        "code": 1601072009,
        "district_code": 160107,
        "regency_code": 1601,
        "province_code": 16,
        "name": "Mekar Sari",
        "postal_code": "32151",
        "latitude": -4.243422131070958,
        "longitude": 104.09232727853265
    },
    {
        "code": 1601072010,
        "district_code": 160107,
        "regency_code": 1601,
        "province_code": 16,
        "name": "Mekar Jaya",
        "postal_code": "32151",
        "latitude": -4.158500228346494,
        "longitude": 104.08418468012343
    },
    {
        "code": 1601072011,
        "district_code": 160107,
        "regency_code": 1601,
        "province_code": 16,
        "name": "Penantian",
        "postal_code": "32151",
        "latitude": -4.189992641909624,
        "longitude": 104.12555273329174
    },
    {
        "code": 1601082001,
        "district_code": 160108,
        "regency_code": 1601,
        "province_code": 16,
        "name": "Gunung Meraksa",
        "postal_code": "32154",
        "latitude": -4.061150781625311,
        "longitude": 103.80061226492104
    },
    {
        "code": 1601082003,
        "district_code": 160108,
        "regency_code": 1601,
        "province_code": 16,
        "name": "Tanjung Pura",
        "postal_code": "32154",
        "latitude": -4.050609688630842,
        "longitude": 103.81712767557373
    },
    {
        "code": 1601082004,
        "district_code": 160108,
        "regency_code": 1601,
        "province_code": 16,
        "name": "Tanjung Sari",
        "postal_code": "32154",
        "latitude": -4.0441763603134,
        "longitude": 103.8292888891403
    },
    {
        "code": 1601082005,
        "district_code": 160108,
        "regency_code": 1601,
        "province_code": 16,
        "name": "Tangsi Lontar",
        "postal_code": "32154",
        "latitude": -4.05762261805385,
        "longitude": 103.83663513927691
    },
    {
        "code": 1601082006,
        "district_code": 160108,
        "regency_code": 1601,
        "province_code": 16,
        "name": "Belambangan",
        "postal_code": "32154",
        "latitude": -4.048431323303543,
        "longitude": 103.84091051371381
    },
    {
        "code": 1601082007,
        "district_code": 160108,
        "regency_code": 1601,
        "province_code": 16,
        "name": "Kesambirata",
        "postal_code": "32154",
        "latitude": -4.04133927897108,
        "longitude": 103.84391615680953
    },
    {
        "code": 1601082008,
        "district_code": 160108,
        "regency_code": 1601,
        "province_code": 16,
        "name": "Gunung Liwat",
        "postal_code": "32154",
        "latitude": -4.035685773492506,
        "longitude": 103.84898446138942
    },
    {
        "code": 1601082015,
        "district_code": 160108,
        "regency_code": 1601,
        "province_code": 16,
        "name": "Pengandonan",
        "postal_code": "32154",
        "latitude": -4.153921617046875,
        "longitude": 103.94866292736569
    },
    {
        "code": 1601082016,
        "district_code": 160108,
        "regency_code": 1601,
        "province_code": 16,
        "name": "Semanding",
        "postal_code": "32154",
        "latitude": -4.032631511518798,
        "longitude": 103.85429009509541
    },
    {
        "code": 1601082017,
        "district_code": 160108,
        "regency_code": 1601,
        "province_code": 16,
        "name": "Tanjungan",
        "postal_code": "32154",
        "latitude": -4.035849485048842,
        "longitude": 103.8670525915126
    },
    {
        "code": 1601082018,
        "district_code": 160108,
        "regency_code": 1601,
        "province_code": 16,
        "name": "Ujanmas",
        "postal_code": "32154",
        "latitude": -4.117440407806735,
        "longitude": 103.95518785120458
    },
    {
        "code": 1601082019,
        "district_code": 160108,
        "regency_code": 1601,
        "province_code": 16,
        "name": "Gunung Kuripan",
        "postal_code": "32154",
        "latitude": -4.010067825013835,
        "longitude": 103.88323720831283
    },
    {
        "code": 1601092001,
        "district_code": 160109,
        "regency_code": 1601,
        "province_code": 16,
        "name": "Kepayang",
        "postal_code": "32191",
        "latitude": -4.011568354787313,
        "longitude": 104.28252026359846
    },
    {
        "code": 1601092002,
        "district_code": 160109,
        "regency_code": 1601,
        "province_code": 16,
        "name": "Kedondong",
        "postal_code": "32191",
        "latitude": -3.9866631814760756,
        "longitude": 104.29175092907886
    },
    {
        "code": 1601092003,
        "district_code": 160109,
        "regency_code": 1601,
        "province_code": 16,
        "name": "Belimbing",
        "postal_code": "32191",
        "latitude": -3.9835925229072964,
        "longitude": 104.30212928623604
    },
    {
        "code": 1601092004,
        "district_code": 160109,
        "regency_code": 1601,
        "province_code": 16,
        "name": "Durian",
        "postal_code": "32191",
        "latitude": -3.9677362507148106,
        "longitude": 104.32827056120426
    },
    {
        "code": 1601092006,
        "district_code": 160109,
        "regency_code": 1601,
        "province_code": 16,
        "name": "Lubuk Rukam",
        "postal_code": "32191",
        "latitude": -3.93229660162528,
        "longitude": 104.3178442534434
    },
    {
        "code": 1601092007,
        "district_code": 160109,
        "regency_code": 1601,
        "province_code": 16,
        "name": "Bindu",
        "postal_code": "32191",
        "latitude": -3.8987676252151684,
        "longitude": 104.32141406680506
    },
    {
        "code": 1601092009,
        "district_code": 160109,
        "regency_code": 1601,
        "province_code": 16,
        "name": "Mendala",
        "postal_code": "32191",
        "latitude": -3.8568108977257713,
        "longitude": 104.33283783969375
    },
    {
        "code": 1601092010,
        "district_code": 160109,
        "regency_code": 1601,
        "province_code": 16,
        "name": "Peninjauan",
        "postal_code": "32191",
        "latitude": -3.859166683592933,
        "longitude": 104.38415449642169
    },
    {
        "code": 1601092011,
        "district_code": 160109,
        "regency_code": 1601,
        "province_code": 16,
        "name": "Saung Naga",
        "postal_code": "32191",
        "latitude": -3.8380405742133505,
        "longitude": 104.40213100669307
    },
    {
        "code": 1601092022,
        "district_code": 160109,
        "regency_code": 1601,
        "province_code": 16,
        "name": "Makartitama",
        "postal_code": "32191",
        "latitude": -3.825743561201614,
        "longitude": 104.34630096878871
    },
    {
        "code": 1601092023,
        "district_code": 160109,
        "regency_code": 1601,
        "province_code": 16,
        "name": "Espetiga",
        "postal_code": "32191",
        "latitude": -3.9402201080108,
        "longitude": 104.31437834283435
    },
    {
        "code": 1601092024,
        "district_code": 160109,
        "regency_code": 1601,
        "province_code": 16,
        "name": "Makarti Jaya",
        "postal_code": "32191",
        "latitude": -3.79116505765222,
        "longitude": 104.30722945843695
    },
    {
        "code": 1601092025,
        "district_code": 160109,
        "regency_code": 1601,
        "province_code": 16,
        "name": "Mitra Kencana",
        "postal_code": "32191",
        "latitude": -3.7857892567925764,
        "longitude": 104.3600245431179
    },
    {
        "code": 1601092026,
        "district_code": 160109,
        "regency_code": 1601,
        "province_code": 16,
        "name": "Penilikan",
        "postal_code": "32191",
        "latitude": -3.8528439348486967,
        "longitude": 104.35674066504518
    },
    {
        "code": 1601092027,
        "district_code": 160109,
        "regency_code": 1601,
        "province_code": 16,
        "name": "Panji Jaya",
        "postal_code": "32191",
        "latitude": -3.80915246019791,
        "longitude": 104.2677102865651
    },
    {
        "code": 1601092028,
        "district_code": 160109,
        "regency_code": 1601,
        "province_code": 16,
        "name": "Karang Dapo",
        "postal_code": "32191",
        "latitude": -3.861709379387725,
        "longitude": 104.2933324184787
    },
    {
        "code": 1601131003,
        "district_code": 160113,
        "regency_code": 1601,
        "province_code": 16,
        "name": "Tanjungagung",
        "postal_code": "32123",
        "latitude": -4.129849680081606,
        "longitude": 104.15332976676872
    },
    {
        "code": 1601131004,
        "district_code": 160113,
        "regency_code": 1601,
        "province_code": 16,
        "name": "Saung Naga",
        "postal_code": "32124",
        "latitude": -4.132907979318193,
        "longitude": 104.15971691243871
    },
    {
        "code": 1601131005,
        "district_code": 160113,
        "regency_code": 1601,
        "province_code": 16,
        "name": "Talang Jawa",
        "postal_code": "32122",
        "latitude": -4.1244671095291805,
        "longitude": 104.15816593599276
    },
    {
        "code": 1601131007,
        "district_code": 160113,
        "regency_code": 1601,
        "province_code": 16,
        "name": "Batu Kuning",
        "postal_code": "32121",
        "latitude": -4.100530686051442,
        "longitude": 104.12636488514325
    },
    {
        "code": 1601131011,
        "district_code": 160113,
        "regency_code": 1601,
        "province_code": 16,
        "name": "Air Gading",
        "postal_code": "32121",
        "latitude": -4.119714603655885,
        "longitude": 104.16317035971419
    },
    {
        "code": 1601132001,
        "district_code": 160113,
        "regency_code": 1601,
        "province_code": 16,
        "name": "Batu Putih",
        "postal_code": "32121",
        "latitude": -4.1577472087173,
        "longitude": 104.12844825988562
    },
    {
        "code": 1601132002,
        "district_code": 160113,
        "regency_code": 1601,
        "province_code": 16,
        "name": "Laya",
        "postal_code": "32125",
        "latitude": -4.146414329986016,
        "longitude": 104.15687081446653
    },
    {
        "code": 1601132006,
        "district_code": 160113,
        "regency_code": 1601,
        "province_code": 16,
        "name": "Pusar",
        "postal_code": "32126",
        "latitude": -4.127144270908758,
        "longitude": 104.13947085766969
    },
    {
        "code": 1601132008,
        "district_code": 160113,
        "regency_code": 1601,
        "province_code": 16,
        "name": "Karang Agung",
        "postal_code": "32121",
        "latitude": -4.124526401200678,
        "longitude": 104.10357543730552
    },
    {
        "code": 1601132009,
        "district_code": 160113,
        "regency_code": 1601,
        "province_code": 16,
        "name": "Karang Endah",
        "postal_code": "32121",
        "latitude": -4.074824889214887,
        "longitude": 104.11733059938223
    },
    {
        "code": 1601132010,
        "district_code": 160113,
        "regency_code": 1601,
        "province_code": 16,
        "name": "Tanjung Karang",
        "postal_code": "32121",
        "latitude": -4.07088792395415,
        "longitude": 104.1071093510283
    },
    {
        "code": 1601132012,
        "district_code": 160113,
        "regency_code": 1601,
        "province_code": 16,
        "name": "Sukamaju",
        "postal_code": "32124",
        "latitude": -4.177375360481571,
        "longitude": 104.12983228338894
    },
    {
        "code": 1601141001,
        "district_code": 160114,
        "regency_code": 1601,
        "province_code": 16,
        "name": "Baturaja Lama",
        "postal_code": "32114",
        "latitude": -4.126583558247285,
        "longitude": 104.1686392642489
    },
    {
        "code": 1601141003,
        "district_code": 160114,
        "regency_code": 1601,
        "province_code": 16,
        "name": "Pasar Baru",
        "postal_code": "32116",
        "latitude": -4.128355500081945,
        "longitude": 104.16359841483167
    },
    {
        "code": 1601141004,
        "district_code": 160114,
        "regency_code": 1601,
        "province_code": 16,
        "name": "Kemalaraja ",
        "postal_code": "32111",
        "latitude": -4.112558848743337,
        "longitude": 104.17580905628267
    },
    {
        "code": 1601141005,
        "district_code": 160114,
        "regency_code": 1601,
        "province_code": 16,
        "name": "Sukaraya ",
        "postal_code": "32112",
        "latitude": -4.122389735252244,
        "longitude": 104.1788975480164
    },
    {
        "code": 1601141006,
        "district_code": 160114,
        "regency_code": 1601,
        "province_code": 16,
        "name": "Sukajadi ",
        "postal_code": "32117",
        "latitude": -4.108503265106063,
        "longitude": 104.16378116907116
    },
    {
        "code": 1601141011,
        "district_code": 160114,
        "regency_code": 1601,
        "province_code": 16,
        "name": "Kemelak Bindung Langit",
        "postal_code": "32111",
        "latitude": -4.159035248717335,
        "longitude": 104.19261232257173
    },
    {
        "code": 1601141012,
        "district_code": 160114,
        "regency_code": 1601,
        "province_code": 16,
        "name": "Sepancar Lawang Kulon",
        "postal_code": "32111",
        "latitude": -4.202760359140995,
        "longitude": 104.24074011035762
    },
    {
        "code": 1601141013,
        "district_code": 160114,
        "regency_code": 1601,
        "province_code": 16,
        "name": "Baturaja Permai",
        "postal_code": "32111",
        "latitude": -4.129641363425924,
        "longitude": 104.216005121796
    },
    {
        "code": 1601141014,
        "district_code": 160114,
        "regency_code": 1601,
        "province_code": 16,
        "name": "Sekar Jaya",
        "postal_code": "32115",
        "latitude": -4.115924343735329,
        "longitude": 104.20619098672769
    },
    {
        "code": 1601142007,
        "district_code": 160114,
        "regency_code": 1601,
        "province_code": 16,
        "name": "Tanjung Kemala",
        "postal_code": "32111",
        "latitude": -4.089694358431811,
        "longitude": 104.18648221251043
    },
    {
        "code": 1601142008,
        "district_code": 160114,
        "regency_code": 1601,
        "province_code": 16,
        "name": "Tanjung Baru",
        "postal_code": "32113",
        "latitude": -4.150200545572216,
        "longitude": 104.22464088133569
    },
    {
        "code": 1601142015,
        "district_code": 160114,
        "regency_code": 1601,
        "province_code": 16,
        "name": "Air Paoh",
        "postal_code": "32111",
        "latitude": -4.123361973451417,
        "longitude": 104.18996557120937
    },
    {
        "code": 1601142016,
        "district_code": 160114,
        "regency_code": 1601,
        "province_code": 16,
        "name": "Terusan",
        "postal_code": "32111",
        "latitude": -4.08719087305862,
        "longitude": 104.16753391461728
    },
    {
        "code": 1601202001,
        "district_code": 160120,
        "regency_code": 1601,
        "province_code": 16,
        "name": "Kelumpang",
        "postal_code": "32157",
        "latitude": -4.2483162305815485,
        "longitude": 103.67903995027537
    },
    {
        "code": 1601202002,
        "district_code": 160120,
        "regency_code": 1601,
        "province_code": 16,
        "name": "Gunung Tiga",
        "postal_code": "32157",
        "latitude": -4.21612881432299,
        "longitude": 103.66953441138885
    },
    {
        "code": 1601202003,
        "district_code": 160120,
        "regency_code": 1601,
        "province_code": 16,
        "name": "Mendingin",
        "postal_code": "32157",
        "latitude": -4.20257851010362,
        "longitude": 103.75523447471573
    },
    {
        "code": 1601202004,
        "district_code": 160120,
        "regency_code": 1601,
        "province_code": 16,
        "name": "Ulak Lebar",
        "postal_code": "32157",
        "latitude": -4.1745913322769015,
        "longitude": 103.71583169977693
    },
    {
        "code": 1601202005,
        "district_code": 160120,
        "regency_code": 1601,
        "province_code": 16,
        "name": "Pedataran",
        "postal_code": "32157",
        "latitude": -4.117768560228038,
        "longitude": 103.7378425019755
    },
    {
        "code": 1601202006,
        "district_code": 160120,
        "regency_code": 1601,
        "province_code": 16,
        "name": "Sukajadi",
        "postal_code": "32157",
        "latitude": -4.111751397433864,
        "longitude": 103.76344947046296
    },
    {
        "code": 1601202007,
        "district_code": 160120,
        "regency_code": 1601,
        "province_code": 16,
        "name": "Belandang",
        "postal_code": "32157",
        "latitude": -4.138043298417301,
        "longitude": 103.78174753097895
    },
    {
        "code": 1601212001,
        "district_code": 160121,
        "regency_code": 1601,
        "province_code": 16,
        "name": "Tanjung Kurung",
        "postal_code": "32156",
        "latitude": -3.997904929492987,
        "longitude": 103.90226459952494
    },
    {
        "code": 1601212002,
        "district_code": 160121,
        "regency_code": 1601,
        "province_code": 16,
        "name": "Sukarami",
        "postal_code": "32156",
        "latitude": -4.0599388124048525,
        "longitude": 103.91379810510088
    },
    {
        "code": 1601212003,
        "district_code": 160121,
        "regency_code": 1601,
        "province_code": 16,
        "name": "Batanghari",
        "postal_code": "32156",
        "latitude": -3.9643381937654487,
        "longitude": 103.9444817976836
    },
    {
        "code": 1601212004,
        "district_code": 160121,
        "regency_code": 1601,
        "province_code": 16,
        "name": "Nyiur Sayak",
        "postal_code": "32156",
        "latitude": -4.0649921760537815,
        "longitude": 103.91954105392118
    },
    {
        "code": 1601212005,
        "district_code": 160121,
        "regency_code": 1601,
        "province_code": 16,
        "name": "Suka Merindu",
        "postal_code": "32156",
        "latitude": -4.066273142573567,
        "longitude": 103.92938034600638
    },
    {
        "code": 1601212006,
        "district_code": 160121,
        "regency_code": 1601,
        "province_code": 16,
        "name": "Padang Bindu",
        "postal_code": "32156",
        "latitude": -4.082586862447979,
        "longitude": 103.9480712129
    },
    {
        "code": 1601212007,
        "district_code": 160121,
        "regency_code": 1601,
        "province_code": 16,
        "name": "Panggal Panggang",
        "postal_code": "32156",
        "latitude": -4.055282781009011,
        "longitude": 103.95489440821474
    },
    {
        "code": 1601212008,
        "district_code": 160121,
        "regency_code": 1601,
        "province_code": 16,
        "name": "Bedegung",
        "postal_code": "32156",
        "latitude": -4.089814695820375,
        "longitude": 103.97097579736551
    },
    {
        "code": 1601212009,
        "district_code": 160121,
        "regency_code": 1601,
        "province_code": 16,
        "name": "Ulak Pandan",
        "postal_code": "32156",
        "latitude": -4.04372429529496,
        "longitude": 103.9790080252398
    },
    {
        "code": 1601212010,
        "district_code": 160121,
        "regency_code": 1601,
        "province_code": 16,
        "name": "Keban Agung",
        "postal_code": "32156",
        "latitude": -4.084826467425658,
        "longitude": 103.99465129590313
    },
    {
        "code": 1601212011,
        "district_code": 160121,
        "regency_code": 1601,
        "province_code": 16,
        "name": "Tubohan",
        "postal_code": "32156",
        "latitude": -4.055631208526915,
        "longitude": 103.99962387890923
    },
    {
        "code": 1601212012,
        "district_code": 160121,
        "regency_code": 1601,
        "province_code": 16,
        "name": "Raksa Jiwa",
        "postal_code": "32156",
        "latitude": -4.037603536216201,
        "longitude": 104.0199005567127
    },
    {
        "code": 1601212013,
        "district_code": 160121,
        "regency_code": 1601,
        "province_code": 16,
        "name": "Seleman",
        "postal_code": "32156",
        "latitude": -4.062203800849527,
        "longitude": 104.04792387426421
    },
    {
        "code": 1601212014,
        "district_code": 160121,
        "regency_code": 1601,
        "province_code": 16,
        "name": "Kebun Jati",
        "postal_code": "32156",
        "latitude": -4.035266938908559,
        "longitude": 104.08264429385619
    },
    {
        "code": 1601212015,
        "district_code": 160121,
        "regency_code": 1601,
        "province_code": 16,
        "name": "Singapura",
        "postal_code": "32156",
        "latitude": -4.083764058260023,
        "longitude": 104.05860390295844
    },
    {
        "code": 1601212016,
        "district_code": 160121,
        "regency_code": 1601,
        "province_code": 16,
        "name": "Pengaringan",
        "postal_code": "32156",
        "latitude": -4.0586445746369035,
        "longitude": 104.09154472110806
    },
    {
        "code": 1601212017,
        "district_code": 160121,
        "regency_code": 1601,
        "province_code": 16,
        "name": "Banjarsari",
        "postal_code": "32156",
        "latitude": -4.097552471226077,
        "longitude": 104.0833395166087
    },
    {
        "code": 1601212018,
        "district_code": 160121,
        "regency_code": 1601,
        "province_code": 16,
        "name": "Pandan Dulang",
        "postal_code": "32156",
        "latitude": -4.0985438207097795,
        "longitude": 104.09297858506191
    },
    {
        "code": 1601212020,
        "district_code": 160121,
        "regency_code": 1601,
        "province_code": 16,
        "name": "Panai Makmur",
        "postal_code": "32156",
        "latitude": -4.111253267047996,
        "longitude": 104.06621043241375
    },
    {
        "code": 1601212021,
        "district_code": 160121,
        "regency_code": 1601,
        "province_code": 16,
        "name": "Guna Makmur",
        "postal_code": "32156",
        "latitude": -4.101187417289515,
        "longitude": 104.02718442299978
    },
    {
        "code": 1601212022,
        "district_code": 160121,
        "regency_code": 1601,
        "province_code": 16,
        "name": "Tebing Kampung",
        "postal_code": "32156",
        "latitude": -4.06343701607517,
        "longitude": 104.01333789975202
    },
    {
        "code": 1601222001,
        "district_code": 160122,
        "regency_code": 1601,
        "province_code": 16,
        "name": "Merbau",
        "postal_code": "32192",
        "latitude": -3.9633530834467257,
        "longitude": 104.0522304218539
    },
    {
        "code": 1601222002,
        "district_code": 160122,
        "regency_code": 1601,
        "province_code": 16,
        "name": "Gunung Meraksa",
        "postal_code": "32192",
        "latitude": -3.928699505969217,
        "longitude": 104.10481574269859
    },
    {
        "code": 1601222003,
        "district_code": 160122,
        "regency_code": 1601,
        "province_code": 16,
        "name": "Kurup",
        "postal_code": "32192",
        "latitude": -4.0376963231481495,
        "longitude": 104.16314635510835
    },
    {
        "code": 1601222004,
        "district_code": 160122,
        "regency_code": 1601,
        "province_code": 16,
        "name": "Banu Ayu",
        "postal_code": "32192",
        "latitude": -4.099115551564281,
        "longitude": 104.22575116731078
    },
    {
        "code": 1601222005,
        "district_code": 160122,
        "regency_code": 1601,
        "province_code": 16,
        "name": "Tanjung Dalam",
        "postal_code": "32192",
        "latitude": -4.0738831470639845,
        "longitude": 104.23079823954502
    },
    {
        "code": 1601222006,
        "district_code": 160122,
        "regency_code": 1601,
        "province_code": 16,
        "name": "Lubuk Batang Baru",
        "postal_code": "32192",
        "latitude": -4.0595848391231675,
        "longitude": 104.22487516298645
    },
    {
        "code": 1601222007,
        "district_code": 160122,
        "regency_code": 1601,
        "province_code": 16,
        "name": "Lubuk Batang Lama",
        "postal_code": "32192",
        "latitude": -4.041452617851853,
        "longitude": 104.22781933979857
    },
    {
        "code": 1601222008,
        "district_code": 160122,
        "regency_code": 1601,
        "province_code": 16,
        "name": "Belatung",
        "postal_code": "32192",
        "latitude": -4.027293447123125,
        "longitude": 104.24104045274697
    },
    {
        "code": 1601222009,
        "district_code": 160122,
        "regency_code": 1601,
        "province_code": 16,
        "name": "Karta Mulya",
        "postal_code": "32192",
        "latitude": -4.017568961702535,
        "longitude": 104.26002559351245
    },
    {
        "code": 1601222010,
        "district_code": 160122,
        "regency_code": 1601,
        "province_code": 16,
        "name": "Lunggaian",
        "postal_code": "32192",
        "latitude": -3.9184593186478427,
        "longitude": 104.22564846446126
    },
    {
        "code": 1601222011,
        "district_code": 160122,
        "regency_code": 1601,
        "province_code": 16,
        "name": "Bandar Agung",
        "postal_code": "32192",
        "latitude": -3.9721617356134344,
        "longitude": 104.16851436703377
    },
    {
        "code": 1601222012,
        "district_code": 160122,
        "regency_code": 1601,
        "province_code": 16,
        "name": "Tanjung Manggus",
        "postal_code": "32192",
        "latitude": -3.8543261828816036,
        "longitude": 104.22490454163582
    },
    {
        "code": 1601222015,
        "district_code": 160122,
        "regency_code": 1601,
        "province_code": 16,
        "name": "Markisa",
        "postal_code": "32192",
        "latitude": -3.9994139120537984,
        "longitude": 104.26115172300862
    },
    {
        "code": 1601222016,
        "district_code": 160122,
        "regency_code": 1601,
        "province_code": 16,
        "name": "Air Wall",
        "postal_code": "32192",
        "latitude": -3.9640884038448525,
        "longitude": 104.2767859191209
    },
    {
        "code": 1601222017,
        "district_code": 160122,
        "regency_code": 1601,
        "province_code": 16,
        "name": "Sumber Bahagia",
        "postal_code": "32192",
        "latitude": -3.9599918432867094,
        "longitude": 104.09350447042894
    },
    {
        "code": 1601282001,
        "district_code": 160128,
        "regency_code": 1601,
        "province_code": 16,
        "name": "Bandar Jaya",
        "postal_code": "32158",
        "latitude": -4.3827835406959945,
        "longitude": 104.1794508417792
    },
    {
        "code": 1601282002,
        "district_code": 160128,
        "regency_code": 1601,
        "province_code": 16,
        "name": "Karang Endah",
        "postal_code": "32158",
        "latitude": -4.384517575336963,
        "longitude": 104.10340259182392
    },
    {
        "code": 1601282003,
        "district_code": 160128,
        "regency_code": 1601,
        "province_code": 16,
        "name": "Pajar Bulan",
        "postal_code": "32158",
        "latitude": -4.3132217743200805,
        "longitude": 104.17525616868731
    },
    {
        "code": 1601282004,
        "district_code": 160128,
        "regency_code": 1601,
        "province_code": 16,
        "name": "Pagar Dewa",
        "postal_code": "32158",
        "latitude": -4.25823101145709,
        "longitude": 104.15902496377292
    },
    {
        "code": 1601282005,
        "district_code": 160128,
        "regency_code": 1601,
        "province_code": 16,
        "name": "Bumi Kawa",
        "postal_code": "32158",
        "latitude": -4.392976728355466,
        "longitude": 104.0067300339545
    },
    {
        "code": 1601282006,
        "district_code": 160128,
        "regency_code": 1601,
        "province_code": 16,
        "name": "Tanjunglengkayap",
        "postal_code": "32158",
        "latitude": -4.314822689250319,
        "longitude": 104.0925023334031
    },
    {
        "code": 1601282007,
        "district_code": 160128,
        "regency_code": 1601,
        "province_code": 16,
        "name": "Lubuk Dalam",
        "postal_code": "32158",
        "latitude": -4.293444332489011,
        "longitude": 104.07913791274144
    },
    {
        "code": 1601282008,
        "district_code": 160128,
        "regency_code": 1601,
        "province_code": 16,
        "name": "Negeri Ratu",
        "postal_code": "32158",
        "latitude": -4.342825453565508,
        "longitude": 104.04401998814099
    },
    {
        "code": 1601282009,
        "district_code": 160128,
        "regency_code": 1601,
        "province_code": 16,
        "name": "Segara Kembang",
        "postal_code": "32158",
        "latitude": -4.3137548765401865,
        "longitude": 104.04449790544437
    },
    {
        "code": 1601282010,
        "district_code": 160128,
        "regency_code": 1601,
        "province_code": 16,
        "name": "Tihang",
        "postal_code": "32158",
        "latitude": -4.248342086676276,
        "longitude": 104.05243568998343
    },
    {
        "code": 1601282011,
        "district_code": 160128,
        "regency_code": 1601,
        "province_code": 16,
        "name": "Lubuk Hara",
        "postal_code": "32158",
        "latitude": -4.2336998701555615,
        "longitude": 104.05109169113899
    },
    {
        "code": 1601282012,
        "district_code": 160128,
        "regency_code": 1601,
        "province_code": 16,
        "name": "Sukaraja",
        "postal_code": "32158",
        "latitude": -4.3255544642607155,
        "longitude": 104.02836114351948
    },
    {
        "code": 1601282013,
        "district_code": 160128,
        "regency_code": 1601,
        "province_code": 16,
        "name": "Negeri Agung",
        "postal_code": "32158",
        "latitude": -4.24506346843221,
        "longitude": 104.00223876862154
    },
    {
        "code": 1601282014,
        "district_code": 160128,
        "regency_code": 1601,
        "province_code": 16,
        "name": "Gedung Pekuon",
        "postal_code": "32158",
        "latitude": -4.283077734313472,
        "longitude": 104.01249067723948
    },
    {
        "code": 1601282015,
        "district_code": 160128,
        "regency_code": 1601,
        "province_code": 16,
        "name": "Tualang",
        "postal_code": "32158",
        "latitude": -4.313273100254688,
        "longitude": 104.00208806008551
    },
    {
        "code": 1601282016,
        "district_code": 160128,
        "regency_code": 1601,
        "province_code": 16,
        "name": "Sundan",
        "postal_code": "32158",
        "latitude": -4.250541757968549,
        "longitude": 103.9164519074746
    },
    {
        "code": 1601282017,
        "district_code": 160128,
        "regency_code": 1601,
        "province_code": 16,
        "name": "Bunga Tanjung",
        "postal_code": "32158",
        "latitude": -4.323073355315447,
        "longitude": 103.95337088184093
    },
    {
        "code": 1601282018,
        "district_code": 160128,
        "regency_code": 1601,
        "province_code": 16,
        "name": "Way Heling",
        "postal_code": "32158",
        "latitude": -4.2753702929381,
        "longitude": 104.10230706236233
    },
    {
        "code": 1601282019,
        "district_code": 160128,
        "regency_code": 1601,
        "province_code": 16,
        "name": "Umpam",
        "postal_code": "32158",
        "latitude": -4.3582288693957985,
        "longitude": 104.17211077589336
    },
    {
        "code": 1601282020,
        "district_code": 160128,
        "regency_code": 1601,
        "province_code": 16,
        "name": "Fajar Jaya",
        "postal_code": "32158",
        "latitude": -4.396161904746601,
        "longitude": 104.14073011031245
    },
    {
        "code": 1601282021,
        "district_code": 160128,
        "regency_code": 1601,
        "province_code": 16,
        "name": "Simpang Empat",
        "postal_code": "32158",
        "latitude": -4.284163265202368,
        "longitude": 104.04876450816651
    },
    {
        "code": 1601282022,
        "district_code": 160128,
        "regency_code": 1601,
        "province_code": 16,
        "name": "Tanjungagung",
        "postal_code": "32158",
        "latitude": -4.3306295706810305,
        "longitude": 104.09129244454297
    },
    {
        "code": 1601292001,
        "district_code": 160129,
        "regency_code": 1601,
        "province_code": 16,
        "name": "Karya Jaya",
        "postal_code": "32159",
        "latitude": -3.938010454961704,
        "longitude": 104.43843979100572
    },
    {
        "code": 1601292002,
        "district_code": 160129,
        "regency_code": 1601,
        "province_code": 16,
        "name": "Karya Mukti",
        "postal_code": "32159",
        "latitude": -3.9481081624491785,
        "longitude": 104.38912732623496
    },
    {
        "code": 1601292003,
        "district_code": 160129,
        "regency_code": 1601,
        "province_code": 16,
        "name": "Marga Bakti",
        "postal_code": "32159",
        "latitude": -3.9937752282716654,
        "longitude": 104.359579164822
    },
    {
        "code": 1601292004,
        "district_code": 160129,
        "regency_code": 1601,
        "province_code": 16,
        "name": "Sri Mulya",
        "postal_code": "32159",
        "latitude": -3.9023106114640003,
        "longitude": 104.3944268032872
    },
    {
        "code": 1601292005,
        "district_code": 160129,
        "regency_code": 1601,
        "province_code": 16,
        "name": "Marga Mulya",
        "postal_code": "32159",
        "latitude": -3.8806389453015235,
        "longitude": 104.4434700730558
    },
    {
        "code": 1601292006,
        "district_code": 160129,
        "regency_code": 1601,
        "province_code": 16,
        "name": "Tanjung Makmur",
        "postal_code": "32159",
        "latitude": -3.896957592674433,
        "longitude": 104.48326098429348
    },
    {
        "code": 1601302001,
        "district_code": 160130,
        "regency_code": 1601,
        "province_code": 16,
        "name": "Batu Marta I",
        "postal_code": "32152",
        "latitude": -4.205839594565444,
        "longitude": 104.27331027728479
    },
    {
        "code": 1601302002,
        "district_code": 160130,
        "regency_code": 1601,
        "province_code": 16,
        "name": "Batu Marta II",
        "postal_code": "32152",
        "latitude": -4.139858910446589,
        "longitude": 104.31779390545675
    },
    {
        "code": 1601302003,
        "district_code": 160130,
        "regency_code": 1601,
        "province_code": 16,
        "name": "Lekis Rejo",
        "postal_code": "32152",
        "latitude": -4.086987324837917,
        "longitude": 104.28100417825601
    },
    {
        "code": 1601302004,
        "district_code": 160130,
        "regency_code": 1601,
        "province_code": 16,
        "name": "Lubuk Banjar",
        "postal_code": "32152",
        "latitude": -4.043891885701197,
        "longitude": 104.30593558252116
    },
    {
        "code": 1601302005,
        "district_code": 160130,
        "regency_code": 1601,
        "province_code": 16,
        "name": "Marta Jaya",
        "postal_code": "32152",
        "latitude": -4.123785829747004,
        "longitude": 104.291372551163
    },
    {
        "code": 1601302006,
        "district_code": 160130,
        "regency_code": 1601,
        "province_code": 16,
        "name": "Batu Raden",
        "postal_code": "32152",
        "latitude": -4.161329811095842,
        "longitude": 104.30787927302542
    },
    {
        "code": 1601302007,
        "district_code": 160130,
        "regency_code": 1601,
        "province_code": 16,
        "name": "Battu Winangun",
        "postal_code": "32152",
        "latitude": -4.1847533779707256,
        "longitude": 104.29546063852206
    },
    {
        "code": 1601312001,
        "district_code": 160131,
        "regency_code": 1601,
        "province_code": 16,
        "name": "Kemala Jaya",
        "postal_code": "32155",
        "latitude": -4.107121773344209,
        "longitude": 103.80769088566542
    },
    {
        "code": 1601312002,
        "district_code": 160131,
        "regency_code": 1601,
        "province_code": 16,
        "name": "Lontar",
        "postal_code": "32155",
        "latitude": -4.067999374941302,
        "longitude": 103.83182821896466
    },
    {
        "code": 1601312003,
        "district_code": 160131,
        "regency_code": 1601,
        "province_code": 16,
        "name": "Muara Saeh",
        "postal_code": "32155",
        "latitude": -4.109294798053329,
        "longitude": 103.85437828127507
    },
    {
        "code": 1601312004,
        "district_code": 160131,
        "regency_code": 1601,
        "province_code": 16,
        "name": "Lubuk Tupak",
        "postal_code": "32155",
        "latitude": -4.1674197824152825,
        "longitude": 103.81908327562017
    },
    {
        "code": 1601312005,
        "district_code": 160131,
        "regency_code": 1601,
        "province_code": 16,
        "name": "Beringin",
        "postal_code": "32155",
        "latitude": -4.143822712077117,
        "longitude": 103.86575651657604
    },
    {
        "code": 1601312006,
        "district_code": 160131,
        "regency_code": 1601,
        "province_code": 16,
        "name": "Surau",
        "postal_code": "32155",
        "latitude": -4.151824677849714,
        "longitude": 103.85578908200125
    },
    {
        "code": 1601312007,
        "district_code": 160131,
        "regency_code": 1601,
        "province_code": 16,
        "name": "Karang Lantang",
        "postal_code": "32155",
        "latitude": -4.15323873350488,
        "longitude": 103.9144368123128
    },
    {
        "code": 1601322001,
        "district_code": 160132,
        "regency_code": 1601,
        "province_code": 16,
        "name": "Bunglai",
        "postal_code": "32193",
        "latitude": -3.8089595072888756,
        "longitude": 104.42384961957607
    },
    {
        "code": 1601322002,
        "district_code": 160132,
        "regency_code": 1601,
        "province_code": 16,
        "name": "Kedaton",
        "postal_code": "32193",
        "latitude": -3.8384110018133253,
        "longitude": 104.46854167778584
    },
    {
        "code": 1601322003,
        "district_code": 160132,
        "regency_code": 1601,
        "province_code": 16,
        "name": "Kampai",
        "postal_code": "32193",
        "latitude": -3.8213460701932265,
        "longitude": 104.50607378743751
    },
    {
        "code": 1601322004,
        "district_code": 160132,
        "regency_code": 1601,
        "province_code": 16,
        "name": "Rantau Panjang",
        "postal_code": "32193",
        "latitude": -3.796601760590618,
        "longitude": 104.46166232435075
    },
    {
        "code": 1601322005,
        "district_code": 160132,
        "regency_code": 1601,
        "province_code": 16,
        "name": "Kedaton Timur",
        "postal_code": "32193",
        "latitude": -3.855262031961114,
        "longitude": 104.51121193720523
    },
    {
        "code": 1601322006,
        "district_code": 160132,
        "regency_code": 1601,
        "province_code": 16,
        "name": "Suka Pindah",
        "postal_code": "32193",
        "latitude": -3.7825274818660826,
        "longitude": 104.48024982788355
    },
    {
        "code": 1601322007,
        "district_code": 160132,
        "regency_code": 1601,
        "province_code": 16,
        "name": "Sinar Kedaton",
        "postal_code": "32193",
        "latitude": -3.765748106821392,
        "longitude": 104.43898072366943
    },
    {
        "code": 1601322008,
        "district_code": 160132,
        "regency_code": 1601,
        "province_code": 16,
        "name": "Lubuk Kemiling",
        "postal_code": "32193",
        "latitude": -3.8170677785144043,
        "longitude": 104.53843438593026
    },
    {
        "code": 1602021011,
        "district_code": 160202,
        "regency_code": 1602,
        "province_code": 16,
        "name": "Tanjung Lubuk",
        "postal_code": "30671",
        "latitude": -3.532129215341076,
        "longitude": 104.75410600913447
    },
    {
        "code": 1602022001,
        "district_code": 160202,
        "regency_code": 1602,
        "province_code": 16,
        "name": "Ulak Kapal",
        "postal_code": "30671",
        "latitude": -3.6309955271682295,
        "longitude": 104.67461278984452
    },
    {
        "code": 1602022002,
        "district_code": 160202,
        "regency_code": 1602,
        "province_code": 16,
        "name": "Tanjung Merindu",
        "postal_code": "30671",
        "latitude": -3.6519599369465823,
        "longitude": 104.73602592084582
    },
    {
        "code": 1602022003,
        "district_code": 160202,
        "regency_code": 1602,
        "province_code": 16,
        "name": "Tanjung Baru",
        "postal_code": "30671",
        "latitude": -3.6002177799510644,
        "longitude": 104.67245510602763
    },
    {
        "code": 1602022004,
        "district_code": 160202,
        "regency_code": 1602,
        "province_code": 16,
        "name": "Seritanjung",
        "postal_code": "30671",
        "latitude": -3.6090905443424846,
        "longitude": 104.71709342335853
    },
    {
        "code": 1602022005,
        "district_code": 160202,
        "regency_code": 1602,
        "province_code": 16,
        "name": "Pengaraian",
        "postal_code": "30671",
        "latitude": -3.575073632631515,
        "longitude": 104.68878430234491
    },
    {
        "code": 1602022006,
        "district_code": 160202,
        "regency_code": 1602,
        "province_code": 16,
        "name": "Sukarami",
        "postal_code": "30671",
        "latitude": -3.5707126400141975,
        "longitude": 104.71481658289657
    },
    {
        "code": 1602022008,
        "district_code": 160202,
        "regency_code": 1602,
        "province_code": 16,
        "name": "Sukamulya",
        "postal_code": "30671",
        "latitude": -3.5759304423111704,
        "longitude": 104.76309158770715
    },
    {
        "code": 1602022010,
        "district_code": 160202,
        "regency_code": 1602,
        "province_code": 16,
        "name": "Pulau Gemantung",
        "postal_code": "30671",
        "latitude": -3.545855417247329,
        "longitude": 104.72230446337687
    },
    {
        "code": 1602022012,
        "district_code": 160202,
        "regency_code": 1602,
        "province_code": 16,
        "name": "Bumiagung",
        "postal_code": "30671",
        "latitude": -3.5252263338886816,
        "longitude": 104.72653699020015
    },
    {
        "code": 1602022013,
        "district_code": 160202,
        "regency_code": 1602,
        "province_code": 16,
        "name": "Kotabumi",
        "postal_code": "30671",
        "latitude": -3.5263518084149985,
        "longitude": 104.70208553016914
    },
    {
        "code": 1602022014,
        "district_code": 160202,
        "regency_code": 1602,
        "province_code": 16,
        "name": "Tanjung Beringin",
        "postal_code": "30671",
        "latitude": -3.510152786062914,
        "longitude": 104.67980840239916
    },
    {
        "code": 1602022015,
        "district_code": 160202,
        "regency_code": 1602,
        "province_code": 16,
        "name": "Tanjung Laga",
        "postal_code": "30671",
        "latitude": -3.5157678473245406,
        "longitude": 104.7364990162391
    },
    {
        "code": 1602022016,
        "district_code": 160202,
        "regency_code": 1602,
        "province_code": 16,
        "name": "Tanjung Laut",
        "postal_code": "30671",
        "latitude": -3.503678786934577,
        "longitude": 104.72751222894132
    },
    {
        "code": 1602022017,
        "district_code": 160202,
        "regency_code": 1602,
        "province_code": 16,
        "name": "Ulak Balam",
        "postal_code": "30671",
        "latitude": -3.491663638162737,
        "longitude": 104.720860275966
    },
    {
        "code": 1602022018,
        "district_code": 160202,
        "regency_code": 1602,
        "province_code": 16,
        "name": "Jambu Ilir",
        "postal_code": "30671",
        "latitude": -3.501319215209118,
        "longitude": 104.74518371318706
    },
    {
        "code": 1602022031,
        "district_code": 160202,
        "regency_code": 1602,
        "province_code": 16,
        "name": "Jukdadak",
        "postal_code": "30671",
        "latitude": -3.4745368407504826,
        "longitude": 104.71280059799066
    },
    {
        "code": 1602022032,
        "district_code": 160202,
        "regency_code": 1602,
        "province_code": 16,
        "name": "Atar Balam",
        "postal_code": "30671",
        "latitude": -3.482687381766555,
        "longitude": 104.73140701052111
    },
    {
        "code": 1602022033,
        "district_code": 160202,
        "regency_code": 1602,
        "province_code": 16,
        "name": "Tanjung Harapan",
        "postal_code": "30671",
        "latitude": -3.6212056004792315,
        "longitude": 104.72817958607423
    },
    {
        "code": 1602022034,
        "district_code": 160202,
        "regency_code": 1602,
        "province_code": 16,
        "name": "Pulau Gemantung Ilir",
        "postal_code": "30671",
        "latitude": -3.543664994199261,
        "longitude": 104.74419976850626
    },
    {
        "code": 1602022035,
        "district_code": 160202,
        "regency_code": 1602,
        "province_code": 16,
        "name": "Pulau Gemantung Ulu",
        "postal_code": "30671",
        "latitude": -3.5628410933018655,
        "longitude": 104.72770372425337
    },
    {
        "code": 1602022036,
        "district_code": 160202,
        "regency_code": 1602,
        "province_code": 16,
        "name": "Pulau Gemantung Darat",
        "postal_code": "30671",
        "latitude": -3.5776972929137023,
        "longitude": 104.74583663170677
    },
    {
        "code": 1602032002,
        "district_code": 160203,
        "regency_code": 1602,
        "province_code": 16,
        "name": "Pedamaran VI",
        "postal_code": "30672",
        "latitude": -3.5689993422307476,
        "longitude": 104.84113625338728
    },
    {
        "code": 1602032003,
        "district_code": 160203,
        "regency_code": 1602,
        "province_code": 16,
        "name": "Pedamaran V",
        "postal_code": "30672",
        "latitude": -3.530929922906072,
        "longitude": 104.86986152804505
    },
    {
        "code": 1602032004,
        "district_code": 160203,
        "regency_code": 1602,
        "province_code": 16,
        "name": "Pedamaran IV",
        "postal_code": "30672",
        "latitude": -3.509476089348363,
        "longitude": 104.86175791234591
    },
    {
        "code": 1602032005,
        "district_code": 160203,
        "regency_code": 1602,
        "province_code": 16,
        "name": "Pedamaran III",
        "postal_code": "30672",
        "latitude": -3.4869561277496874,
        "longitude": 104.83251018303615
    },
    {
        "code": 1602032006,
        "district_code": 160203,
        "regency_code": 1602,
        "province_code": 16,
        "name": "Pedamaran II",
        "postal_code": "30672",
        "latitude": -3.5002658534068662,
        "longitude": 104.85388405173498
    },
    {
        "code": 1602032007,
        "district_code": 160203,
        "regency_code": 1602,
        "province_code": 16,
        "name": "Pedamaran I",
        "postal_code": "30672",
        "latitude": -3.4793987102591823,
        "longitude": 104.83371208313147
    },
    {
        "code": 1602032008,
        "district_code": 160203,
        "regency_code": 1602,
        "province_code": 16,
        "name": "Cinta Jaya",
        "postal_code": "30672",
        "latitude": -3.4607430891721043,
        "longitude": 104.96504348968533
    },
    {
        "code": 1602032009,
        "district_code": 160203,
        "regency_code": 1602,
        "province_code": 16,
        "name": "Sukadamai",
        "postal_code": "30672",
        "latitude": -3.460573626837087,
        "longitude": 104.86070791954486
    },
    {
        "code": 1602032010,
        "district_code": 160203,
        "regency_code": 1602,
        "province_code": 16,
        "name": "Serinanti",
        "postal_code": "30672",
        "latitude": -3.455792046084776,
        "longitude": 104.85511143035978
    },
    {
        "code": 1602032011,
        "district_code": 160203,
        "regency_code": 1602,
        "province_code": 16,
        "name": "Sukaraja",
        "postal_code": "30672",
        "latitude": -3.468610589800432,
        "longitude": 104.81450526344216
    },
    {
        "code": 1602032017,
        "district_code": 160203,
        "regency_code": 1602,
        "province_code": 16,
        "name": "Burnai Timur",
        "postal_code": "30672",
        "latitude": -3.592460978672419,
        "longitude": 104.86153367042564
    },
    {
        "code": 1602032018,
        "district_code": 160203,
        "regency_code": 1602,
        "province_code": 16,
        "name": "Suka Pulih",
        "postal_code": "30672",
        "latitude": -3.5429394097508773,
        "longitude": 104.82142650634454
    },
    {
        "code": 1602032019,
        "district_code": 160203,
        "regency_code": 1602,
        "province_code": 16,
        "name": "Menang Raya",
        "postal_code": "30672",
        "latitude": -3.5065529701638227,
        "longitude": 104.82591737378074
    },
    {
        "code": 1602032021,
        "district_code": 160203,
        "regency_code": 1602,
        "province_code": 16,
        "name": "Lebuh Rarak",
        "postal_code": "30672",
        "latitude": -3.4905258860070645,
        "longitude": 104.83977677906037
    },
    {
        "code": 1602042001,
        "district_code": 160204,
        "regency_code": 1602,
        "province_code": 16,
        "name": "Pematang Panggang",
        "postal_code": "30681",
        "latitude": -4.00008814059509,
        "longitude": 105.07272801967162
    },
    {
        "code": 1602042002,
        "district_code": 160204,
        "regency_code": 1602,
        "province_code": 16,
        "name": "Sungai Sodong",
        "postal_code": "30681",
        "latitude": -3.869116676394108,
        "longitude": 105.20168087237005
    },
    {
        "code": 1602042005,
        "district_code": 160204,
        "regency_code": 1602,
        "province_code": 16,
        "name": "Pagar Dewa",
        "postal_code": "30681",
        "latitude": -3.781815957043894,
        "longitude": 105.25159871958994
    },
    {
        "code": 1602042006,
        "district_code": 160204,
        "regency_code": 1602,
        "province_code": 16,
        "name": "Surya Adi",
        "postal_code": "30681",
        "latitude": -3.9854935182366056,
        "longitude": 105.0295639674833
    },
    {
        "code": 1602042007,
        "district_code": 160204,
        "regency_code": 1602,
        "province_code": 16,
        "name": "Makarti Mulya",
        "postal_code": "30681",
        "latitude": -3.903976792880283,
        "longitude": 105.10748076399204
    },
    {
        "code": 1602042008,
        "district_code": 160204,
        "regency_code": 1602,
        "province_code": 16,
        "name": "Marga Bakti",
        "postal_code": "30681",
        "latitude": -3.9533841703377695,
        "longitude": 105.0794708818393
    },
    {
        "code": 1602042009,
        "district_code": 160204,
        "regency_code": 1602,
        "province_code": 16,
        "name": "Jaya Bakti",
        "postal_code": "30681",
        "latitude": -3.9329576408511455,
        "longitude": 105.04234210948023
    },
    {
        "code": 1602042025,
        "district_code": 160204,
        "regency_code": 1602,
        "province_code": 16,
        "name": "Sukamukti",
        "postal_code": "30681",
        "latitude": -3.85216494981687,
        "longitude": 105.12605399588418
    },
    {
        "code": 1602042026,
        "district_code": 160204,
        "regency_code": 1602,
        "province_code": 16,
        "name": "Mekar Wangi",
        "postal_code": "30681",
        "latitude": -3.8421331807481276,
        "longitude": 105.084085757791
    },
    {
        "code": 1602042035,
        "district_code": 160204,
        "regency_code": 1602,
        "province_code": 16,
        "name": "Karya Mukti",
        "postal_code": "30681",
        "latitude": -3.8821411909976993,
        "longitude": 105.07179919479276
    },
    {
        "code": 1602042037,
        "district_code": 160204,
        "regency_code": 1602,
        "province_code": 16,
        "name": "Kalideras",
        "postal_code": "30681",
        "latitude": -4.067389226296264,
        "longitude": 105.01299087859393
    },
    {
        "code": 1602042038,
        "district_code": 160204,
        "regency_code": 1602,
        "province_code": 16,
        "name": "Sumber Deras",
        "postal_code": "30681",
        "latitude": -4.080876258565863,
        "longitude": 105.03520769461639
    },
    {
        "code": 1602042047,
        "district_code": 160204,
        "regency_code": 1602,
        "province_code": 16,
        "name": "Kembang Jajar",
        "postal_code": "30681",
        "latitude": -4.052208734563596,
        "longitude": 105.05930421753133
    },
    {
        "code": 1602042050,
        "district_code": 160204,
        "regency_code": 1602,
        "province_code": 16,
        "name": "Kota Baru",
        "postal_code": "30681",
        "latitude": -4.129837953459829,
        "longitude": 105.00825831220946
    },
    {
        "code": 1602042051,
        "district_code": 160204,
        "regency_code": 1602,
        "province_code": 16,
        "name": "Sido Basuki",
        "postal_code": "30681",
        "latitude": -4.066470773797447,
        "longitude": 105.07005321029793
    },
    {
        "code": 1602042052,
        "district_code": 160204,
        "regency_code": 1602,
        "province_code": 16,
        "name": "Pematang Kasih",
        "postal_code": "30681",
        "latitude": -4.029381346025848,
        "longitude": 105.0993598862768
    },
    {
        "code": 1602042053,
        "district_code": 160204,
        "regency_code": 1602,
        "province_code": 16,
        "name": "Labuhan Jaya",
        "postal_code": "30681",
        "latitude": -4.1140637417728545,
        "longitude": 105.04718253129008
    },
    {
        "code": 1602051001,
        "district_code": 160205,
        "regency_code": 1602,
        "province_code": 16,
        "name": "Jua-jua",
        "postal_code": "30616",
        "latitude": -3.4133871577488413,
        "longitude": 104.8351452411255
    },
    {
        "code": 1602051002,
        "district_code": 160205,
        "regency_code": 1602,
        "province_code": 16,
        "name": "Kayuagung",
        "postal_code": "30618",
        "latitude": -3.374962983794449,
        "longitude": 104.84568673246183
    },
    {
        "code": 1602051003,
        "district_code": 160205,
        "regency_code": 1602,
        "province_code": 16,
        "name": "Sidakersa",
        "postal_code": "30615",
        "latitude": -3.3957845227985772,
        "longitude": 104.82668169525404
    },
    {
        "code": 1602051004,
        "district_code": 160205,
        "regency_code": 1602,
        "province_code": 16,
        "name": "Cintaraja",
        "postal_code": "30614",
        "latitude": -3.389030929757435,
        "longitude": 104.82567839775304
    },
    {
        "code": 1602051005,
        "district_code": 160205,
        "regency_code": 1602,
        "province_code": 16,
        "name": "Mangun Jaya",
        "postal_code": "30613",
        "latitude": -3.3872277910357838,
        "longitude": 104.83095131619491
    },
    {
        "code": 1602051006,
        "district_code": 160205,
        "regency_code": 1602,
        "province_code": 16,
        "name": "Paku",
        "postal_code": "30612",
        "latitude": -3.3816259270445923,
        "longitude": 104.83223346503434
    },
    {
        "code": 1602051007,
        "district_code": 160205,
        "regency_code": 1602,
        "province_code": 16,
        "name": "Kedaton",
        "postal_code": "30617",
        "latitude": -3.413599625355659,
        "longitude": 104.86432198098275
    },
    {
        "code": 1602051008,
        "district_code": 160205,
        "regency_code": 1602,
        "province_code": 16,
        "name": "Sukadana",
        "postal_code": "30611",
        "latitude": -3.373209295114019,
        "longitude": 104.83363592849558
    },
    {
        "code": 1602051009,
        "district_code": 160205,
        "regency_code": 1602,
        "province_code": 16,
        "name": "Perigi",
        "postal_code": "30618",
        "latitude": -3.383320561955532,
        "longitude": 104.85938859492542
    },
    {
        "code": 1602051010,
        "district_code": 160205,
        "regency_code": 1602,
        "province_code": 16,
        "name": "Kutaraja",
        "postal_code": "30617",
        "latitude": -3.390166725444101,
        "longitude": 104.84775103371149
    },
    {
        "code": 1602051025,
        "district_code": 160205,
        "regency_code": 1602,
        "province_code": 16,
        "name": "Tanjung Rancing",
        "postal_code": "30618",
        "latitude": -3.404052370925396,
        "longitude": 104.81501904682392
    },
    {
        "code": 1602052011,
        "district_code": 160205,
        "regency_code": 1602,
        "province_code": 16,
        "name": "Kijang Ulu",
        "postal_code": "30618",
        "latitude": -3.346646696173084,
        "longitude": 104.82738930226414
    },
    {
        "code": 1602052012,
        "district_code": 160205,
        "regency_code": 1602,
        "province_code": 16,
        "name": "Muarabaru",
        "postal_code": "30618",
        "latitude": -3.4187114920784163,
        "longitude": 104.82266747769417
    },
    {
        "code": 1602052013,
        "district_code": 160205,
        "regency_code": 1602,
        "province_code": 16,
        "name": "Tanjung Lubuk",
        "postal_code": "30617",
        "latitude": -3.366062240363578,
        "longitude": 104.85257134912281
    },
    {
        "code": 1602052014,
        "district_code": 160205,
        "regency_code": 1602,
        "province_code": 16,
        "name": "Arisan Buntal",
        "postal_code": "30618",
        "latitude": -3.3574317419216237,
        "longitude": 104.83744535325373
    },
    {
        "code": 1602052015,
        "district_code": 160205,
        "regency_code": 1602,
        "province_code": 16,
        "name": "Celikah",
        "postal_code": "30611",
        "latitude": -3.3733074635248252,
        "longitude": 104.82241910033606
    },
    {
        "code": 1602052016,
        "district_code": 160205,
        "regency_code": 1602,
        "province_code": 16,
        "name": "Banding Anyar",
        "postal_code": "30618",
        "latitude": -3.431069244829438,
        "longitude": 104.82140311148444
    },
    {
        "code": 1602052017,
        "district_code": 160205,
        "regency_code": 1602,
        "province_code": 16,
        "name": "Buluh Cawang",
        "postal_code": "30618",
        "latitude": -3.448289854030375,
        "longitude": 104.8272153573725
    },
    {
        "code": 1602052018,
        "district_code": 160205,
        "regency_code": 1602,
        "province_code": 16,
        "name": "Lubuk Dalam",
        "postal_code": "30618",
        "latitude": -3.4427513303094703,
        "longitude": 104.85932421052766
    },
    {
        "code": 1602052019,
        "district_code": 160205,
        "regency_code": 1602,
        "province_code": 16,
        "name": "Anyar",
        "postal_code": "30618",
        "latitude": -3.429338253382635,
        "longitude": 104.83424731241534
    },
    {
        "code": 1602052020,
        "district_code": 160205,
        "regency_code": 1602,
        "province_code": 16,
        "name": "Tanjung Menang",
        "postal_code": "30618",
        "latitude": -3.346741804890767,
        "longitude": 104.94518507045485
    },
    {
        "code": 1602052021,
        "district_code": 160205,
        "regency_code": 1602,
        "province_code": 16,
        "name": "Teloko",
        "postal_code": "30618",
        "latitude": -3.3780912975059305,
        "longitude": 104.92801587441423
    },
    {
        "code": 1602052022,
        "district_code": 160205,
        "regency_code": 1602,
        "province_code": 16,
        "name": "Tanjung Serang",
        "postal_code": "30618",
        "latitude": -3.403040035226048,
        "longitude": 104.90029994777822
    },
    {
        "code": 1602052023,
        "district_code": 160205,
        "regency_code": 1602,
        "province_code": 16,
        "name": "Serigeni Baru",
        "postal_code": "30618",
        "latitude": -3.342462642055133,
        "longitude": 104.86905445758343
    },
    {
        "code": 1602052024,
        "district_code": 160205,
        "regency_code": 1602,
        "province_code": 16,
        "name": "Serigeni",
        "postal_code": "30618",
        "latitude": -3.34660460884183,
        "longitude": 104.85219306203832
    },
    {
        "code": 1602082001,
        "district_code": 160208,
        "regency_code": 1602,
        "province_code": 16,
        "name": "Tanjung Alai",
        "postal_code": "30651",
        "latitude": -3.3284217713965485,
        "longitude": 104.83693873783514
    },
    {
        "code": 1602082002,
        "district_code": 160208,
        "regency_code": 1602,
        "province_code": 16,
        "name": "Batu Ampar",
        "postal_code": "30651",
        "latitude": -3.3071996133070454,
        "longitude": 104.83298745655017
    },
    {
        "code": 1602082003,
        "district_code": 160208,
        "regency_code": 1602,
        "province_code": 16,
        "name": "Awal Terusan",
        "postal_code": "30651",
        "latitude": -3.2938501520916867,
        "longitude": 104.82900141362386
    },
    {
        "code": 1602082004,
        "district_code": 160208,
        "regency_code": 1602,
        "province_code": 16,
        "name": "Ulak Jermun",
        "postal_code": "30651",
        "latitude": -3.312106263255103,
        "longitude": 104.89262320705818
    },
    {
        "code": 1602082005,
        "district_code": 160208,
        "regency_code": 1602,
        "province_code": 16,
        "name": "Mangun Jaya",
        "postal_code": "30651",
        "latitude": -3.3076831012506127,
        "longitude": 104.8701171371934
    },
    {
        "code": 1602082006,
        "district_code": 160208,
        "regency_code": 1602,
        "province_code": 16,
        "name": "Terusan Menang",
        "postal_code": "30651",
        "latitude": -3.289319807070042,
        "longitude": 104.87008669565725
    },
    {
        "code": 1602082007,
        "district_code": 160208,
        "regency_code": 1602,
        "province_code": 16,
        "name": "Belanti",
        "postal_code": "30651",
        "latitude": -3.2950823355560863,
        "longitude": 104.91427358048715
    },
    {
        "code": 1602082008,
        "district_code": 160208,
        "regency_code": 1602,
        "province_code": 16,
        "name": "Terate",
        "postal_code": "30651",
        "latitude": -3.27708101916037,
        "longitude": 104.87517067770311
    },
    {
        "code": 1602082009,
        "district_code": 160208,
        "regency_code": 1602,
        "province_code": 16,
        "name": "Rengas Pitu",
        "postal_code": "30651",
        "latitude": -3.269677174784604,
        "longitude": 104.88398322125126
    },
    {
        "code": 1602082010,
        "district_code": 160208,
        "regency_code": 1602,
        "province_code": 16,
        "name": "Pantai",
        "postal_code": "30651",
        "latitude": -3.265494875851583,
        "longitude": 104.88775835727108
    },
    {
        "code": 1602082011,
        "district_code": 160208,
        "regency_code": 1602,
        "province_code": 16,
        "name": "Sirah Pulau Padang",
        "postal_code": "30651",
        "latitude": -3.272761729831224,
        "longitude": 104.8719852114127
    },
    {
        "code": 1602082012,
        "district_code": 160208,
        "regency_code": 1602,
        "province_code": 16,
        "name": "Serdang Menang",
        "postal_code": "30651",
        "latitude": -3.2588236614881847,
        "longitude": 104.87781784827796
    },
    {
        "code": 1602082013,
        "district_code": 160208,
        "regency_code": 1602,
        "province_code": 16,
        "name": "Bungin Tinggi",
        "postal_code": "30651",
        "latitude": -3.2469710835162227,
        "longitude": 104.88623196334696
    },
    {
        "code": 1602082014,
        "district_code": 160208,
        "regency_code": 1602,
        "province_code": 16,
        "name": "Penyandingan",
        "postal_code": "30651",
        "latitude": -3.2381615496638005,
        "longitude": 104.89489150161256
    },
    {
        "code": 1602082015,
        "district_code": 160208,
        "regency_code": 1602,
        "province_code": 16,
        "name": "Berkat",
        "postal_code": "30651",
        "latitude": -3.234805703414002,
        "longitude": 104.9046259312462
    },
    {
        "code": 1602082016,
        "district_code": 160208,
        "regency_code": 1602,
        "province_code": 16,
        "name": "Sukaraja",
        "postal_code": "30651",
        "latitude": -3.2387746498471133,
        "longitude": 104.91390368344267
    },
    {
        "code": 1602082017,
        "district_code": 160208,
        "regency_code": 1602,
        "province_code": 16,
        "name": "Pematang Buluran",
        "postal_code": "30651",
        "latitude": -3.274614419519905,
        "longitude": 104.82023485870374
    },
    {
        "code": 1602082018,
        "district_code": 160208,
        "regency_code": 1602,
        "province_code": 16,
        "name": "Rawang Besar",
        "postal_code": "30651",
        "latitude": -3.2774927678520944,
        "longitude": 104.83986112761215
    },
    {
        "code": 1602082019,
        "district_code": 160208,
        "regency_code": 1602,
        "province_code": 16,
        "name": "Batu Ampar Baru",
        "postal_code": "30651",
        "latitude": -3.3162233019337872,
        "longitude": 104.84732581601273
    },
    {
        "code": 1602082020,
        "district_code": 160208,
        "regency_code": 1602,
        "province_code": 16,
        "name": "Terusan Laut",
        "postal_code": "30651",
        "latitude": -3.294255310301622,
        "longitude": 104.8503104036093
    },
    {
        "code": 1602111016,
        "district_code": 160211,
        "regency_code": 1602,
        "province_code": 16,
        "name": "Tulung Selapan Ulu",
        "postal_code": "30655",
        "latitude": -3.2190255676315775,
        "longitude": 105.31975318669954
    },
    {
        "code": 1602112001,
        "district_code": 160211,
        "regency_code": 1602,
        "province_code": 16,
        "name": "Simpang Tiga",
        "postal_code": "30655",
        "latitude": -3.257559964385513,
        "longitude": 105.53112405216959
    },
    {
        "code": 1602112002,
        "district_code": 160211,
        "regency_code": 1602,
        "province_code": 16,
        "name": "Pulau Beruang",
        "postal_code": "30655",
        "latitude": -3.3067696893532763,
        "longitude": 105.27182222186546
    },
    {
        "code": 1602112003,
        "district_code": 160211,
        "regency_code": 1602,
        "province_code": 16,
        "name": "Penyandingan",
        "postal_code": "30655",
        "latitude": -3.3040545173765072,
        "longitude": 105.2352329075747
    },
    {
        "code": 1602112004,
        "district_code": 160211,
        "regency_code": 1602,
        "province_code": 16,
        "name": "Tanjung Batu",
        "postal_code": "30655",
        "latitude": -3.3111965203043146,
        "longitude": 105.21023287749888
    },
    {
        "code": 1602112005,
        "district_code": 160211,
        "regency_code": 1602,
        "province_code": 16,
        "name": "Toman",
        "postal_code": "30655",
        "latitude": -3.1925791911576007,
        "longitude": 105.21215635912601
    },
    {
        "code": 1602112006,
        "district_code": 160211,
        "regency_code": 1602,
        "province_code": 16,
        "name": "Cambai",
        "postal_code": "30655",
        "latitude": -3.225582546885706,
        "longitude": 105.2383106696722
    },
    {
        "code": 1602112007,
        "district_code": 160211,
        "regency_code": 1602,
        "province_code": 16,
        "name": "Kayuara",
        "postal_code": "30655",
        "latitude": -3.21674231853833,
        "longitude": 105.26553940937029
    },
    {
        "code": 1602112008,
        "district_code": 160211,
        "regency_code": 1602,
        "province_code": 16,
        "name": "Petaling",
        "postal_code": "30655",
        "latitude": -3.2175916200801065,
        "longitude": 105.29762551308387
    },
    {
        "code": 1602112009,
        "district_code": 160211,
        "regency_code": 1602,
        "province_code": 16,
        "name": "Tulung Selapan Ilir",
        "postal_code": "30655",
        "latitude": -3.3319964473698795,
        "longitude": 105.33065083398346
    },
    {
        "code": 1602112010,
        "district_code": 160211,
        "regency_code": 1602,
        "province_code": 16,
        "name": "Ujung Tanjung",
        "postal_code": "30655",
        "latitude": -3.266166918846057,
        "longitude": 105.38828885353115
    },
    {
        "code": 1602112011,
        "district_code": 160211,
        "regency_code": 1602,
        "province_code": 16,
        "name": "Lebung Gajah",
        "postal_code": "30655",
        "latitude": -3.196978699133313,
        "longitude": 105.4238037833031
    },
    {
        "code": 1602112012,
        "district_code": 160211,
        "regency_code": 1602,
        "province_code": 16,
        "name": "Lebung Itam",
        "postal_code": "30655",
        "latitude": -3.0673454532868503,
        "longitude": 105.40420303967994
    },
    {
        "code": 1602112013,
        "district_code": 160211,
        "regency_code": 1602,
        "province_code": 16,
        "name": "Penanggoan Duren",
        "postal_code": "30655",
        "latitude": -3.0880256626280396,
        "longitude": 105.31038316576321
    },
    {
        "code": 1602112014,
        "district_code": 160211,
        "regency_code": 1602,
        "province_code": 16,
        "name": "Jerambah Rengas",
        "postal_code": "30655",
        "latitude": -3.132885262875995,
        "longitude": 105.2393648829404
    },
    {
        "code": 1602112015,
        "district_code": 160211,
        "regency_code": 1602,
        "province_code": 16,
        "name": "Simpang Tiga Makmur",
        "postal_code": "30655",
        "latitude": -3.250669155983164,
        "longitude": 105.77362339137444
    },
    {
        "code": 1602112017,
        "district_code": 160211,
        "regency_code": 1602,
        "province_code": 16,
        "name": "Simpang Tiga Jaya",
        "postal_code": "30655",
        "latitude": -3.130001141012493,
        "longitude": 105.94327363048446
    },
    {
        "code": 1602112018,
        "district_code": 160211,
        "regency_code": 1602,
        "province_code": 16,
        "name": "Simpang Tiga Sakti",
        "postal_code": "30655",
        "latitude": -2.954371069445813,
        "longitude": 105.64974404635431
    },
    {
        "code": 1602112019,
        "district_code": 160211,
        "regency_code": 1602,
        "province_code": 16,
        "name": "Tulung Seluang",
        "postal_code": "30655",
        "latitude": -3.1382478629452564,
        "longitude": 105.42162990499949
    },
    {
        "code": 1602112020,
        "district_code": 160211,
        "regency_code": 1602,
        "province_code": 16,
        "name": "Rantau Lurus",
        "postal_code": "30655",
        "latitude": -3.3194678349933735,
        "longitude": 105.78779827695853
    },
    {
        "code": 1602112021,
        "district_code": 160211,
        "regency_code": 1602,
        "province_code": 16,
        "name": "Kuala Dua Belas",
        "postal_code": "30655",
        "latitude": -3.211040556512755,
        "longitude": 105.81932351442433
    },
    {
        "code": 1602112022,
        "district_code": 160211,
        "regency_code": 1602,
        "province_code": 16,
        "name": "Simpang Tiga Abadi",
        "postal_code": "30655",
        "latitude": -3.341859626763556,
        "longitude": 105.80877761053318
    },
    {
        "code": 1602112023,
        "district_code": 160211,
        "regency_code": 1602,
        "province_code": 16,
        "name": "Tulung Selapan Timur",
        "postal_code": "30655",
        "latitude": -3.2510871012596505,
        "longitude": 105.31941315408443
    },
    {
        "code": 1602122001,
        "district_code": 160212,
        "regency_code": 1602,
        "province_code": 16,
        "name": "Ulak Kemang",
        "postal_code": "30654",
        "latitude": -3.274784811251229,
        "longitude": 104.93177200110216
    },
    {
        "code": 1602122002,
        "district_code": 160212,
        "regency_code": 1602,
        "province_code": 16,
        "name": "Sepang",
        "postal_code": "30654",
        "latitude": -3.2403839784656308,
        "longitude": 104.94279316015307
    },
    {
        "code": 1602122003,
        "district_code": 160212,
        "regency_code": 1602,
        "province_code": 16,
        "name": "Keman",
        "postal_code": "30654",
        "latitude": -3.2388705655231185,
        "longitude": 104.96131870872372
    },
    {
        "code": 1602122004,
        "district_code": 160212,
        "regency_code": 1602,
        "province_code": 16,
        "name": "Kandis",
        "postal_code": "30654",
        "latitude": -3.300842975083965,
        "longitude": 105.00054448516887
    },
    {
        "code": 1602122005,
        "district_code": 160212,
        "regency_code": 1602,
        "province_code": 16,
        "name": "Ulak Depati",
        "postal_code": "30654",
        "latitude": -3.2273420665714516,
        "longitude": 104.99187729998806
    },
    {
        "code": 1602122006,
        "district_code": 160212,
        "regency_code": 1602,
        "province_code": 16,
        "name": "Pulau Layang",
        "postal_code": "30654",
        "latitude": -3.213344771232441,
        "longitude": 104.95452251670667
    },
    {
        "code": 1602122007,
        "district_code": 160212,
        "regency_code": 1602,
        "province_code": 16,
        "name": "Tapus",
        "postal_code": "30654",
        "latitude": -3.2127169985410147,
        "longitude": 104.97951153817826
    },
    {
        "code": 1602122008,
        "district_code": 160212,
        "regency_code": 1602,
        "province_code": 16,
        "name": "Pulau Betung",
        "postal_code": "30654",
        "latitude": -3.2095295144074147,
        "longitude": 105.00175874092484
    },
    {
        "code": 1602122009,
        "district_code": 160212,
        "regency_code": 1602,
        "province_code": 16,
        "name": "Bangsal",
        "postal_code": "30654",
        "latitude": -3.192836705665787,
        "longitude": 104.98820861709827
    },
    {
        "code": 1602122010,
        "district_code": 160212,
        "regency_code": 1602,
        "province_code": 16,
        "name": "Kuro",
        "postal_code": "30654",
        "latitude": -3.1929050189692334,
        "longitude": 104.97392076584862
    },
    {
        "code": 1602122011,
        "district_code": 160212,
        "regency_code": 1602,
        "province_code": 16,
        "name": "Menggeris",
        "postal_code": "30654",
        "latitude": -3.1692639311457795,
        "longitude": 104.98554118662375
    },
    {
        "code": 1602122012,
        "district_code": 160212,
        "regency_code": 1602,
        "province_code": 16,
        "name": "Pampangan",
        "postal_code": "30654",
        "latitude": -3.217257127240931,
        "longitude": 105.01520849773351
    },
    {
        "code": 1602122013,
        "district_code": 160212,
        "regency_code": 1602,
        "province_code": 16,
        "name": "Serimenang",
        "postal_code": "30654",
        "latitude": -3.196410040842905,
        "longitude": 105.0169307993649
    },
    {
        "code": 1602122014,
        "district_code": 160212,
        "regency_code": 1602,
        "province_code": 16,
        "name": "Secondong",
        "postal_code": "30654",
        "latitude": -3.180246622503119,
        "longitude": 105.03818991382445
    },
    {
        "code": 1602122015,
        "district_code": 160212,
        "regency_code": 1602,
        "province_code": 16,
        "name": "Jermun",
        "postal_code": "30654",
        "latitude": -3.1601431079711886,
        "longitude": 105.0304803496166
    },
    {
        "code": 1602122016,
        "district_code": 160212,
        "regency_code": 1602,
        "province_code": 16,
        "name": "Serdang",
        "postal_code": "30654",
        "latitude": -3.246829711493305,
        "longitude": 105.0281548759717
    },
    {
        "code": 1602122017,
        "district_code": 160212,
        "regency_code": 1602,
        "province_code": 16,
        "name": "Jungkal",
        "postal_code": "30654",
        "latitude": -3.3857774986614873,
        "longitude": 105.07753171754212
    },
    {
        "code": 1602122035,
        "district_code": 160212,
        "regency_code": 1602,
        "province_code": 16,
        "name": "Tanjung Kemang",
        "postal_code": "30654",
        "latitude": -3.1590627277295464,
        "longitude": 105.06524622873857
    },
    {
        "code": 1602122036,
        "district_code": 160212,
        "regency_code": 1602,
        "province_code": 16,
        "name": "Ulak Pianggu",
        "postal_code": "30654",
        "latitude": -3.2838813641587214,
        "longitude": 104.98099488488344
    },
    {
        "code": 1602122037,
        "district_code": 160212,
        "regency_code": 1602,
        "province_code": 16,
        "name": "Ulak Kemang Baru",
        "postal_code": "30654",
        "latitude": -3.2805116059114643,
        "longitude": 104.94135222008033
    },
    {
        "code": 1602122038,
        "district_code": 160212,
        "regency_code": 1602,
        "province_code": 16,
        "name": "Keman Baru",
        "postal_code": "30654",
        "latitude": -3.2851121991935766,
        "longitude": 104.96166825322769
    },
    {
        "code": 1602122039,
        "district_code": 160212,
        "regency_code": 1602,
        "province_code": 16,
        "name": "Sri Mulya",
        "postal_code": "30654",
        "latitude": -3.200934478365239,
        "longitude": 105.0404075273793
    },
    {
        "code": 1602132005,
        "district_code": 160213,
        "regency_code": 1602,
        "province_code": 16,
        "name": "Tebing Suluh",
        "postal_code": "30657",
        "latitude": -3.910615166005662,
        "longitude": 104.92773764563998
    },
    {
        "code": 1602132006,
        "district_code": 160213,
        "regency_code": 1602,
        "province_code": 16,
        "name": "Cahya Bumi",
        "postal_code": "30657",
        "latitude": -3.965007413431511,
        "longitude": 104.93493142297494
    },
    {
        "code": 1602132007,
        "district_code": 160213,
        "regency_code": 1602,
        "province_code": 16,
        "name": "Kutapandan",
        "postal_code": "30657",
        "latitude": -3.949802364423595,
        "longitude": 104.86684275698045
    },
    {
        "code": 1602132008,
        "district_code": 160213,
        "regency_code": 1602,
        "province_code": 16,
        "name": "Cahaya Maju",
        "postal_code": "30657",
        "latitude": -3.9202038931378156,
        "longitude": 104.90310787139948
    },
    {
        "code": 1602132009,
        "district_code": 160213,
        "regency_code": 1602,
        "province_code": 16,
        "name": "Bumiagung",
        "postal_code": "30657",
        "latitude": -3.887122514140066,
        "longitude": 104.89240947158518
    },
    {
        "code": 1602132010,
        "district_code": 160213,
        "regency_code": 1602,
        "province_code": 16,
        "name": "Sumberagung",
        "postal_code": "30657",
        "latitude": -3.8834900852607164,
        "longitude": 104.9224132628892
    },
    {
        "code": 1602132011,
        "district_code": 160213,
        "regency_code": 1602,
        "province_code": 16,
        "name": "Tugumulyo",
        "postal_code": "30657",
        "latitude": -3.8684344279545275,
        "longitude": 104.88357293074733
    },
    {
        "code": 1602132013,
        "district_code": 160213,
        "regency_code": 1602,
        "province_code": 16,
        "name": "Dabuk Rejo",
        "postal_code": "30657",
        "latitude": -3.965263362285239,
        "longitude": 104.97699518239922
    },
    {
        "code": 1602132014,
        "district_code": 160213,
        "regency_code": 1602,
        "province_code": 16,
        "name": "Suka Mulya",
        "postal_code": "30657",
        "latitude": -3.9000947783153537,
        "longitude": 105.01652907000624
    },
    {
        "code": 1602132015,
        "district_code": 160213,
        "regency_code": 1602,
        "province_code": 16,
        "name": "Bumi Arjo",
        "postal_code": "30657",
        "latitude": -3.8710429816206764,
        "longitude": 104.97682665340355
    },
    {
        "code": 1602132016,
        "district_code": 160213,
        "regency_code": 1602,
        "province_code": 16,
        "name": "Tulung Harapan",
        "postal_code": "30657",
        "latitude": -3.8940916519021607,
        "longitude": 104.86282592224362
    },
    {
        "code": 1602132017,
        "district_code": 160213,
        "regency_code": 1602,
        "province_code": 16,
        "name": "Kepayang",
        "postal_code": "30657",
        "latitude": -3.8521073770244816,
        "longitude": 104.94037968845684
    },
    {
        "code": 1602132025,
        "district_code": 160213,
        "regency_code": 1602,
        "province_code": 16,
        "name": "Tugu Jaya",
        "postal_code": "30657",
        "latitude": -3.81268420573507,
        "longitude": 104.89128393409244
    },
    {
        "code": 1602132026,
        "district_code": 160213,
        "regency_code": 1602,
        "province_code": 16,
        "name": "Tugu Agung",
        "postal_code": "30657",
        "latitude": -3.835883569660422,
        "longitude": 104.89430718869407
    },
    {
        "code": 1602132027,
        "district_code": 160213,
        "regency_code": 1602,
        "province_code": 16,
        "name": "Sindang Sari",
        "postal_code": "30657",
        "latitude": -3.864255292395533,
        "longitude": 104.91234984986306
    },
    {
        "code": 1602132028,
        "district_code": 160213,
        "regency_code": 1602,
        "province_code": 16,
        "name": "Mekar Jaya",
        "postal_code": "30657",
        "latitude": -3.828452987239918,
        "longitude": 104.92127421688573
    },
    {
        "code": 1602132034,
        "district_code": 160213,
        "regency_code": 1602,
        "province_code": 16,
        "name": "Bumiarjo Makmur",
        "postal_code": "30657",
        "latitude": -3.908268475236876,
        "longitude": 104.96057949010216
    },
    {
        "code": 1602132035,
        "district_code": 160213,
        "regency_code": 1602,
        "province_code": 16,
        "name": "Cahaya Makmur",
        "postal_code": "30657",
        "latitude": -3.938426153654845,
        "longitude": 104.88887923021387
    },
    {
        "code": 1602132036,
        "district_code": 160213,
        "regency_code": 1602,
        "province_code": 16,
        "name": "Sumber Makmur",
        "postal_code": "30657",
        "latitude": -3.881440570005358,
        "longitude": 104.94182013233433
    },
    {
        "code": 1602142001,
        "district_code": 160214,
        "regency_code": 1602,
        "province_code": 16,
        "name": "Tirta Mulya",
        "postal_code": "30656",
        "latitude": -2.466762134296033,
        "longitude": 105.38827833361705
    },
    {
        "code": 1602142002,
        "district_code": 160214,
        "regency_code": 1602,
        "province_code": 16,
        "name": "Suka Mulya",
        "postal_code": "30656",
        "latitude": -2.4840447560889496,
        "longitude": 105.41960266412218
    },
    {
        "code": 1602142003,
        "district_code": 160214,
        "regency_code": 1602,
        "province_code": 16,
        "name": "Jadi Mulya",
        "postal_code": "30656",
        "latitude": -2.5006191762135765,
        "longitude": 105.43136274410053
    },
    {
        "code": 1602142004,
        "district_code": 160214,
        "regency_code": 1602,
        "province_code": 16,
        "name": "Marga Tani",
        "postal_code": "30656",
        "latitude": -2.4872392206631977,
        "longitude": 105.3310060983276
    },
    {
        "code": 1602142005,
        "district_code": 160214,
        "regency_code": 1602,
        "province_code": 16,
        "name": "Bandar Jaya",
        "postal_code": "30656",
        "latitude": -2.513223145281742,
        "longitude": 105.34300332040864
    },
    {
        "code": 1602142006,
        "district_code": 160214,
        "regency_code": 1602,
        "province_code": 16,
        "name": "Mukti Jaya",
        "postal_code": "30656",
        "latitude": -2.530042899569293,
        "longitude": 105.35468970218092
    },
    {
        "code": 1602142007,
        "district_code": 160214,
        "regency_code": 1602,
        "province_code": 16,
        "name": "Srijaya Baru",
        "postal_code": "30656",
        "latitude": -2.551395080113412,
        "longitude": 105.36819770057409
    },
    {
        "code": 1602142008,
        "district_code": 160214,
        "regency_code": 1602,
        "province_code": 16,
        "name": "Nusantara",
        "postal_code": "30656",
        "latitude": -2.545778740515067,
        "longitude": 105.28037552397421
    },
    {
        "code": 1602142009,
        "district_code": 160214,
        "regency_code": 1602,
        "province_code": 16,
        "name": "Kerta Mukti",
        "postal_code": "30656",
        "latitude": -2.571527840263693,
        "longitude": 105.29586394855014
    },
    {
        "code": 1602142010,
        "district_code": 160214,
        "regency_code": 1602,
        "province_code": 16,
        "name": "Nusakerta",
        "postal_code": "30656",
        "latitude": -2.5888033740585494,
        "longitude": 105.30739257508334
    },
    {
        "code": 1602142011,
        "district_code": 160214,
        "regency_code": 1602,
        "province_code": 16,
        "name": "Banyu Biru",
        "postal_code": "30656",
        "latitude": -2.610684287419422,
        "longitude": 105.31873844990064
    },
    {
        "code": 1602142012,
        "district_code": 160214,
        "regency_code": 1602,
        "province_code": 16,
        "name": "Pangkalan Damai",
        "postal_code": "30656",
        "latitude": -2.5805761655554664,
        "longitude": 105.22700663800624
    },
    {
        "code": 1602142013,
        "district_code": 160214,
        "regency_code": 1602,
        "province_code": 16,
        "name": "Negeri Sakti",
        "postal_code": "30656",
        "latitude": -2.613092574808664,
        "longitude": 105.23724693313768
    },
    {
        "code": 1602142014,
        "district_code": 160214,
        "regency_code": 1602,
        "province_code": 16,
        "name": "Rantau Karya",
        "postal_code": "30656",
        "latitude": -2.6302591506139223,
        "longitude": 105.24882186705334
    },
    {
        "code": 1602142015,
        "district_code": 160214,
        "regency_code": 1602,
        "province_code": 16,
        "name": "Pangkalan Sakti",
        "postal_code": "30656",
        "latitude": -2.6472440573280838,
        "longitude": 105.26055464017162
    },
    {
        "code": 1602142016,
        "district_code": 160214,
        "regency_code": 1602,
        "province_code": 16,
        "name": "Simpang Heran",
        "postal_code": "30656",
        "latitude": -2.6639718827852303,
        "longitude": 105.27307743807111
    },
    {
        "code": 1602142017,
        "district_code": 160214,
        "regency_code": 1602,
        "province_code": 16,
        "name": "Rengas Abang",
        "postal_code": "30656",
        "latitude": -2.669126087421221,
        "longitude": 105.21322406024188
    },
    {
        "code": 1602142018,
        "district_code": 160214,
        "regency_code": 1602,
        "province_code": 16,
        "name": "Bukit Batu",
        "postal_code": "30656",
        "latitude": -2.7066317269003384,
        "longitude": 105.25392656575076
    },
    {
        "code": 1602142019,
        "district_code": 160214,
        "regency_code": 1602,
        "province_code": 16,
        "name": "Sungai Batang",
        "postal_code": "30656",
        "latitude": -2.6624901942963946,
        "longitude": 105.48846332742097
    },
    {
        "code": 1602152001,
        "district_code": 160215,
        "regency_code": 1602,
        "province_code": 16,
        "name": "Sungai Menang",
        "postal_code": "30684",
        "latitude": -3.68757396353203,
        "longitude": 105.37297577503718
    },
    {
        "code": 1602152002,
        "district_code": 160215,
        "regency_code": 1602,
        "province_code": 16,
        "name": "Karangsia",
        "postal_code": "30684",
        "latitude": -3.73963427044747,
        "longitude": 105.43227695424646
    },
    {
        "code": 1602152003,
        "district_code": 160215,
        "regency_code": 1602,
        "province_code": 16,
        "name": "Sungai Ceper",
        "postal_code": "30684",
        "latitude": -3.735200610402653,
        "longitude": 105.5398857234346
    },
    {
        "code": 1602152004,
        "district_code": 160215,
        "regency_code": 1602,
        "province_code": 16,
        "name": "Gajah Mati",
        "postal_code": "30684",
        "latitude": -3.877591638598435,
        "longitude": 105.66167971969422
    },
    {
        "code": 1602152005,
        "district_code": 160215,
        "regency_code": 1602,
        "province_code": 16,
        "name": "Sungai Tepuk",
        "postal_code": "30684",
        "latitude": -3.6843824168752937,
        "longitude": 105.27271229279168
    },
    {
        "code": 1602152006,
        "district_code": 160215,
        "regency_code": 1602,
        "province_code": 16,
        "name": "Sungai Sibur",
        "postal_code": "30684",
        "latitude": -3.8958965017507734,
        "longitude": 105.85571201410312
    },
    {
        "code": 1602152007,
        "district_code": 160215,
        "regency_code": 1602,
        "province_code": 16,
        "name": "Talang Makmur",
        "postal_code": "30684",
        "latitude": -3.6773533427190896,
        "longitude": 105.48596497666453
    },
    {
        "code": 1602152008,
        "district_code": 160215,
        "regency_code": 1602,
        "province_code": 16,
        "name": "Harapan Jaya",
        "postal_code": "30684",
        "latitude": -3.684442834858973,
        "longitude": 105.52090578492168
    },
    {
        "code": 1602152009,
        "district_code": 160215,
        "regency_code": 1602,
        "province_code": 16,
        "name": "Talang Jaya",
        "postal_code": "30684",
        "latitude": -3.6173762336173794,
        "longitude": 105.34716516830457
    },
    {
        "code": 1602152010,
        "district_code": 160215,
        "regency_code": 1602,
        "province_code": 16,
        "name": "Sidomulyo",
        "postal_code": "30684",
        "latitude": -3.61742641161434,
        "longitude": 105.26991559867513
    },
    {
        "code": 1602152011,
        "district_code": 160215,
        "regency_code": 1602,
        "province_code": 16,
        "name": "Bumi Pratama Mandira",
        "postal_code": "30684",
        "latitude": -4.064788778947395,
        "longitude": 105.74427244295202
    },
    {
        "code": 1602152012,
        "district_code": 160215,
        "regency_code": 1602,
        "province_code": 16,
        "name": "Pinang Indah",
        "postal_code": "30684",
        "latitude": -4.095371479600367,
        "longitude": 105.82354021391804
    },
    {
        "code": 1602152013,
        "district_code": 160215,
        "regency_code": 1602,
        "province_code": 16,
        "name": "Gajah Makmur",
        "postal_code": "30684",
        "latitude": -3.9521087831336765,
        "longitude": 105.62652927842315
    },
    {
        "code": 1602152014,
        "district_code": 160215,
        "regency_code": 1602,
        "province_code": 16,
        "name": "Gading Jaya",
        "postal_code": "30684",
        "latitude": -3.9804952767136204,
        "longitude": 105.65662042180774
    },
    {
        "code": 1602152015,
        "district_code": 160215,
        "regency_code": 1602,
        "province_code": 16,
        "name": "Gajah Mukti",
        "postal_code": "30684",
        "latitude": -3.909858434852098,
        "longitude": 105.59931395068567
    },
    {
        "code": 1602152016,
        "district_code": 160215,
        "regency_code": 1602,
        "province_code": 16,
        "name": "Gajah Mulya",
        "postal_code": "30684",
        "latitude": -3.89495274593145,
        "longitude": 105.58037779311779
    },
    {
        "code": 1602152017,
        "district_code": 160215,
        "regency_code": 1602,
        "province_code": 16,
        "name": "Sri Gading",
        "postal_code": "30684",
        "latitude": -3.9323899356014103,
        "longitude": 105.64657423381354
    },
    {
        "code": 1602152018,
        "district_code": 160215,
        "regency_code": 1602,
        "province_code": 16,
        "name": "Gading Mas",
        "postal_code": "30684",
        "latitude": -3.9888356922557633,
        "longitude": 105.6359493198753
    },
    {
        "code": 1602172001,
        "district_code": 160217,
        "regency_code": 1602,
        "province_code": 16,
        "name": "Tanjung Aur",
        "postal_code": "30652",
        "latitude": -3.18610931319787,
        "longitude": 104.9373881019069
    },
    {
        "code": 1602172002,
        "district_code": 160217,
        "regency_code": 1602,
        "province_code": 16,
        "name": "Lubuk Ketepeng",
        "postal_code": "30652",
        "latitude": -3.194826775608436,
        "longitude": 104.90585386398232
    },
    {
        "code": 1602172003,
        "district_code": 160217,
        "regency_code": 1602,
        "province_code": 16,
        "name": "Talang Cempedak",
        "postal_code": "30652",
        "latitude": -3.174421544973959,
        "longitude": 104.89328553680227
    },
    {
        "code": 1602172004,
        "district_code": 160217,
        "regency_code": 1602,
        "province_code": 16,
        "name": "Bubusan",
        "postal_code": "30652",
        "latitude": -3.2650858780692866,
        "longitude": 104.85580765209737
    },
    {
        "code": 1602172005,
        "district_code": 160217,
        "regency_code": 1602,
        "province_code": 16,
        "name": "Air Itam",
        "postal_code": "30652",
        "latitude": -3.247236679150717,
        "longitude": 104.85150142439464
    },
    {
        "code": 1602172006,
        "district_code": 160217,
        "regency_code": 1602,
        "province_code": 16,
        "name": "Jejawi",
        "postal_code": "30652",
        "latitude": -3.2233005651666993,
        "longitude": 104.85144771375592
    },