[
    {
        "code": 6101012001,
        "district_code": 610101,
        "regency_code": 6101,
        "province_code": 61,
        "name": "Dalam Kaum",
        "postal_code": "79460",
        "latitude": 1.341904046130341,
        "longitude": 109.35370728810138
    },
    {
        "code": 6101012002,
        "district_code": 610101,
        "regency_code": 6101,
        "province_code": 61,
        "name": "Lubuk Dagang",
        "postal_code": "79460",
        "latitude": 1.3084908876477026,
        "longitude": 109.337996849392
    },
    {
        "code": 6101012003,
        "district_code": 610101,
        "regency_code": 6101,
        "province_code": 61,
        "name": "Tanjung Bugis",
        "postal_code": "79460",
        "latitude": 1.3590802558316402,
        "longitude": 109.31261366363832
    },
    {
        "code": 6101012004,
        "district_code": 610101,
        "regency_code": 6101,
        "province_code": 61,
        "name": "Pendawan",
        "postal_code": "79460",
        "latitude": 1.355537262261082,
        "longitude": 109.30689441487677
    },
    {
        "code": 6101012005,
        "district_code": 610101,
        "regency_code": 6101,
        "province_code": 61,
        "name": "Pasar Melayu",
        "postal_code": "79460",
        "latitude": 1.3579337385016357,
        "longitude": 109.30438028323675
    },
    {
        "code": 6101012006,
        "district_code": 610101,
        "regency_code": 6101,
        "province_code": 61,
        "name": "Durian",
        "postal_code": "79460",
        "latitude": 1.3586563941011771,
        "longitude": 109.30050267349456
    },
    {
        "code": 6101012007,
        "district_code": 610101,
        "regency_code": 6101,
        "province_code": 61,
        "name": "Lorong",
        "postal_code": "79460",
        "latitude": 1.369508969879849,
        "longitude": 109.28711581249836
    },
    {
        "code": 6101012008,
        "district_code": 610101,
        "regency_code": 6101,
        "province_code": 61,
        "name": "Jagur",
        "postal_code": "79460",
        "latitude": 1.378642215512252,
        "longitude": 109.29760668703767
    },
    {
        "code": 6101012009,
        "district_code": 610101,
        "regency_code": 6101,
        "province_code": 61,
        "name": "Tumuk Manggis",
        "postal_code": "79460",
        "latitude": 1.3700352034246313,
        "longitude": 109.30623437222881
    },
    {
        "code": 6101012010,
        "district_code": 610101,
        "regency_code": 6101,
        "province_code": 61,
        "name": "Tanjung Mekar",
        "postal_code": "79460",
        "latitude": 1.371907879662663,
        "longitude": 109.31590308558856
    },
    {
        "code": 6101012011,
        "district_code": 610101,
        "regency_code": 6101,
        "province_code": 61,
        "name": "Sebayan",
        "postal_code": "79460",
        "latitude": 1.391588339509902,
        "longitude": 109.32119130999487
    },
    {
        "code": 6101012012,
        "district_code": 610101,
        "regency_code": 6101,
        "province_code": 61,
        "name": "Kartiasa",
        "postal_code": "79460",
        "latitude": 1.3810553650369892,
        "longitude": 109.26136469027803
    },
    {
        "code": 6101012013,
        "district_code": 610101,
        "regency_code": 6101,
        "province_code": 61,
        "name": "Saing Rambi",
        "postal_code": "79460",
        "latitude": 1.3480257137289389,
        "longitude": 109.27112997051618
    },
    {
        "code": 6101012014,
        "district_code": 610101,
        "regency_code": 6101,
        "province_code": 61,
        "name": "Lumbang",
        "postal_code": "79460",
        "latitude": 1.320123901222734,
        "longitude": 109.30508310712118
    },
    {
        "code": 6101012015,
        "district_code": 610101,
        "regency_code": 6101,
        "province_code": 61,
        "name": "Sungai Rambah",
        "postal_code": "79460",
        "latitude": 1.3090616040972627,
        "longitude": 109.27735775022208
    },
    {
        "code": 6101012023,
        "district_code": 610101,
        "regency_code": 6101,
        "province_code": 61,
        "name": "Gapura",
        "postal_code": "79460",
        "latitude": 1.3536422604358063,
        "longitude": 109.23045079869551
    },
    {
        "code": 6101012024,
        "district_code": 610101,
        "regency_code": 6101,
        "province_code": 61,
        "name": "Sumber Harapan",
        "postal_code": "79460",
        "latitude": 1.3717868224415126,
        "longitude": 109.36066696435165
    },
    {
        "code": 6101012029,
        "district_code": 610101,
        "regency_code": 6101,
        "province_code": 61,
        "name": "Semangau",
        "postal_code": "79460",
        "latitude": 1.2810316553460614,
        "longitude": 109.27812719863891
    },
    {
        "code": 6101022001,
        "district_code": 610102,
        "regency_code": 6101,
        "province_code": 61,
        "name": "Sungai Kumpai",
        "postal_code": "79469",
        "latitude": 1.4447086983685136,
        "longitude": 109.19188888252991
    },
    {
        "code": 6101022002,
        "district_code": 610102,
        "regency_code": 6101,
        "province_code": 61,
        "name": "Sekura",
        "postal_code": "79469",
        "latitude": 1.466813904312066,
        "longitude": 109.1896309575063
    },
    {
        "code": 6101022003,
        "district_code": 610102,
        "regency_code": 6101,
        "province_code": 61,
        "name": "Tri Mandayan",
        "postal_code": "79469",
        "latitude": 1.4909131530975683,
        "longitude": 109.16903623535623
    },
    {
        "code": 6101022004,
        "district_code": 610102,
        "regency_code": 6101,
        "province_code": 61,
        "name": "Pedada",
        "postal_code": "79469",
        "latitude": 1.5064136580883865,
        "longitude": 109.22335573263291
    },
    {
        "code": 6101022005,
        "district_code": 610102,
        "regency_code": 6101,
        "province_code": 61,
        "name": "Lela",
        "postal_code": "79469",
        "latitude": 1.4212353475267647,
        "longitude": 109.18328633238752
    },
    {
        "code": 6101022006,
        "district_code": 610102,
        "regency_code": 6101,
        "province_code": 61,
        "name": "Puringan",
        "postal_code": "79469",
        "latitude": 1.3939108983329969,
        "longitude": 109.21367573226688
    },
    {
        "code": 6101022007,
        "district_code": 610102,
        "regency_code": 6101,
        "province_code": 61,
        "name": "Berlimang",
        "postal_code": "79469",
        "latitude": 1.384583372794431,
        "longitude": 109.18158320222712
    },
    {
        "code": 6101022008,
        "district_code": 610102,
        "regency_code": 6101,
        "province_code": 61,
        "name": "Sungai Baru",
        "postal_code": "79469",
        "latitude": 1.3623404910122432,
        "longitude": 109.17246408171302
    },
    {
        "code": 6101022009,
        "district_code": 610102,
        "regency_code": 6101,
        "province_code": 61,
        "name": "Sengawang",
        "postal_code": "79469",
        "latitude": 1.3337225533996497,
        "longitude": 109.1641403988686
    },
    {
        "code": 6101022010,
        "district_code": 610102,
        "regency_code": 6101,
        "province_code": 61,
        "name": "Teluk Kaseh",
        "postal_code": "79469",
        "latitude": 1.3165943475718593,
        "longitude": 109.15416172290102
    },
    {
        "code": 6101022011,
        "district_code": 610102,
        "regency_code": 6101,
        "province_code": 61,
        "name": "Sepadu",
        "postal_code": "79469",
        "latitude": 1.4556589459733467,
        "longitude": 109.24436773212035
    },
    {
        "code": 6101022012,
        "district_code": 610102,
        "regency_code": 6101,
        "province_code": 61,
        "name": "Tambatan",
        "postal_code": "79469",
        "latitude": 1.4331460870270423,
        "longitude": 109.24513450968658
    },
    {
        "code": 6101022013,
        "district_code": 610102,
        "regency_code": 6101,
        "province_code": 61,
        "name": "Kubangga",
        "postal_code": "79469",
        "latitude": 1.4081040815143149,
        "longitude": 109.24873564048579
    },
    {
        "code": 6101022020,
        "district_code": 610102,
        "regency_code": 6101,
        "province_code": 61,
        "name": "Sungai Serabek",
        "postal_code": "79469",
        "latitude": 1.5050498633454492,
        "longitude": 109.23565621083364
    },
    {
        "code": 6101022021,
        "district_code": 610102,
        "regency_code": 6101,
        "province_code": 61,
        "name": "Sayang Sedayu",
        "postal_code": "79469",
        "latitude": 1.5429021169148276,
        "longitude": 109.2294611435266
    },
    {
        "code": 6101022022,
        "district_code": 610102,
        "regency_code": 6101,
        "province_code": 61,
        "name": "Pipit Teja",
        "postal_code": "79469",
        "latitude": 1.5622967458774644,
        "longitude": 109.22197983612206
    },
    {
        "code": 6101022024,
        "district_code": 610102,
        "regency_code": 6101,
        "province_code": 61,
        "name": "Matang Segantar",
        "postal_code": "79469",
        "latitude": 1.5874069783596327,
        "longitude": 109.22486109737035
    },
    {
        "code": 6101022025,
        "district_code": 610102,
        "regency_code": 6101,
        "province_code": 61,
        "name": "Mulia",
        "postal_code": "79469",
        "latitude": 1.563394197209547,
        "longitude": 109.2025762718938
    },
    {
        "code": 6101022026,
        "district_code": 610102,
        "regency_code": 6101,
        "province_code": 61,
        "name": "Teluk Kumbang",
        "postal_code": "79469",
        "latitude": 1.5101495444555417,
        "longitude": 109.25536150174635
    },
    {
        "code": 6101022027,
        "district_code": 610102,
        "regency_code": 6101,
        "province_code": 61,
        "name": "Samustida",
        "postal_code": "79469",
        "latitude": 1.5744392200343675,
        "longitude": 109.26548636101434
    },
    {
        "code": 6101022028,
        "district_code": 610102,
        "regency_code": 6101,
        "province_code": 61,
        "name": "Tanjung Kerucut",
        "postal_code": "79469",
        "latitude": 1.4746863181612673,
        "longitude": 109.25783980014049
    },
    {
        "code": 6101022029,
        "district_code": 610102,
        "regency_code": 6101,
        "province_code": 61,
        "name": "Sebagu",
        "postal_code": "79469",
        "latitude": 1.4682102153539267,
        "longitude": 109.28389911808222
    },
    {
        "code": 6101022030,
        "district_code": 610102,
        "regency_code": 6101,
        "province_code": 61,
        "name": "Mekar Sekuntum",
        "postal_code": "79469",
        "latitude": 1.5057167106053126,
        "longitude": 109.29869662918641
    },
    {
        "code": 6101022031,
        "district_code": 610102,
        "regency_code": 6101,
        "province_code": 61,
        "name": "Kuala Pangkalan Keramat",
        "postal_code": "79469",
        "latitude": 1.5011700269142905,
        "longitude": 109.32543122932144
    },
    {
        "code": 6101022032,
        "district_code": 610102,
        "regency_code": 6101,
        "province_code": 61,
        "name": "Sabing",
        "postal_code": "79469",
        "latitude": 1.5211470740163606,
        "longitude": 109.28338374716364
    },
    {
        "code": 6101032001,
        "district_code": 610103,
        "regency_code": 6101,
        "province_code": 61,
        "name": "Sarang Burung Danau",
        "postal_code": "79454",
        "latitude": 1.466916740923193,
        "longitude": 109.08030135608873
    },
    {
        "code": 6101032002,
        "district_code": 610103,
        "regency_code": 6101,
        "province_code": 61,
        "name": "Sungai Nilam",
        "postal_code": "79454",
        "latitude": 1.438011061447096,
        "longitude": 109.0911395204366
    },
    {
        "code": 6101032003,
        "district_code": 610103,
        "regency_code": 6101,
        "province_code": 61,
        "name": "Sarang Burung Kolam",
        "postal_code": "79454",
        "latitude": 1.4183207993925782,
        "longitude": 109.08129192179136
    },
    {
        "code": 6101032004,
        "district_code": 610103,
        "regency_code": 6101,
        "province_code": 61,
        "name": "Sarang Burung Usrat",
        "postal_code": "79454",
        "latitude": 1.4028305933639806,
        "longitude": 109.09104293426272
    },
    {
        "code": 6101032005,
        "district_code": 610103,
        "regency_code": 6101,
        "province_code": 61,
        "name": "Sarang Burung Kuala",
        "postal_code": "79454",
        "latitude": 1.3864359117396607,
        "longitude": 109.09434141964812
    },
    {
        "code": 6101032006,
        "district_code": 610103,
        "regency_code": 6101,
        "province_code": 61,
        "name": "Pelimpaan",
        "postal_code": "79454",
        "latitude": 1.365547322758919,
        "longitude": 109.09350862227451
    },
    {
        "code": 6101032007,
        "district_code": 610103,
        "regency_code": 6101,
        "province_code": 61,
        "name": "Parit Setia",
        "postal_code": "79454",
        "latitude": 1.3537326501319773,
        "longitude": 109.10006190697476
    },
    {
        "code": 6101032008,
        "district_code": 610103,
        "regency_code": 6101,
        "province_code": 61,
        "name": "Bakau",
        "postal_code": "79454",
        "latitude": 1.3429024583679887,
        "longitude": 109.09007309088886
    },
    {
        "code": 6101032009,
        "district_code": 610103,
        "regency_code": 6101,
        "province_code": 61,
        "name": "Sungai Nyirih",
        "postal_code": "79454",
        "latitude": 1.3310562386288567,
        "longitude": 109.06892794888489
    },
    {
        "code": 6101032010,
        "district_code": 610103,
        "regency_code": 6101,
        "province_code": 61,
        "name": "Sentebang",
        "postal_code": "79454",
        "latitude": 1.3178490424338456,
        "longitude": 109.05555533817078
    },
    {
        "code": 6101032011,
        "district_code": 610103,
        "regency_code": 6101,
        "province_code": 61,
        "name": "Dungun Laut",
        "postal_code": "79454",
        "latitude": 1.3027215859005803,
        "longitude": 109.04063822939335
    },
    {
        "code": 6101032021,
        "district_code": 610103,
        "regency_code": 6101,
        "province_code": 61,
        "name": "Lambau",
        "postal_code": "79454",
        "latitude": 1.3751257715822747,
        "longitude": 109.09732345598066
    },
    {
        "code": 6101032022,
        "district_code": 610103,
        "regency_code": 6101,
        "province_code": 61,
        "name": "Mutus Darussalam",
        "postal_code": "79454",
        "latitude": 1.4272706552904033,
        "longitude": 109.09419831246355
    },
    {
        "code": 6101042001,
        "district_code": 610104,
        "regency_code": 6101,
        "province_code": 61,
        "name": "Tebas Kuala",
        "postal_code": "79461",
        "latitude": 1.2323669360784357,
        "longitude": 109.1366473833284
    },
    {
        "code": 6101042002,
        "district_code": 610104,
        "regency_code": 6101,
        "province_code": 61,
        "name": "Tebas Sungai",
        "postal_code": "79461",
        "latitude": 1.2076427912290093,
        "longitude": 109.16904794852316
    },
    {
        "code": 6101042003,
        "district_code": 610104,
        "regency_code": 6101,
        "province_code": 61,
        "name": "Sempalai",
        "postal_code": "79461",
        "latitude": 1.248758621240269,
        "longitude": 109.16865806703869
    },
    {
        "code": 6101042004,
        "district_code": 610104,
        "regency_code": 6101,
        "province_code": 61,
        "name": "Bekut",
        "postal_code": "79461",
        "latitude": 1.242290981318593,
        "longitude": 109.16052319082533
    },
    {
        "code": 6101042005,
        "district_code": 610104,
        "regency_code": 6101,
        "province_code": 61,
        "name": "Seberkat",
        "postal_code": "79461",
        "latitude": 1.201678076136717,
        "longitude": 109.20625708498558
    },
    {
        "code": 6101042006,
        "district_code": 610104,
        "regency_code": 6101,
        "province_code": 61,
        "name": "Sejiram",
        "postal_code": "79461",
        "latitude": 1.2212516829764057,
        "longitude": 109.17416105087551
    },
    {
        "code": 6101042007,
        "district_code": 610104,
        "regency_code": 6101,
        "province_code": 61,
        "name": "Makrampai",
        "postal_code": "79461",
        "latitude": 1.2295513225594308,
        "longitude": 109.15527264173846
    },
    {
        "code": 6101042008,
        "district_code": 610104,
        "regency_code": 6101,
        "province_code": 61,
        "name": "Mekar Sekuntum",
        "postal_code": "79461",
        "latitude": 1.2158765778651424,
        "longitude": 109.13558405712382
    },
    {
        "code": 6101042009,
        "district_code": 610104,
        "regency_code": 6101,
        "province_code": 61,
        "name": "Mensere",
        "postal_code": "79461",
        "latitude": 1.214436839285303,
        "longitude": 109.1188678124758
    },
    {
        "code": 6101042010,
        "district_code": 610104,
        "regency_code": 6101,
        "province_code": 61,
        "name": "Pusaka",
        "postal_code": "79461",
        "latitude": 1.197668897399344,
        "longitude": 109.10900641812029
    },
    {
        "code": 6101042011,
        "district_code": 610104,
        "regency_code": 6101,
        "province_code": 61,
        "name": "Segedong",
        "postal_code": "79461",
        "latitude": 1.1904590185505848,
        "longitude": 109.09768979237755
    },
    {
        "code": 6101042012,
        "district_code": 610104,
        "regency_code": 6101,
        "province_code": 61,
        "name": "Sungai Kelambu",
        "postal_code": "79461",
        "latitude": 1.1821562510871078,
        "longitude": 109.12804775224342
    },
    {
        "code": 6101042013,
        "district_code": 610104,
        "regency_code": 6101,
        "province_code": 61,
        "name": "Serumpun Buluh",
        "postal_code": "79461",
        "latitude": 1.189731358206071,
        "longitude": 109.13872194471705
    },
    {
        "code": 6101042014,
        "district_code": 610104,
        "regency_code": 6101,
        "province_code": 61,
        "name": "Pangkalan Kongsi",
        "postal_code": "79461",
        "latitude": 1.1735156602681622,
        "longitude": 109.15256789430427
    },
    {
        "code": 6101042015,
        "district_code": 610104,
        "regency_code": 6101,
        "province_code": 61,
        "name": "Dungun Perapakan",
        "postal_code": "79461",
        "latitude": 1.187556178994688,
        "longitude": 109.17033676508137
    },
    {
        "code": 6101042016,
        "district_code": 610104,
        "regency_code": 6101,
        "province_code": 61,
        "name": "Batu Makjage",
        "postal_code": "79461",
        "latitude": 1.1458230142723032,
        "longitude": 109.18894606404187
    },
    {
        "code": 6101042017,
        "district_code": 610104,
        "regency_code": 6101,
        "province_code": 61,
        "name": "Serindang",
        "postal_code": "79461",
        "latitude": 1.1300020414470238,
        "longitude": 109.12957374007412
    },
    {
        "code": 6101042018,
        "district_code": 610104,
        "regency_code": 6101,
        "province_code": 61,
        "name": "Bukit Sigoler",
        "postal_code": "79461",
        "latitude": 1.1260271350410291,
        "longitude": 109.15091590410533
    },
    {
        "code": 6101042019,
        "district_code": 610104,
        "regency_code": 6101,
        "province_code": 61,
        "name": "Matang Labong",
        "postal_code": "79461",
        "latitude": 1.1579232512058448,
        "longitude": 109.12113259821889
    },
    {
        "code": 6101042020,
        "district_code": 610104,
        "regency_code": 6101,
        "province_code": 61,
        "name": "Maktangguk",
        "postal_code": "79461",
        "latitude": 1.1368574738744948,
        "longitude": 109.1113722810638
    },
    {
        "code": 6101042021,
        "district_code": 610104,
        "regency_code": 6101,
        "province_code": 61,
        "name": "Segarau Parit",
        "postal_code": "79461",
        "latitude": 1.2590136132668703,
        "longitude": 109.08706758919031
    },
    {
        "code": 6101042022,
        "district_code": 610104,
        "regency_code": 6101,
        "province_code": 61,
        "name": "Maribas",
        "postal_code": "79461",
        "latitude": 1.1217534987455837,
        "longitude": 109.29434818933686
    },
    {
        "code": 6101042023,
        "district_code": 610104,
        "regency_code": 6101,
        "province_code": 61,
        "name": "Seret Ayon",
        "postal_code": "79461",
        "latitude": 1.0493302252809331,
        "longitude": 109.32267733893174
    },
    {
        "code": 6101052001,
        "district_code": 610105,
        "regency_code": 6101,
        "province_code": 61,
        "name": "Pemangkat Kota",
        "postal_code": "79455",
        "latitude": 1.1622724359845724,
        "longitude": 108.93719592088884
    },
    {
        "code": 6101052002,
        "district_code": 610105,
        "regency_code": 6101,
        "province_code": 61,
        "name": "Harapan",
        "postal_code": "79455",
        "latitude": 1.189687434282867,
        "longitude": 108.99352222077485
    },
    {
        "code": 6101052003,
        "district_code": 610105,
        "regency_code": 6101,
        "province_code": 61,
        "name": "Penjajap",
        "postal_code": "79455",
        "latitude": 1.1930877135561906,
        "longitude": 108.98375172816375
    },
    {
        "code": 6101052005,
        "district_code": 610105,
        "regency_code": 6101,
        "province_code": 61,
        "name": "Jelutung",
        "postal_code": "79455",
        "latitude": 1.1459632667882194,
        "longitude": 108.99482278195687
    },
    {
        "code": 6101052013,
        "district_code": 610105,
        "regency_code": 6101,
        "province_code": 61,
        "name": "Perapakan",
        "postal_code": "79455",
        "latitude": 1.1779178510523773,
        "longitude": 109.02574271165082
    },
    {
        "code": 6101052016,
        "district_code": 610105,
        "regency_code": 6101,
        "province_code": 61,
        "name": "Sebatuan",
        "postal_code": "79455",
        "latitude": 1.13455646557269,
        "longitude": 108.94474031420029
    },
    {
        "code": 6101052017,
        "district_code": 610105,
        "regency_code": 6101,
        "province_code": 61,
        "name": "Gugah Sejahtera",
        "postal_code": "79455",
        "latitude": 1.1661305839578513,
        "longitude": 108.9839385819058
    },
    {
        "code": 6101052018,
        "district_code": 610105,
        "regency_code": 6101,
        "province_code": 61,
        "name": "Lonam",
        "postal_code": "79455",
        "latitude": 1.177295409813753,
        "longitude": 109.0029742695317
    },
    {
        "code": 6101062001,
        "district_code": 610106,
        "regency_code": 6101,
        "province_code": 61,
        "name": "Sulung",
        "postal_code": "79463",
        "latitude": 1.413379899090602,
        "longitude": 109.2696740683896
    },
    {
        "code": 6101062002,
        "district_code": 610106,
        "regency_code": 6101,
        "province_code": 61,
        "name": "Penakalan",
        "postal_code": "79463",
        "latitude": 1.4025132414581691,
        "longitude": 109.29119962501159
    },
    {
        "code": 6101062003,
        "district_code": 610106,
        "regency_code": 6101,
        "province_code": 61,
        "name": "Sekuduk",
        "postal_code": "79463",
        "latitude": 1.436323711546317,
        "longitude": 109.28579175242578
    },
    {
        "code": 6101062004,
        "district_code": 610106,
        "regency_code": 6101,
        "province_code": 61,
        "name": "Setalik",
        "postal_code": "79463",
        "latitude": 1.413469597932545,
        "longitude": 109.31001189971556
    },
    {
        "code": 6101062005,
        "district_code": 610106,
        "regency_code": 6101,
        "province_code": 61,
        "name": "Parit Raja",
        "postal_code": "79463",
        "latitude": 1.4304713553637385,
        "longitude": 109.33039343926811
    },
    {
        "code": 6101062006,
        "district_code": 610106,
        "regency_code": 6101,
        "province_code": 61,
        "name": "Piantus",
        "postal_code": "79463",
        "latitude": 1.4538447237596983,
        "longitude": 109.30342819164707
    },
    {
        "code": 6101062007,
        "district_code": 610106,
        "regency_code": 6101,
        "province_code": 61,
        "name": "Perigi Landu",
        "postal_code": "79463",
        "latitude": 1.457965952435525,
        "longitude": 109.3422842222772
    },
    {
        "code": 6101062008,
        "district_code": 610106,
        "regency_code": 6101,
        "province_code": 61,
        "name": "Sendoyan",
        "postal_code": "79463",
        "latitude": 1.46552672804913,
        "longitude": 109.3945478346666
    },
    {
        "code": 6101062009,
        "district_code": 610106,
        "regency_code": 6101,
        "province_code": 61,
        "name": "Senujuh",
        "postal_code": "79463",
        "latitude": 1.4923571849356305,
        "longitude": 109.44548383149441
    },
    {
        "code": 6101062010,
        "district_code": 610106,
        "regency_code": 6101,
        "province_code": 61,
        "name": "Perigi Limus",
        "postal_code": "79463",
        "latitude": 1.4348481458713038,
        "longitude": 109.43865576100548
    },
    {
        "code": 6101062011,
        "district_code": 610106,
        "regency_code": 6101,
        "province_code": 61,
        "name": "Semangga",
        "postal_code": "79463",
        "latitude": 1.4421733957963776,
        "longitude": 109.52906329527302
    },
    {
        "code": 6101062012,
        "district_code": 610106,
        "regency_code": 6101,
        "province_code": 61,
        "name": "Sepantai",
        "postal_code": "79463",
        "latitude": 1.3145307773658341,
        "longitude": 109.57080770255203
    },
    {
        "code": 6101072001,
        "district_code": 610107,
        "regency_code": 6101,
        "province_code": 61,
        "name": "Semelagi Besar",
        "postal_code": "79452",
        "latitude": 1.0060555455176146,
        "longitude": 109.0034857458844
    },
    {
        "code": 6101072002,
        "district_code": 610107,
        "regency_code": 6101,
        "province_code": 61,
        "name": "Sungai Daun",
        "postal_code": "79452",
        "latitude": 1.0212656817730166,
        "longitude": 109.02014699423407
    },
    {
        "code": 6101072003,
        "district_code": 610107,
        "regency_code": 6101,
        "province_code": 61,
        "name": "Sungai Rusa",
        "postal_code": "79452",
        "latitude": 1.031935052611292,
        "longitude": 108.98883911191429
    },
    {
        "code": 6101072004,
        "district_code": 610107,
        "regency_code": 6101,
        "province_code": 61,
        "name": "Sungai Nyirih",
        "postal_code": "79452",
        "latitude": 1.0516556869337728,
        "longitude": 108.97588900895317
    },
    {
        "code": 6101072005,
        "district_code": 610107,
        "regency_code": 6101,
        "province_code": 61,
        "name": "Kuala",
        "postal_code": "79452",
        "latitude": 1.0775432025337297,
        "longitude": 108.95573874102628
    },
    {
        "code": 6101072006,
        "district_code": 610107,
        "regency_code": 6101,
        "province_code": 61,
        "name": "Parit Baru",
        "postal_code": "79452",
        "latitude": 1.0742563018375624,
        "longitude": 108.97348178515628
    },
    {
        "code": 6101072007,
        "district_code": 610107,
        "regency_code": 6101,
        "province_code": 61,
        "name": "Twi Mentibar",
        "postal_code": "79452",
        "latitude": 1.0757351393037327,
        "longitude": 109.00093925422215
    },
    {
        "code": 6101072008,
        "district_code": 610107,
        "regency_code": 6101,
        "province_code": 61,
        "name": "Bentunai",
        "postal_code": "79452",
        "latitude": 1.0898190017219211,
        "longitude": 109.0342184179859
    },
    {
        "code": 6101072013,
        "district_code": 610107,
        "regency_code": 6101,
        "province_code": 61,
        "name": "Pangkalan Bemban",
        "postal_code": "79452",
        "latitude": 1.0451963495077192,
        "longitude": 109.00853397172108
    },
    {
        "code": 6101072014,
        "district_code": 610107,
        "regency_code": 6101,
        "province_code": 61,
        "name": "Parit Kongsi",
        "postal_code": "79452",
        "latitude": 1.0533256231136436,
        "longitude": 109.02536665542412
    },
    {
        "code": 6101072015,
        "district_code": 610107,
        "regency_code": 6101,
        "province_code": 61,
        "name": "Gayung Bersambut",
        "postal_code": "79452",
        "latitude": 1.0131127149843433,
        "longitude": 109.04275032919539
    },
    {
        "code": 6101082001,
        "district_code": 610108,
        "regency_code": 6101,
        "province_code": 61,
        "name": "Sebubus",
        "postal_code": "79466",
        "latitude": 1.839669276420415,
        "longitude": 109.41128513934181
    },
    {
        "code": 6101082002,
        "district_code": 610108,
        "regency_code": 6101,
        "province_code": 61,
        "name": "Nibung",
        "postal_code": "79466",
        "latitude": 1.717523276972907,
        "longitude": 109.32715421203912
    },
    {
        "code": 6101082003,
        "district_code": 610108,
        "regency_code": 6101,
        "province_code": 61,
        "name": "Malek",
        "postal_code": "79466",
        "latitude": 1.6975268234091567,
        "longitude": 109.29715201077998
    },
    {
        "code": 6101082004,
        "district_code": 610108,
        "regency_code": 6101,
        "province_code": 61,
        "name": "Tanah Hitam",
        "postal_code": "79466",
        "latitude": 1.6283476698749748,
        "longitude": 109.24697302557496
    },
    {
        "code": 6101082005,
        "district_code": 610108,
        "regency_code": 6101,
        "province_code": 61,
        "name": "Matang Danau",
        "postal_code": "79466",
        "latitude": 1.5992436116258675,
        "longitude": 109.2012305968819
    },
    {
        "code": 6101082006,
        "district_code": 610108,
        "regency_code": 6101,
        "province_code": 61,
        "name": "Kalimantan",
        "postal_code": "79466",
        "latitude": 1.6057528468375366,
        "longitude": 109.18037715900513
    },
    {
        "code": 6101082007,
        "district_code": 610108,
        "regency_code": 6101,
        "province_code": 61,
        "name": "Temajuk",
        "postal_code": "79466",
        "latitude": 1.9566166275306913,
        "longitude": 109.52638228163529
    },
    {
        "code": 6101082008,
        "district_code": 610108,
        "regency_code": 6101,
        "province_code": 61,
        "name": "Mentibar",
        "postal_code": "79466",
        "latitude": 1.6630196061832914,
        "longitude": 109.2840029067392
    },
    {
        "code": 6101092001,
        "district_code": 610109,
        "regency_code": 6101,
        "province_code": 61,
        "name": "Kaliau'",
        "postal_code": "79467",
        "latitude": 1.5863546837987457,
        "longitude": 109.59214126895215
    },
    {
        "code": 6101092002,
        "district_code": 610109,
        "regency_code": 6101,
        "province_code": 61,
        "name": "Sebunga",
        "postal_code": "79467",
        "latitude": 1.5139261824827686,
        "longitude": 109.66439746169199
    },
    {
        "code": 6101092003,
        "district_code": 610109,
        "regency_code": 6101,
        "province_code": 61,
        "name": "Santaban",
        "postal_code": "79467",
        "latitude": 1.6656184208244758,
        "longitude": 109.50892580620041
    },
    {
        "code": 6101092004,
        "district_code": 610109,
        "regency_code": 6101,
        "province_code": 61,
        "name": "Senatab",
        "postal_code": "79467",
        "latitude": 1.6581609770614714,
        "longitude": 109.59194797589886
    },
    {
        "code": 6101092005,
        "district_code": 610109,
        "regency_code": 6101,
        "province_code": 61,
        "name": "Sungai Bening",
        "postal_code": "79467",
        "latitude": 1.768059440004376,
        "longitude": 109.55308119514812
    },
    {
        "code": 6101102001,
        "district_code": 610110,
        "regency_code": 6101,
        "province_code": 61,
        "name": "Balai Gemuruh",
        "postal_code": "79417",
        "latitude": 1.1455477617592755,
        "longitude": 109.42691115034546
    },
    {
        "code": 6101102002,
        "district_code": 610110,
        "regency_code": 6101,
        "province_code": 61,
        "name": "Sungai Sapa'",
        "postal_code": "79417",
        "latitude": 1.2075528334965853,
        "longitude": 109.53879532399348
    },
    {
        "code": 6101102003,
        "district_code": 610110,
        "regency_code": 6101,
        "province_code": 61,
        "name": "Madak",
        "postal_code": "79417",
        "latitude": 1.222767967069438,
        "longitude": 109.35607793607952
    },
    {
        "code": 6101102004,
        "district_code": 610110,
        "regency_code": 6101,
        "province_code": 61,
        "name": "Sabung",
        "postal_code": "79417",
        "latitude": 1.2850262232793241,
        "longitude": 109.3840200049303
    },
    {
        "code": 6101102005,
        "district_code": 610110,
        "regency_code": 6101,
        "province_code": 61,
        "name": "Tebuah Elok",
        "postal_code": "79417",
        "latitude": 1.0771917018414126,
        "longitude": 109.47714171260164
    },
    {
        "code": 6101102006,
        "district_code": 610110,
        "regency_code": 6101,
        "province_code": 61,
        "name": "Sungai Deden",
        "postal_code": "79417",
        "latitude": 1.3012652750671099,
        "longitude": 109.50052196064733
    },
    {
        "code": 6101102007,
        "district_code": 610110,
        "regency_code": 6101,
        "province_code": 61,
        "name": "Bukit Mulya",
        "postal_code": "79417",
        "latitude": 1.2214658912256375,
        "longitude": 109.50733442921432
    },
    {
        "code": 6101102008,
        "district_code": 610110,
        "regency_code": 6101,
        "province_code": 61,
        "name": "Mukti Raharja",
        "postal_code": "79417",
        "latitude": 1.2698081971999728,
        "longitude": 109.44237521190212
    },
    {
        "code": 6101102009,
        "district_code": 610110,
        "regency_code": 6101,
        "province_code": 61,
        "name": "Sempurna",
        "postal_code": "79417",
        "latitude": 1.2206369757174877,
        "longitude": 109.58440663414267
    },
    {
        "code": 6101102010,
        "district_code": 610110,
        "regency_code": 6101,
        "province_code": 61,
        "name": "Mensade",
        "postal_code": "79417",
        "latitude": 1.1359902897268783,
        "longitude": 109.50493604603524
    },
    {
        "code": 6101102011,
        "district_code": 610110,
        "regency_code": 6101,
        "province_code": 61,
        "name": "Karaban Jaya",
        "postal_code": "79417",
        "latitude": 1.224775074916428,
        "longitude": 109.46629556337116
    },
    {
        "code": 6101102012,
        "district_code": 610110,
        "regency_code": 6101,
        "province_code": 61,
        "name": "Arga Pura",
        "postal_code": "79417",
        "latitude": null,
        "longitude": null
    },
    {
        "code": 6101102013,
        "district_code": 610110,
        "regency_code": 6101,
        "province_code": 61,
        "name": "Sapak Hulu Trans",
        "postal_code": "79417",
        "latitude": null,
        "longitude": null
    },
    {
        "code": 6101112001,
        "district_code": 610111,
        "regency_code": 6101,
        "province_code": 61,
        "name": "Sagu",
        "postal_code": "79453",
        "latitude": 1.6498125093039706,
        "longitude": 109.42192889561265
    },
    {
        "code": 6101112002,
        "district_code": 610111,
        "regency_code": 6101,
        "province_code": 61,
        "name": "Sungai Palah",
        "postal_code": "79453",
        "latitude": 1.565072632054815,
        "longitude": 109.38141930416394
    },
    {
        "code": 6101112003,
        "district_code": 610111,
        "regency_code": 6101,
        "province_code": 61,
        "name": "Galing",
        "postal_code": "79453",
        "latitude": 1.531766791442167,
        "longitude": 109.38241999869774
    },
    {
        "code": 6101112004,
        "district_code": 610111,
        "regency_code": 6101,
        "province_code": 61,
        "name": "Tempapan Kuala",
        "postal_code": "79453",
        "latitude": 1.5654585202837195,
        "longitude": 109.31905678788384
    },
    {
        "code": 6101112005,
        "district_code": 610111,
        "regency_code": 6101,
        "province_code": 61,
        "name": "Tempapan Hulu",
        "postal_code": "79453",
        "latitude": 1.6519121112791026,
        "longitude": 109.34540003817636
    },
    {
        "code": 6101112006,
        "district_code": 610111,
        "regency_code": 6101,
        "province_code": 61,
        "name": "Ratu Sepudak",
        "postal_code": "79453",
        "latitude": 1.5125497047718266,
        "longitude": 109.3770857895111
    },
    {
        "code": 6101112007,
        "district_code": 610111,
        "regency_code": 6101,
        "province_code": 61,
        "name": "Tri Kembang",
        "postal_code": "79453",
        "latitude": 1.4817299269144923,
        "longitude": 109.34656155879554
    },
    {
        "code": 6101112008,
        "district_code": 610111,
        "regency_code": 6101,
        "province_code": 61,
        "name": "Tri Gadu",
        "postal_code": "79453",
        "latitude": 1.5296534562127957,
        "longitude": 109.33748639132826
    },
    {
        "code": 6101112009,
        "district_code": 610111,
        "regency_code": 6101,
        "province_code": 61,
        "name": "Teluk Pandan",
        "postal_code": "79453",
        "latitude": 1.6226394538282358,
        "longitude": 109.37403213060284
    },
    {
        "code": 6101112010,
        "district_code": 610111,
        "regency_code": 6101,
        "province_code": 61,
        "name": "Sijang",
        "postal_code": "79453",
        "latitude": 1.5457355800430992,
        "longitude": 109.467949464461
    },
    {
        "code": 6101122001,
        "district_code": 610112,
        "regency_code": 6101,
        "province_code": 61,
        "name": "Tekarang",
        "postal_code": "79468",
        "latitude": 1.269114935225061,
        "longitude": 109.1304407818051
    },
    {
        "code": 6101122002,
        "district_code": 610112,
        "regency_code": 6101,
        "province_code": 61,
        "name": "Merubung",
        "postal_code": "79468",
        "latitude": 1.3092575609515325,
        "longitude": 109.14365470428312
    },
    {
        "code": 6101122003,
        "district_code": 610112,
        "regency_code": 6101,
        "province_code": 61,
        "name": "Cepala",
        "postal_code": "79468",
        "latitude": 1.3078828577268884,
        "longitude": 109.12761605620695
    },
    {
        "code": 6101122004,
        "district_code": 610112,
        "regency_code": 6101,
        "province_code": 61,
        "name": "Sari Makmur",
        "postal_code": "79468",
        "latitude": 1.2942998977841882,
        "longitude": 109.09277761909858
    },
    {
        "code": 6101122005,
        "district_code": 610112,
        "regency_code": 6101,
        "province_code": 61,
        "name": "Rambayan",
        "postal_code": "79468",
        "latitude": 1.25780286087241,
        "longitude": 109.12010760495393
    },
    {
        "code": 6101122006,
        "district_code": 610112,
        "regency_code": 6101,
        "province_code": 61,
        "name": "Sempadian",
        "postal_code": "79468",
        "latitude": 1.295581948218456,
        "longitude": 109.12017282527623
    },
    {
        "code": 6101122007,
        "district_code": 610112,
        "regency_code": 6101,
        "province_code": 61,
        "name": "Matang Segarau",
        "postal_code": "79468",
        "latitude": 1.269805625953462,
        "longitude": 109.0971840859311
    },
    {
        "code": 6101132001,
        "district_code": 610113,
        "regency_code": 6101,
        "province_code": 61,
        "name": "Singa Raya",
        "postal_code": "79457",
        "latitude": 1.1760971115087795,
        "longitude": 109.05647387928676
    },
    {
        "code": 6101132002,
        "district_code": 610113,
        "regency_code": 6101,
        "province_code": 61,
        "name": "Semparuk",
        "postal_code": "79457",
        "latitude": 1.1869959635077,
        "longitude": 109.07962417901327
    },
    {
        "code": 6101132003,
        "district_code": 610113,
        "regency_code": 6101,
        "province_code": 61,
        "name": "Sepinggan",
        "postal_code": "79457",
        "latitude": 1.134359787161225,
        "longitude": 109.09737779465542
    },
    {
        "code": 6101132004,
        "district_code": 610113,
        "regency_code": 6101,
        "province_code": 61,
        "name": "Sepadu",
        "postal_code": "79457",
        "latitude": 1.125341384228722,
        "longitude": 109.08369555406514
    },
    {
        "code": 6101132005,
        "district_code": 610113,
        "regency_code": 6101,
        "province_code": 61,
        "name": "Seburing",
        "postal_code": "79457",
        "latitude": 1.13657310311856,
        "longitude": 109.05933977249735
    },
    {
        "code": 6101142001,
        "district_code": 610114,
        "regency_code": 6101,
        "province_code": 61,
        "name": "Jirak",
        "postal_code": "79462",
        "latitude": 1.4108577211392608,
        "longitude": 109.3531874838904
    },
    {
        "code": 6101142002,
        "district_code": 610114,
        "regency_code": 6101,
        "province_code": 61,
        "name": "Tengguli",
        "postal_code": "79462",
        "latitude": 1.4024296852587488,
        "longitude": 109.37530349586517
    },
    {
        "code": 6101142003,
        "district_code": 610114,
        "regency_code": 6101,
        "province_code": 61,
        "name": "Mekar Jaya",
        "postal_code": "79462",
        "latitude": 1.388037493142102,
        "longitude": 109.40336405421472
    },
    {
        "code": 6101142004,
        "district_code": 610114,
        "regency_code": 6101,
        "province_code": 61,
        "name": "Beringin",
        "postal_code": "79462",
        "latitude": 1.3800626509362508,
        "longitude": 109.44159230821904
    },
    {
        "code": 6101152001,
        "district_code": 610115,
        "regency_code": 6101,
        "province_code": 61,
        "name": "Rantau Panjang",
        "postal_code": "79464",
        "latitude": 1.307441390362437,
        "longitude": 109.23730684960657
    },
    {
        "code": 6101152002,
        "district_code": 610115,
        "regency_code": 6101,
        "province_code": 61,
        "name": "Tebing Batu",
        "postal_code": "79464",
        "latitude": 1.2871214103975823,
        "longitude": 109.24788366799098
    },
    {
        "code": 6101152003,
        "district_code": 610115,
        "regency_code": 6101,
        "province_code": 61,
        "name": "Sebawi",
        "postal_code": "79464",
        "latitude": 1.2495309138894743,
        "longitude": 109.24589351173196
    },
    {
        "code": 6101152004,
        "district_code": 610115,
        "regency_code": 6101,
        "province_code": 61,
        "name": "Sepuk Tanjung",
        "postal_code": "79464",
        "latitude": 1.27440995820894,
        "longitude": 109.19454592534545
    },
    {
        "code": 6101152005,
        "district_code": 610115,
        "regency_code": 6101,
        "province_code": 61,
        "name": "Sebangun",
        "postal_code": "79464",
        "latitude": 1.2956972796156547,
        "longitude": 109.18096297054821
    },
    {
        "code": 6101152006,
        "district_code": 610115,
        "regency_code": 6101,
        "province_code": 61,
        "name": "Sempalai Sebedang",
        "postal_code": "79464",
        "latitude": 1.2459481393021778,
        "longitude": 109.2001127056509
    },
    {
        "code": 6101152007,
        "district_code": 610115,
        "regency_code": 6101,
        "province_code": 61,
        "name": "Tempatan",
        "postal_code": "79464",
        "latitude": 1.3232953272706567,
        "longitude": 109.19987253253376
    },
    {
        "code": 6101162001,
        "district_code": 610116,
        "regency_code": 6101,
        "province_code": 61,
        "name": "Jawai Laut",
        "postal_code": "79154",
        "latitude": 1.2449556174896348,
        "longitude": 108.99181262362855
    },
    {
        "code": 6101162002,
        "district_code": 610116,
        "regency_code": 6101,
        "province_code": 61,
        "name": "Jelu Air",
        "postal_code": "79154",
        "latitude": 1.225273406279001,
        "longitude": 109.01235790252129
    },
    {
        "code": 6101162003,
        "district_code": 610116,
        "regency_code": 6101,
        "province_code": 61,
        "name": "Matang Terap",
        "postal_code": "79154",
        "latitude": 1.2691242620776586,
        "longitude": 109.02108993155974
    },
    {
        "code": 6101162004,
        "district_code": 610116,
        "regency_code": 6101,
        "province_code": 61,
        "name": "Suah Api",
        "postal_code": "79154",
        "latitude": 1.2843653993191289,
        "longitude": 109.04702847120242
    },
    {
        "code": 6101162005,
        "district_code": 610116,
        "regency_code": 6101,
        "province_code": 61,
        "name": "Sari Laba A",
        "postal_code": "79154",
        "latitude": 1.25978631578574,
        "longitude": 109.03174765958917
    },
    {
        "code": 6101162006,
        "district_code": 610116,
        "regency_code": 6101,
        "province_code": 61,
        "name": "Sari Laba B",
        "postal_code": "79154",
        "latitude": 1.2238339715226079,
        "longitude": 109.04060243225558
    },
    {
        "code": 6101162007,
        "district_code": 610116,
        "regency_code": 6101,
        "province_code": 61,
        "name": "Semperiuk A",
        "postal_code": "79154",
        "latitude": 1.2643241976716302,
        "longitude": 109.04369391671948
    },
    {
        "code": 6101162008,
        "district_code": 610116,
        "regency_code": 6101,
        "province_code": 61,
        "name": "Semperiuk B",
        "postal_code": "79154",
        "latitude": 1.224418473263123,
        "longitude": 109.05352050037777
    },
    {
        "code": 6101162009,
        "district_code": 610116,
        "regency_code": 6101,
        "province_code": 61,
        "name": "Sabaran",
        "postal_code": "79154",
        "latitude": 1.239496869902682,
        "longitude": 109.07000041992204
    },
    {
        "code": 6101172001,
        "district_code": 610117,
        "regency_code": 6101,
        "province_code": 61,
        "name": "Tangaran",
        "postal_code": "79465",
        "latitude": 1.5339004354948909,
        "longitude": 109.20633503184412
    },
    {
        "code": 6101172002,
        "district_code": 610117,
        "regency_code": 6101,
        "province_code": 61,
        "name": "Simpang Empat",
        "postal_code": "79465",
        "latitude": 1.5340636527000169,
        "longitude": 109.10792531298226
    },
    {
        "code": 6101172003,
        "district_code": 610117,
        "regency_code": 6101,
        "province_code": 61,
        "name": "Merabuan",
        "postal_code": "79465",
        "latitude": 1.5831016108803104,
        "longitude": 109.18160849399445
    },
    {
        "code": 6101172004,
        "district_code": 610117,
        "regency_code": 6101,
        "province_code": 61,
        "name": "Semata",
        "postal_code": "79465",
        "latitude": 1.5078406823702866,
        "longitude": 109.13387655513914
    },
    {
        "code": 6101172005,
        "district_code": 610117,
        "regency_code": 6101,
        "province_code": 61,
        "name": "Merpati",
        "postal_code": "79465",
        "latitude": 1.5458525471882483,
        "longitude": 109.18408148307414
    },
    {
        "code": 6101172006,
        "district_code": 610117,
        "regency_code": 6101,
        "province_code": 61,
        "name": "Pancur",
        "postal_code": "79465",
        "latitude": 1.5613306552756898,
        "longitude": 109.16796438427119
    },
    {
        "code": 6101172007,
        "district_code": 610117,
        "regency_code": 6101,
        "province_code": 61,
        "name": "Arung Parak",
        "postal_code": "79465",
        "latitude": 1.5898084124529313,
        "longitude": 109.16245985514695
    },
    {
        "code": 6101172008,
        "district_code": 610117,
        "regency_code": 6101,
        "province_code": 61,
        "name": "Arung Medang",
        "postal_code": "79465",
        "latitude": 1.5762111234995129,
        "longitude": 109.1378457053909
    },
    {
        "code": 6101182001,
        "district_code": 610118,
        "regency_code": 6101,
        "province_code": 61,
        "name": "Parit Baru",
        "postal_code": "79456",
        "latitude": 1.10275973062611,
        "longitude": 108.97045083176054
    },
    {
        "code": 6101182002,
        "district_code": 610118,
        "regency_code": 6101,
        "province_code": 61,
        "name": "Sungai Toman",
        "postal_code": "79456",
        "latitude": 1.122422147470138,
        "longitude": 109.03942190418992
    },
    {
        "code": 6101182003,
        "district_code": 610118,
        "regency_code": 6101,
        "province_code": 61,
        "name": "Serunai",
        "postal_code": "79456",
        "latitude": 1.1252647916258594,
        "longitude": 109.05681190081401
    },
    {
        "code": 6101182004,
        "district_code": 610118,
        "regency_code": 6101,
        "province_code": 61,
        "name": "Serumpun",
        "postal_code": "79456",
        "latitude": 1.1000939943727301,
        "longitude": 109.06988408665492
    },
    {
        "code": 6101182005,
        "district_code": 610118,
        "regency_code": 6101,
        "province_code": 61,
        "name": "Salatiga",
        "postal_code": "79456",
        "latitude": 1.1196788325037597,
        "longitude": 109.00572745377453
    },
    {
        "code": 6101192001,
        "district_code": 610119,
        "regency_code": 6101,
        "province_code": 61,
        "name": "Gelik",
        "postal_code": "79451",
        "latitude": 1.0775589745595457,
        "longitude": 109.04274845520847
    },
    {
        "code": 6101192002,
        "district_code": 610119,
        "regency_code": 6101,
        "province_code": 61,
        "name": "Seranggam",
        "postal_code": "79451",
        "latitude": 1.0773186551540914,
        "longitude": 109.06758863599546
    },
    {
        "code": 6101192003,
        "district_code": 610119,
        "regency_code": 6101,
        "province_code": 61,
        "name": "Selakau Tua",
        "postal_code": "79451",
        "latitude": 1.0489487867581695,
        "longitude": 109.07385186403569
    },
    {
        "code": 6101192004,
        "district_code": 610119,
        "regency_code": 6101,
        "province_code": 61,
        "name": "Buduk Sempadang",
        "postal_code": "79451",
        "latitude": 1.0271082839192816,
        "longitude": 109.1649500636229
    },
    {
        "code": 6102011006,
        "district_code": 610201,
        "regency_code": 6102,
        "province_code": 61,
        "name": "Tanjung",
        "postal_code": "78913",
        "latitude": 0.33667579310145596,
        "longitude": 108.930572638055
    },
    {
        "code": 6102011007,
        "district_code": 610201,
        "regency_code": 6102,
        "province_code": 61,
        "name": "Tengah",
        "postal_code": "78911",
        "latitude": 0.35358424486919643,
        "longitude": 108.94911328659502
    },
    {
        "code": 6102011009,
        "district_code": 610201,
        "regency_code": 6102,
        "province_code": 61,
        "name": "Terusan",
        "postal_code": "78912",
        "latitude": 0.37007719763689956,
        "longitude": 108.95173124590417
    },
    {
        "code": 6102012001,
        "district_code": 610201,
        "regency_code": 6102,
        "province_code": 61,
        "name": "Sengkubang",
        "postal_code": "78919",
        "latitude": 0.443870477744359,
        "longitude": 109.0318098435952
    },
    {
        "code": 6102012002,
        "district_code": 610201,
        "regency_code": 6102,
        "province_code": 61,
        "name": "Penibung",
        "postal_code": "78919",
        "latitude": 0.41617135030140967,
        "longitude": 108.9752260059305
    },
    {
        "code": 6102012003,
        "district_code": 610201,
        "regency_code": 6102,
        "province_code": 61,
        "name": "Pasir",
        "postal_code": "78919",
        "latitude": 0.41179262596391286,
        "longitude": 109.02389058602643
    },
    {
        "code": 6102012013,
        "district_code": 610201,
        "regency_code": 6102,
        "province_code": 61,
        "name": "Kuala Secapah",
        "postal_code": "78914",
        "latitude": 0.32741070716947285,
        "longitude": 108.95652495879958
    },
    {
        "code": 6102012015,
        "district_code": 610201,
        "regency_code": 6102,
        "province_code": 61,
        "name": "Malikian",
        "postal_code": "78919",
        "latitude": 0.47606111770272946,
        "longitude": 109.05408973701881
    },
    {
        "code": 6102062001,
        "district_code": 610206,
        "regency_code": 6102,
        "province_code": 61,
        "name": "Toho Ilir",
        "postal_code": "78360",
        "latitude": 0.4449504531245199,
        "longitude": 109.1689172510621
    },
    {
        "code": 6102062002,
        "district_code": 610206,
        "regency_code": 6102,
        "province_code": 61,
        "name": "Pak Laheng",
        "postal_code": "78360",
        "latitude": 0.3966867954831243,
        "longitude": 109.23977214483092
    },
    {
        "code": 6102062003,
        "district_code": 610206,
        "regency_code": 6102,
        "province_code": 61,
        "name": "Kecurit",
        "postal_code": "78360",
        "latitude": 0.39990920713542216,
        "longitude": 109.15973475625198
    },
    {
        "code": 6102062004,
        "district_code": 610206,
        "regency_code": 6102,
        "province_code": 61,
        "name": "Terap",
        "postal_code": "78360",
        "latitude": 0.38871515667267104,
        "longitude": 109.20635266201992
    },
    {
        "code": 6102062005,
        "district_code": 610206,
        "regency_code": 6102,
        "province_code": 61,
        "name": "Sepang",
        "postal_code": "78360",
        "latitude": 0.44166280644998607,
        "longitude": 109.24899991017577
    },
    {
        "code": 6102062006,
        "district_code": 610206,
        "regency_code": 6102,
        "province_code": 61,
        "name": "Pak Utan",
        "postal_code": "78360",
        "latitude": 0.40218863071723415,
        "longitude": 109.28465927229581
    },
    {
        "code": 6102062007,
        "district_code": 610206,
        "regency_code": 6102,
        "province_code": 61,
        "name": "Benuang",
        "postal_code": "78360",
        "latitude": 0.3724063552960039,
        "longitude": 109.28982860252339
    },
    {
        "code": 6102062008,
        "district_code": 610206,
        "regency_code": 6102,
        "province_code": 61,
        "name": "Sambora",
        "postal_code": "78360",
        "latitude": 0.35125702338753956,
        "longitude": 109.27050593630099
    },
    {
        "code": 6102071011,
        "district_code": 610207,
        "regency_code": 6102,
        "province_code": 61,
        "name": "Sungai Pinyuh",
        "postal_code": "78354",
        "latitude": 0.27766112942769633,
        "longitude": 109.07272802161211
    },
    {
        "code": 6102072001,
        "district_code": 610207,
        "regency_code": 6102,
        "province_code": 61,
        "name": "Sungai Rasau",
        "postal_code": "78354",
        "latitude": 0.3237798530367508,
        "longitude": 109.09385777023843
    },
    {
        "code": 6102072002,
        "district_code": 610207,
        "regency_code": 6102,
        "province_code": 61,
        "name": "Sungai Bakau Besar Darat",
        "postal_code": "78354",
        "latitude": 0.3318520728318328,
        "longitude": 109.06507264580972
    },
    {
        "code": 6102072003,
        "district_code": 610207,
        "regency_code": 6102,
        "province_code": 61,
        "name": "Sungai Purun Kecil",
        "postal_code": "78354",
        "latitude": 0.2447335683760339,
        "longitude": 109.15510632398218
    },
    {
        "code": 6102072004,
        "district_code": 610207,
        "regency_code": 6102,
        "province_code": 61,
        "name": "Sungai Bakau Besar Laut",
        "postal_code": "78354",
        "latitude": 0.29849253092748157,
        "longitude": 109.03763484201225
    },
    {
        "code": 6102072005,
        "district_code": 610207,
        "regency_code": 6102,
        "province_code": 61,
        "name": "Sungai Batang",
        "postal_code": "78354",
        "latitude": 0.2919489865352643,
        "longitude": 109.05625546384096
    },
    {
        "code": 6102072006,
        "district_code": 610207,
        "regency_code": 6102,
        "province_code": 61,
        "name": "Peniraman",
        "postal_code": "78354",
        "latitude": 0.24329268156075848,
        "longitude": 109.12692344321027
    },
    {
        "code": 6102072007,
        "district_code": 610207,
        "regency_code": 6102,
        "province_code": 61,
        "name": "Nusapati",
        "postal_code": "78354",
        "latitude": 0.27284656324670037,
        "longitude": 109.11646652263008
    },
    {
        "code": 6102072008,
        "district_code": 610207,
        "regency_code": 6102,
        "province_code": 61,
        "name": "Galang",
        "postal_code": "78354",
        "latitude": 0.29621751408170616,
        "longitude": 109.11319622272399
    },
    {
        "code": 6102082001,
        "district_code": 610208,
        "regency_code": 6102,
        "province_code": 61,
        "name": "Wajok Hilir",
        "postal_code": "78352",
        "latitude": 0.07044032266472788,
        "longitude": 109.25140856645076
    },
    {
        "code": 6102082002,
        "district_code": 610208,
        "regency_code": 6102,
        "province_code": 61,
        "name": "Sungai Nipah",
        "postal_code": "78352",
        "latitude": 0.08736842449613172,
        "longitude": 109.18360837067605
    },
    {
        "code": 6102082006,
        "district_code": 610208,
        "regency_code": 6102,
        "province_code": 61,
        "name": "Peniti Luar",
        "postal_code": "78352",
        "latitude": 0.12885765402242488,
        "longitude": 109.16676220301592
    },
    {
        "code": 6102082009,
        "district_code": 610208,
        "regency_code": 6102,
        "province_code": 61,
        "name": "Wajok Hulu",
        "postal_code": "78352",
        "latitude": 0.07863560168992674,
        "longitude": 109.32775709140351
    },
    {
        "code": 6102082010,
        "district_code": 610208,
        "regency_code": 6102,
        "province_code": 61,
        "name": "Jungkat",
        "postal_code": "78352",
        "latitude": 0.0896398049305978,
        "longitude": 109.21867041714107
    },
    {
        "code": 6102122001,
        "district_code": 610212,
        "regency_code": 6102,
        "province_code": 61,
        "name": "Sungai Duri I",
        "postal_code": "78371",
        "latitude": 0.5494184839119002,
        "longitude": 108.92764901655303
    },
    {
        "code": 6102122002,
        "district_code": 610212,
        "regency_code": 6102,
        "province_code": 61,
        "name": "Sungai Duri II",
        "postal_code": "78371",
        "latitude": 0.5327882505039209,
        "longitude": 108.93312779958286
    },
    {
        "code": 6102122003,
        "district_code": 610212,
        "regency_code": 6102,
        "province_code": 61,
        "name": "Bukit Batu",
        "postal_code": "78371",
        "latitude": 0.5329185990291756,
        "longitude": 108.9999035210667
    },
    {
        "code": 6102122004,
        "district_code": 610212,
        "regency_code": 6102,
        "province_code": 61,
        "name": "Sungai Bundung Laut",
        "postal_code": "78371",
        "latitude": 0.5176288383858891,
        "longitude": 108.9222621501006
    },
    {
        "code": 6102122005,
        "district_code": 610212,
        "regency_code": 6102,
        "province_code": 61,
        "name": "Sungai Kunyit Laut",
        "postal_code": "78371",
        "latitude": 0.5004375615917056,
        "longitude": 108.88045127005532
    },
    {
        "code": 6102122006,
        "district_code": 610212,
        "regency_code": 6102,
        "province_code": 61,
        "name": "Sungai Kunyit Dalam",
        "postal_code": "78371",
        "latitude": 0.4927708504107291,
        "longitude": 108.9343484982407
    },
    {
        "code": 6102122007,
        "district_code": 610212,
        "regency_code": 6102,
        "province_code": 61,
        "name": "Sungai Kunyit Hulu",
        "postal_code": "78371",
        "latitude": 0.510319425516008,
        "longitude": 109.00720051865868
    },
    {
        "code": 6102122008,
        "district_code": 610212,
        "regency_code": 6102,
        "province_code": 61,
        "name": "Sungai Limau",
        "postal_code": "78371",
        "latitude": 0.48840864257636496,
        "longitude": 108.91749711612621
    },
    {
        "code": 6102122009,
        "district_code": 610212,
        "regency_code": 6102,
        "province_code": 61,
        "name": "Sungai Dungun",
        "postal_code": "78371",
        "latitude": 0.47620921383637715,
        "longitude": 108.92624637653907
    },
    {
        "code": 6102122010,
        "district_code": 610212,
        "regency_code": 6102,
        "province_code": 61,
        "name": "Mendalok",
        "postal_code": "78371",
        "latitude": 0.4729524355524995,
        "longitude": 108.94650315300768
    },
    {
        "code": 6102122011,
        "district_code": 610212,
        "regency_code": 6102,
        "province_code": 61,
        "name": "Semparong Parit Raden",
        "postal_code": "78371",
        "latitude": 0.49357818930065805,
        "longitude": 109.00809352997045
    },
    {
        "code": 6102122012,
        "district_code": 610212,
        "regency_code": 6102,
        "province_code": 61,
        "name": "Semudun",
        "postal_code": "78371",
        "latitude": 0.4907429656184147,
        "longitude": 109.03453030953395
    },
    {
        "code": 6102152001,
        "district_code": 610215,
        "regency_code": 6102,
        "province_code": 61,
        "name": "Peniti Besar",
        "postal_code": "78351",
        "latitude": 0.21016491039542895,
        "longitude": 109.21440873723766
    },
    {
        "code": 6102152002,
        "district_code": 610215,
        "regency_code": 6102,
        "province_code": 61,
        "name": "Sungai Purun Besar",
        "postal_code": "78351",
        "latitude": 0.19854295430470542,
        "longitude": 109.16226144604731
    },
    {
        "code": 6102152003,
        "district_code": 610215,
        "regency_code": 6102,
        "province_code": 61,
        "name": "Parit Bugis",
        "postal_code": "78351",
        "latitude": 0.17647170608658794,
        "longitude": 109.18449961658634
    },
    {
        "code": 6102152004,
        "district_code": 610215,
        "regency_code": 6102,
        "province_code": 61,
        "name": "Peniti Dalam I",
        "postal_code": "78351",
        "latitude": 0.17000674772355476,
        "longitude": 109.29285265241366
    },
    {
        "code": 6102152005,
        "district_code": 610215,
        "regency_code": 6102,
        "province_code": 61,
        "name": "Peniti Dalam II",
        "postal_code": "78351",
        "latitude": 0.1968050914261436,
        "longitude": 109.2666961158274
    },
    {
        "code": 6102152006,
        "district_code": 610215,
        "regency_code": 6102,
        "province_code": 61,
        "name": "Sungai Burung",
        "postal_code": "78351",
        "latitude": 0.16283022863590252,
        "longitude": 109.16752355392101
    },
    {
        "code": 6102161001,
        "district_code": 610216,
        "regency_code": 6102,
        "province_code": 61,
        "name": "Anjungan Melancar",
        "postal_code": "78353",
        "latitude": 0.33763358291936457,
        "longitude": 109.1520244492874
    },
    {
        "code": 6102162002,
        "district_code": 610216,
        "regency_code": 6102,
        "province_code": 61,
        "name": "Anjungan Dalam",
        "postal_code": "78353",
        "latitude": 0.36721942996606033,
        "longitude": 109.11665667183927
    },
    {
        "code": 6102162003,
        "district_code": 610216,
        "regency_code": 6102,
        "province_code": 61,
        "name": "Kepayang",
        "postal_code": "78353",
        "latitude": 0.3225854321916566,
        "longitude": 109.18008005748575
    },
    {
        "code": 6102162004,
        "district_code": 610216,
        "regency_code": 6102,
        "province_code": 61,
        "name": "Pak Bulu",
        "postal_code": "78353",
        "latitude": 0.337497492623515,
        "longitude": 109.20692886114578
    },
    {
        "code": 6102162005,
        "district_code": 610216,
        "regency_code": 6102,
        "province_code": 61,
        "name": "Dema",
        "postal_code": "78353",
        "latitude": 0.35195318499511974,
        "longitude": 109.22447117486865
    },
    {
        "code": 6102172001,
        "district_code": 610217,
        "regency_code": 6102,
        "province_code": 61,
        "name": "Sekabuk",
        "postal_code": "78361",
        "latitude": 0.500258676883382,
        "longitude": 109.16107980411192
    },
    {
        "code": 6102172002,
        "district_code": 610217,
        "regency_code": 6102,
        "province_code": 61,
        "name": "Pentek",
        "postal_code": "78361",
        "latitude": 0.5379745104430433,
        "longitude": 109.18959481052681
    },
    {
        "code": 6102172003,
        "district_code": 610217,
        "regency_code": 6102,
        "province_code": 61,
        "name": "Bum-bun",
        "postal_code": "78361",
        "latitude": 0.5623280479479492,
        "longitude": 109.08613774939913
    },
    {
        "code": 6102172004,
        "district_code": 610217,
        "regency_code": 6102,
        "province_code": 61,
        "name": "Amawang",
        "postal_code": "78361",
        "latitude": 0.5849830114083872,
        "longitude": 109.13953787997406
    },
    {
        "code": 6102172005,
        "district_code": 610217,
        "regency_code": 6102,
        "province_code": 61,
        "name": "Ansiap",
        "postal_code": "78361",
        "latitude": 0.6117799123992302,
        "longitude": 109.22299473727821
    },
    {
        "code": 6102172006,
        "district_code": 610217,
        "regency_code": 6102,
        "province_code": 61,
        "name": "Suak Barangan",
        "postal_code": "78361",
        "latitude": 0.6284694659621227,
        "longitude": 109.16492670929277
    },
    {
        "code": 6102181001,
        "district_code": 610218,
        "regency_code": 6102,
        "province_code": 61,
        "name": "Pulau Pedalaman",
        "postal_code": "78917",
        "latitude": 0.3713282588879133,
        "longitude": 108.96478429852228
    },
    {
        "code": 6102181002,
        "district_code": 610218,
        "regency_code": 6102,
        "province_code": 61,
        "name": "Pasir Wan Salim",
        "postal_code": "78915",
        "latitude": 0.3171677331418398,
        "longitude": 108.982807086922
    },
    {
        "code": 6102182003,
        "district_code": 610218,
        "regency_code": 6102,
        "province_code": 61,
        "name": "Antibar",
        "postal_code": "78917",
        "latitude": 0.3674891087668484,
        "longitude": 109.02720220661968
    },
    {
        "code": 6102182004,
        "district_code": 610218,
        "regency_code": 6102,
        "province_code": 61,
        "name": "Sejegi",
        "postal_code": "78918",
        "latitude": 0.39679527522198077,
        "longitude": 109.05660825468634
    },
    {
        "code": 6102182005,
        "district_code": 610218,
        "regency_code": 6102,
        "province_code": 61,
        "name": "Pasir Palembang",
        "postal_code": "78916",
        "latitude": 0.3506612339078105,
        "longitude": 108.99419118552728
    },
    {
        "code": 6102182006,
        "district_code": 610218,
        "regency_code": 6102,
        "province_code": 61,
        "name": "Pasir Panjang",
        "postal_code": "78915",
        "latitude": 0.33427410688086984,
        "longitude": 108.98434482548232
    },
    {
        "code": 6102182007,
        "district_code": 610218,
        "regency_code": 6102,
        "province_code": 61,
        "name": "Sungai Bakau Kecil",
        "postal_code": "78919",
        "latitude": 0.3290475440291802,
        "longitude": 109.00897927390257
    },
    {
        "code": 6102182008,
        "district_code": 610218,
        "regency_code": 6102,
        "province_code": 61,
        "name": "Parit Banjar",
        "postal_code": "78919",
        "latitude": 0.3342157013775569,
        "longitude": 109.03441743503649
    },
    {
        "code": 6103011001,
        "district_code": 610301,
        "regency_code": 6103,
        "province_code": 61,
        "name": "Tanjung Kapuas",
        "postal_code": "78516",
        "latitude": 0.13554767895432263,
        "longitude": 110.64643929582782
    },
    {
        "code": 6103011002,
        "district_code": 610301,
        "regency_code": 6103,
        "province_code": 61,
        "name": "Tanjung Sekayam",
        "postal_code": "78515",
        "latitude": 0.12806854120613895,
        "longitude": 110.60657951825458
    },
    {
        "code": 6103011003,
        "district_code": 610301,
        "regency_code": 6103,
        "province_code": 61,
        "name": "Sungai Sengkuang",
        "postal_code": "78514",
        "latitude": 0.16815889462013026,
        "longitude": 110.62505577823482
    },
    {
        "code": 6103011004,
        "district_code": 610301,
        "regency_code": 6103,
        "province_code": 61,
        "name": "Ilir Kota",
        "postal_code": "78513",
        "latitude": 0.13918689080407218,
        "longitude": 110.59871899150528
    },
    {
        "code": 6103011005,
        "district_code": 610301,
        "regency_code": 6103,
        "province_code": 61,
        "name": "Beringin",
        "postal_code": "78512",
        "latitude": 0.1120506514278924,
        "longitude": 110.58248087461871
    },
    {
        "code": 6103011006,
        "district_code": 610301,
        "regency_code": 6103,
        "province_code": 61,
        "name": "Bunut",
        "postal_code": "78511",
        "latitude": 0.11927697904144509,
        "longitude": 110.55255722855752
    },
    {
        "code": 6103012007,
        "district_code": 610301,
        "regency_code": 6103,
        "province_code": 61,
        "name": "Penyeladi",
        "postal_code": "78516",
        "latitude": 0.08577711744758659,
        "longitude": 110.67929050759618
    },
    {
        "code": 6103012008,
        "district_code": 610301,
        "regency_code": 6103,
        "province_code": 61,
        "name": "Nanga Biang",
        "postal_code": "78516",
        "latitude": -0.011708077734518568,
        "longitude": 110.66581522994879
    },
    {
        "code": 6103012009,
        "district_code": 610301,
        "regency_code": 6103,
        "province_code": 61,
        "name": "Rambin",
        "postal_code": "78516",
        "latitude": -0.11517338562129316,
        "longitude": 110.68463626731781
    },
    {
        "code": 6103012010,
        "district_code": 610301,
        "regency_code": 6103,
        "province_code": 61,
        "name": "Entakai",
        "postal_code": "78516",
        "latitude": 0.23529991353463253,
        "longitude": 110.68635615320778
    },
    {
        "code": 6103012011,
        "district_code": 610301,
        "regency_code": 6103,
        "province_code": 61,
        "name": "Pana",
        "postal_code": "78516",
        "latitude": 0.18515407088198418,
        "longitude": 110.68457846478329
    },
    {
        "code": 6103012012,
        "district_code": 610301,
        "regency_code": 6103,
        "province_code": 61,
        "name": "Mengkiang",
        "postal_code": "78516",
        "latitude": 0.23460704860841736,
        "longitude": 110.60300305906038
    },
    {
        "code": 6103012013,
        "district_code": 610301,
        "regency_code": 6103,
        "province_code": 61,
        "name": "Kambong",
        "postal_code": "78516",
        "latitude": 0.2770330406447393,
        "longitude": 110.64112125557688
    },
    {
        "code": 6103012014,
        "district_code": 610301,
        "regency_code": 6103,
        "province_code": 61,
        "name": "Sungai Mawang",
        "postal_code": "78516",
        "latitude": 0.18234939891592017,
        "longitude": 110.53932968208736
    },
    {
        "code": 6103012015,
        "district_code": 610301,
        "regency_code": 6103,
        "province_code": 61,
        "name": "Lape",
        "postal_code": "78516",
        "latitude": 0.09365315731016942,
        "longitude": 110.50304169830437
    },
    {
        "code": 6103012016,
        "district_code": 610301,
        "regency_code": 6103,
        "province_code": 61,
        "name": "Penyalimau",
        "postal_code": "78516",
        "latitude": -0.12393131340714743,
        "longitude": 110.50965470028791
    },
    {
        "code": 6103012017,
        "district_code": 610301,
        "regency_code": 6103,
        "province_code": 61,
        "name": "Sungai Alai",
        "postal_code": "78516",
        "latitude": -0.057519208472079766,
        "longitude": 110.43299578687086
    },
    {
        "code": 6103012018,
        "district_code": 610301,
        "regency_code": 6103,
        "province_code": 61,
        "name": "Semerangkai",
        "postal_code": "78516",
        "latitude": -0.009546617327787877,
        "longitude": 110.47015541231357
    },
    {
        "code": 6103012019,
        "district_code": 610301,
        "regency_code": 6103,
        "province_code": 61,
        "name": "Sungai Batu",
        "postal_code": "78516",
        "latitude": 0.02827802098205754,
        "longitude": 110.52833990345124
    },
    {
        "code": 6103012020,
        "district_code": 610301,
        "regency_code": 6103,
        "province_code": 61,
        "name": "Sungai Muntik",
        "postal_code": "78516",
        "latitude": -0.01652975517192895,
        "longitude": 110.55390264309966
    },
    {
        "code": 6103012021,
        "district_code": 610301,
        "regency_code": 6103,
        "province_code": 61,
        "name": "Lintang Kapuas",
        "postal_code": "78516",
        "latitude": 0.04575585374805396,
        "longitude": 110.5994670203874
    },
    {
        "code": 6103012022,
        "district_code": 610301,
        "regency_code": 6103,
        "province_code": 61,
        "name": "Lintang Pelaman",
        "postal_code": "78516",
        "latitude": -0.09165344439838441,
        "longitude": 110.59585464951839
    },
    {
        "code": 6103012023,
        "district_code": 610301,
        "regency_code": 6103,
        "province_code": 61,
        "name": "Belangin",
        "postal_code": "78516",
        "latitude": 0.006385427406687039,
        "longitude": 110.6262232927477
    },
    {
        "code": 6103012024,
        "district_code": 610301,
        "regency_code": 6103,
        "province_code": 61,
        "name": "Penyalimau Jaya",
        "postal_code": "78516",
        "latitude": -0.10082423422497083,
        "longitude": 110.45070329738455
    },
    {
        "code": 6103012025,
        "district_code": 610301,
        "regency_code": 6103,
        "province_code": 61,
        "name": "Tapang Dulang",
        "postal_code": "78516",
        "latitude": -0.16512314137380948,
        "longitude": 110.48439896656352
    },
    {
        "code": 6103012026,
        "district_code": 610301,
        "regency_code": 6103,
        "province_code": 61,
        "name": "Botuh Lintang",
        "postal_code": "78516",
        "latitude": -0.04633561229867363,
        "longitude": 110.69182597945692
    },
    {
        "code": 6103022001,
        "district_code": 610302,
        "regency_code": 6103,
        "province_code": 61,
        "name": "Kedukul",
        "postal_code": "78581",
        "latitude": 0.10895087421072693,
        "longitude": 110.77541461214777
    },
    {
        "code": 6103022002,
        "district_code": 610302,
        "regency_code": 6103,
        "province_code": 61,
        "name": "Semuntai",
        "postal_code": "78581",
        "latitude": 0.07110692515496801,
        "longitude": 110.73210397959764
    },
    {
        "code": 6103022003,
        "district_code": 610302,
        "regency_code": 6103,
        "province_code": 61,
        "name": "Engkode",
        "postal_code": "78581",
        "latitude": 0.18955617732636082,
        "longitude": 110.74774015890729
    },
    {
        "code": 6103022004,
        "district_code": 610302,
        "regency_code": 6103,
        "province_code": 61,
        "name": "Sungai Mawang",
        "postal_code": "78581",
        "latitude": 0.1502583762005047,
        "longitude": 110.82867482732853
    },
    {
        "code": 6103022005,
        "district_code": 610302,
        "regency_code": 6103,
        "province_code": 61,
        "name": "Inggis",
        "postal_code": "78581",
        "latitude": 0.017823324656409355,
        "longitude": 110.69984079680302
    },
    {
        "code": 6103022006,
        "district_code": 610302,
        "regency_code": 6103,
        "province_code": 61,
        "name": "Layak Omang",
        "postal_code": "78581",
        "latitude": 0.21995298946022263,
        "longitude": 110.86400489763432
    },
    {
        "code": 6103022007,
        "district_code": 610302,
        "regency_code": 6103,
        "province_code": 61,
        "name": "Semanggis Raya",
        "postal_code": "78581",
        "latitude": 0.006862859626328515,
        "longitude": 110.7281593647974
    },
    {
        "code": 6103022008,
        "district_code": 610302,
        "regency_code": 6103,
        "province_code": 61,
        "name": "Tri Mulya",
        "postal_code": "78581",
        "latitude": 0.1940085551620657,
        "longitude": 110.80298541929129
    },
    {
        "code": 6103022009,
        "district_code": 610302,
        "regency_code": 6103,
        "province_code": 61,
        "name": "Serambai Jaya",
        "postal_code": "78581",
        "latitude": 0.277947579638718,
        "longitude": 110.85032424493892
    },
    {
        "code": 6103032001,
        "district_code": 610303,
        "regency_code": 6103,
        "province_code": 61,
        "name": "Noyan",
        "postal_code": "78554",
        "latitude": 0.7819295421799884,
        "longitude": 110.59624454854439
    },
    {
        "code": 6103032002,
        "district_code": 610303,
        "regency_code": 6103,
        "province_code": 61,
        "name": "Empoto",
        "postal_code": "78554",
        "latitude": 0.6893094691809507,
        "longitude": 110.5038014093289
    },
    {
        "code": 6103032003,
        "district_code": 610303,
        "regency_code": 6103,
        "province_code": 61,
        "name": "Semongan",
        "postal_code": "78554",
        "latitude": 0.7154162717051891,
        "longitude": 110.66717519390815
    },
    {
        "code": 6103032004,
        "district_code": 610303,
        "regency_code": 6103,
        "province_code": 61,
        "name": "Sungai Dangin",
        "postal_code": "78554",
        "latitude": 0.6881415548794448,
        "longitude": 110.58499189469913
    },
    {
        "code": 6103032005,
        "district_code": 610303,
        "regency_code": 6103,
        "province_code": 61,
        "name": "Idas",
        "postal_code": "78554",
        "latitude": 0.6090969662711424,
        "longitude": 110.52801084003913
    },
    {
        "code": 6103042001,
        "district_code": 610304,
        "regency_code": 6103,
        "province_code": 61,
        "name": "Balai Sebut",
        "postal_code": "78591",
        "latitude": 0.48546064158433766,
        "longitude": 110.84720689002435
    },
    {
        "code": 6103042002,
        "district_code": 610304,
        "regency_code": 6103,
        "province_code": 61,
        "name": "Jangkang Benua",
        "postal_code": "78591",
        "latitude": 0.4556194510279953,
        "longitude": 110.78379509177684
    },
    {
        "code": 6103042003,
        "district_code": 610304,
        "regency_code": 6103,
        "province_code": 61,
        "name": "Tanggung",
        "postal_code": "78591",
        "latitude": 0.5261867786527326,
        "longitude": 110.78495065473076
    },
    {
        "code": 6103042004,
        "district_code": 610304,
        "regency_code": 6103,
        "province_code": 61,
        "name": "Empiyang",
        "postal_code": "78591",
        "latitude": 0.48910860099623493,
        "longitude": 110.70310717816906
    },
    {
        "code": 6103042005,
        "district_code": 610304,
        "regency_code": 6103,
        "province_code": 61,
        "name": "Pisang",
        "postal_code": "78591",
        "latitude": 0.6373709783871188,
        "longitude": 110.77776578107438
    },
    {
        "code": 6103042006,
        "district_code": 610304,
        "regency_code": 6103,
        "province_code": 61,
        "name": "Ketori",
        "postal_code": "78591",
        "latitude": 0.6479233006374518,
        "longitude": 110.92189847830403
    },
    {
        "code": 6103042007,
        "district_code": 610304,
        "regency_code": 6103,
        "province_code": 61,
        "name": "Semombat",
        "postal_code": "78591",
        "latitude": 0.4098043940690274,
        "longitude": 110.71754130088793
    },
    {
        "code": 6103042008,
        "district_code": 610304,
        "regency_code": 6103,
        "province_code": 61,
        "name": "Terati",
        "postal_code": "78591",
        "latitude": 0.3564377374066738,
        "longitude": 110.73262042031527
    },
    {
        "code": 6103042009,
        "district_code": 610304,
        "regency_code": 6103,
        "province_code": 61,
        "name": "Sape",
        "postal_code": "78591",
        "latitude": 0.3600360650006418,
        "longitude": 110.86375385998323
    },
    {
        "code": 6103042010,
        "district_code": 610304,
        "regency_code": 6103,
        "province_code": 61,
        "name": "Selampung",
        "postal_code": "78591",
        "latitude": 0.2893617811713311,
        "longitude": 110.73678046877947
    },
    {
        "code": 6103042011,
        "district_code": 610304,
        "regency_code": 6103,
        "province_code": 61,
        "name": "Semirau",
        "postal_code": "78591",
        "latitude": 0.5063095310355951,
        "longitude": 110.93107348439479
    },
    {
        "code": 6103052001,
        "district_code": 610305,
        "regency_code": 6103,
        "province_code": 61,
        "name": "Bonti",
        "postal_code": "78552",
        "latitude": 0.4114295688097473,
        "longitude": 110.52474333643933
    },
    {
        "code": 6103052002,
        "district_code": 610305,
        "regency_code": 6103,
        "province_code": 61,
        "name": "Sami",
        "postal_code": "78552",
        "latitude": 0.4011180713488838,
        "longitude": 110.58386497357752
    },
    {
        "code": 6103052003,
        "district_code": 610305,
        "regency_code": 6103,
        "province_code": 61,
        "name": "Bahta",
        "postal_code": "78552",
        "latitude": 0.3281596117003818,
        "longitude": 110.61792554201921
    },
    {
        "code": 6103052004,
        "district_code": 610305,
        "regency_code": 6103,
        "province_code": 61,
        "name": "Upe",
        "postal_code": "78552",
        "latitude": 0.35073904977203396,
        "longitude": 110.5252203060939
    },
    {
        "code": 6103052005,
        "district_code": 610305,
        "regency_code": 6103,
        "province_code": 61,
        "name": "Tunggul Boyok",
        "postal_code": "78552",
        "latitude": 0.42734374988787444,
        "longitude": 110.63930036165806
    },
    {
        "code": 6103052006,
        "district_code": 610305,
        "regency_code": 6103,
        "province_code": 61,
        "name": "Empodis",
        "postal_code": "78552",
        "latitude": 0.45589799492873884,
        "longitude": 110.56940179696055
    },
    {
        "code": 6103052007,
        "district_code": 610305,
        "regency_code": 6103,
        "province_code": 61,
        "name": "Kampuh",
        "postal_code": "78552",
        "latitude": 0.43288971801177994,
        "longitude": 110.46900983469648
    },
    {
        "code": 6103052008,
        "district_code": 610305,
        "regency_code": 6103,
        "province_code": 61,
        "name": "Bantai",
        "postal_code": "78552",
        "latitude": 0.5620930639694355,
        "longitude": 110.59440491676706
    },
    {
        "code": 6103052009,
        "district_code": 610305,
        "regency_code": 6103,
        "province_code": 61,
        "name": "Majel",
        "postal_code": "78552",
        "latitude": 0.5725059140072121,
        "longitude": 110.66236749243023
    },
    {
        "code": 6103062001,
        "district_code": 610306,
        "regency_code": 6103,
        "province_code": 61,
        "name": "Kasro Mego",
        "postal_code": "78555",
        "latitude": 0.7156427563478323,
        "longitude": 110.39443824542596
    },
    {
        "code": 6103062002,
        "district_code": 610306,
        "regency_code": 6103,
        "province_code": 61,
        "name": "Bereng Berkawat",
        "postal_code": "78555",
        "latitude": 0.6819556030979095,
        "longitude": 110.39527124700722
    },
    {
        "code": 6103062003,
        "district_code": 610306,
        "regency_code": 6103,
        "province_code": 61,
        "name": "Sungai Ilai",
        "postal_code": "78555",
        "latitude": 0.6687580614439724,
        "longitude": 110.29827470851002
    },
    {
        "code": 6103062004,
        "district_code": 610306,
        "regency_code": 6103,
        "province_code": 61,
        "name": "Thang Raya",
        "postal_code": "78555",
        "latitude": 0.7488103588551105,
        "longitude": 110.36028983509622
    },
    {
        "code": 6103062005,
        "district_code": 610306,
        "regency_code": 6103,
        "province_code": 61,
        "name": "Mawang Muda",
        "postal_code": "78555",
        "latitude": 0.7806339975191532,
        "longitude": 110.25828588662439
    },
    {
        "code": 6103072001,
        "district_code": 610307,
        "regency_code": 6103,
        "province_code": 61,
        "name": "Balai Karangan",
        "postal_code": "78556",
        "latitude": 0.8341485900248048,
        "longitude": 110.42874487352826
    },
    {
        "code": 6103072002,
        "district_code": 610307,
        "regency_code": 6103,
        "province_code": 61,
        "name": "Pengadang",
        "postal_code": "78556",
        "latitude": 0.7909521539113026,
        "longitude": 110.46532066107
    },
    {
        "code": 6103072003,
        "district_code": 610307,
        "regency_code": 6103,
        "province_code": 61,
        "name": "Sotok",
        "postal_code": "78556",
        "latitude": 0.7435188589842391,
        "longitude": 110.47400213999502
    },
    {
        "code": 6103072004,
        "district_code": 610307,
        "regency_code": 6103,
        "province_code": 61,
        "name": "Kenaman",
        "postal_code": "78556",
        "latitude": 0.7975193841182,
        "longitude": 110.40588426208475
    },
    {
        "code": 6103072005,
        "district_code": 610307,
        "regency_code": 6103,
        "province_code": 61,
        "name": "Raut Muara",
        "postal_code": "78556",
        "latitude": 0.8295721080551806,
        "longitude": 110.33573774901949
    },
    {
        "code": 6103072006,
        "district_code": 610307,
        "regency_code": 6103,
        "province_code": 61,
        "name": "Engkahan",
        "postal_code": "78556",
        "latitude": 0.8636600986858988,
        "longitude": 110.40371538633204
    },
    {
        "code": 6103072007,
        "district_code": 610307,
        "regency_code": 6103,
        "province_code": 61,
        "name": "Bungkang",
        "postal_code": "78556",
        "latitude": 0.857947457899052,
        "longitude": 110.47611184368706
    },
    {
        "code": 6103072008,
        "district_code": 610307,
        "regency_code": 6103,
        "province_code": 61,
        "name": "Lubuk Sabuk",
        "postal_code": "78556",
        "latitude": 0.829553240256623,
        "longitude": 110.56402968349985
    },
    {
        "code": 6103072009,
        "district_code": 610307,
        "regency_code": 6103,
        "province_code": 61,
        "name": "Sungai Tekam",
        "postal_code": "78556",
        "latitude": 0.8604914566484609,
        "longitude": 110.7045910979797
    },
    {
        "code": 6103072010,
        "district_code": 610307,
        "regency_code": 6103,
        "province_code": 61,
        "name": "Malenggang",
        "postal_code": "78556",
        "latitude": 0.7640606925956434,
        "longitude": 110.75402249053819
    },
    {
        "code": 6103082001,
        "district_code": 610308,
        "regency_code": 6103,
        "province_code": 61,
        "name": "Tanjung Bunga",
        "postal_code": "78553",
        "latitude": 0.6128644214451813,
        "longitude": 110.26683561804651
    },
    {
        "code": 6103082002,
        "district_code": 610308,
        "regency_code": 6103,
        "province_code": 61,
        "name": "Semayang",
        "postal_code": "78553",
        "latitude": 0.5725761288048226,
        "longitude": 110.31130621643985
    },
    {
        "code": 6103082003,
        "district_code": 610308,
        "regency_code": 6103,
        "province_code": 61,
        "name": "Sebongkuh",
        "postal_code": "78553",
        "latitude": 0.5975430367655555,
        "longitude": 110.41288873043236
    },
    {
        "code": 6103082004,
        "district_code": 610308,
        "regency_code": 6103,
        "province_code": 61,
        "name": "Kuala Dua",
        "postal_code": "78553",
        "latitude": 0.6355935704471629,
        "longitude": 110.40910162438742
    },
    {
        "code": 6103082005,
        "district_code": 610308,
        "regency_code": 6103,
        "province_code": 61,
        "name": "Tanjung Merpati",
        "postal_code": "78553",
        "latitude": 0.5626956872400121,
        "longitude": 110.39996552534555
    },
    {
        "code": 6103082006,
        "district_code": 610308,
        "regency_code": 6103,
        "province_code": 61,
        "name": "Sejuah",
        "postal_code": "78553",
        "latitude": 0.5620024206175479,
        "longitude": 110.47651754218411
    },
    {
        "code": 6103082007,
        "district_code": 610308,
        "regency_code": 6103,
        "province_code": 61,
        "name": "Mobui",
        "postal_code": "78553",
        "latitude": 0.5037522248347696,
        "longitude": 110.47548142859654
    },
    {
        "code": 6103082008,
        "district_code": 610308,
        "regency_code": 6103,
        "province_code": 61,
        "name": "Tanap",
        "postal_code": "78553",
        "latitude": 0.5185480990841361,
        "longitude": 110.38990809761613
    },
    {
        "code": 6103082009,
        "district_code": 610308,
        "regency_code": 6103,
        "province_code": 61,
        "name": "Sebuduh",
        "postal_code": "78553",
        "latitude": 0.49810782263374764,
        "longitude": 110.33319650491661
    },
    {
        "code": 6103082010,
        "district_code": 610308,
        "regency_code": 6103,
        "province_code": 61,
        "name": "Kelompu",
        "postal_code": "78553",
        "latitude": 0.4514482521975208,
        "longitude": 110.36516509039089
    },
    {
        "code": 6103082011,
        "district_code": 610308,
        "regency_code": 6103,
        "province_code": 61,
        "name": "Tunggal Bhakti",
        "postal_code": "78553",
        "latitude": 0.6324919901924948,
        "longitude": 110.35195940561694
    },
    {
        "code": 6103092001,
        "district_code": 610309,
        "regency_code": 6103,
        "province_code": 61,
        "name": "Pusat Damai",
        "postal_code": "78561",
        "latitude": 0.20913259515369115,
        "longitude": 110.42858858933525
    },
    {
        "code": 6103092002,
        "district_code": 610309,
        "regency_code": 6103,
        "province_code": 61,
        "name": "Maju Karya",
        "postal_code": "78561",
        "latitude": 0.14816210011061048,
        "longitude": 110.4281694767781
    },
    {
        "code": 6103092003,
        "district_code": 610309,
        "regency_code": 6103,
        "province_code": 61,
        "name": "Sebara",
        "postal_code": "78561",
        "latitude": 0.17583712412112062,
        "longitude": 110.465979774198
    },
    {
        "code": 6103092004,
        "district_code": 610309,
        "regency_code": 6103,
        "province_code": 61,
        "name": "Pandu Raya",
        "postal_code": "78561",
        "latitude": 0.05439768482870123,
        "longitude": 110.43558637317908
    },
    {
        "code": 6103092005,
        "district_code": 610309,
        "regency_code": 6103,
        "province_code": 61,
        "name": "Embala",
        "postal_code": "78561",
        "latitude": 0.09270883353390122,
        "longitude": 110.37688990601727
    },
    {
        "code": 6103092006,
        "district_code": 610309,
        "regency_code": 6103,
        "province_code": 61,
        "name": "Hibun",
        "postal_code": "78561",
        "latitude": 0.24609839668893907,
        "longitude": 110.46196751937532
    },
    {
        "code": 6103092007,
        "district_code": 610309,
        "regency_code": 6103,
        "province_code": 61,
        "name": "Maringin Jaya",
        "postal_code": "78561",
        "latitude": 0.3144493301700539,
        "longitude": 110.4583104538026
    },
    {
        "code": 6103092008,
        "district_code": 610309,
        "regency_code": 6103,
        "province_code": 61,
        "name": "Suka Mulya",
        "postal_code": "78561",
        "latitude": 0.21922862669427626,
        "longitude": 110.35532029560594
    },
    {
        "code": 6103092009,
        "district_code": 610309,
        "regency_code": 6103,
        "province_code": 61,
        "name": "Palem Jaya",
        "postal_code": "78561",
        "latitude": 0.2473588230299483,
        "longitude": 110.38568319921396
    },
    {
        "code": 6103092010,
        "district_code": 610309,
        "regency_code": 6103,
        "province_code": 61,
        "name": "Rahayu",
        "postal_code": "78561",
        "latitude": 0.3548508732709561,
        "longitude": 110.40770899300996
    },
    {
        "code": 6103092011,
        "district_code": 610309,
        "regency_code": 6103,
        "province_code": 61,
        "name": "Dosan",
        "postal_code": "78561",
        "latitude": 0.2730063615777009,
        "longitude": 110.52684458540652
    },
    {
        "code": 6103092012,
        "district_code": 610309,
        "regency_code": 6103,
        "province_code": 61,
        "name": "Suka Gerundi",
        "postal_code": "78561",
        "latitude": 0.23899572983236203,
        "longitude": 110.33729321269372
    },
    {
        "code": 6103092013,
        "district_code": 610309,
        "regency_code": 6103,
        "province_code": 61,
        "name": "Gunam",
        "postal_code": "78561",
        "latitude": 0.17780013540977663,
        "longitude": 110.36941618102324
    },
    {
        "code": 6103092014,
        "district_code": 610309,
        "regency_code": 6103,
        "province_code": 61,
        "name": "Marita",
        "postal_code": "78561",
        "latitude": 0.1384939260609948,
        "longitude": 110.31539919860055
    },
    {
        "code": 6103102001,
        "district_code": 610310,
        "regency_code": 6103,
        "province_code": 61,
        "name": "Sosok",
        "postal_code": "78562",
        "latitude": 0.2833936885308774,
        "longitude": 110.24505310897968
    },
    {
        "code": 6103102002,
        "district_code": 610310,
        "regency_code": 6103,
        "province_code": 61,
        "name": "Peruan Dalam",
        "postal_code": "78562",
        "latitude": 0.28807905960380353,
        "longitude": 110.17360859955151
    },