[
    {
        "code": 520101,
        "regency_code": 5201,
        "province_code": 52,
        "name": "Gerung",
        "latitude": -8.691136492769726,
        "longitude": 116.12106839167446
    },
    {
        "code": 520102,
        "regency_code": 5201,
        "province_code": 52,
        "name": "Kediri",
        "latitude": -8.645051059202958,
        "longitude": 116.14241573169522
    },
    {
        "code": 520103,
        "regency_code": 5201,
        "province_code": 52,
        "name": "Narmada",
        "latitude": -8.528794806651181,
        "longitude": 116.2581856374703
    },
    {
        "code": 520107,
        "regency_code": 5201,
        "province_code": 52,
        "name": "Sekotong",
        "latitude": -8.8037834438884,
        "longitude": 115.97322920951125
    },
    {
        "code": 520108,
        "regency_code": 5201,
        "province_code": 52,
        "name": "Labuapi",
        "latitude": -8.630509814256424,
        "longitude": 116.11501758544892
    },
    {
        "code": 520109,
        "regency_code": 5201,
        "province_code": 52,
        "name": "Gunungsari",
        "latitude": -8.504103017563844,
        "longitude": 116.133291821616
    },
    {
        "code": 520112,
        "regency_code": 5201,
        "province_code": 52,
        "name": "Lingsar",
        "latitude": -8.52359982275104,
        "longitude": 116.20156992306335
    },
    {
        "code": 520113,
        "regency_code": 5201,
        "province_code": 52,
        "name": "Lembar",
        "latitude": -8.74660482039632,
        "longitude": 116.09509950810357
    },
    {
        "code": 520114,
        "regency_code": 5201,
        "province_code": 52,
        "name": "Batu Layar",
        "latitude": -8.502810333166405,
        "longitude": 116.07257255364814
    },
    {
        "code": 520115,
        "regency_code": 5201,
        "province_code": 52,
        "name": "Kuripan",
        "latitude": -8.678215371993693,
        "longitude": 116.16977442111846
    },
    {
        "code": 520201,
        "regency_code": 5202,
        "province_code": 52,
        "name": "Praya",
        "latitude": -8.684093593011992,
        "longitude": 116.28136910752123
    },
    {
        "code": 520202,
        "regency_code": 5202,
        "province_code": 52,
        "name": "Jonggat",
        "latitude": -8.671001263640749,
        "longitude": 116.22093149640033
    },
    {
        "code": 520203,
        "regency_code": 5202,
        "province_code": 52,
        "name": "Batukliang",
        "latitude": -8.618030087026584,
        "longitude": 116.3098994881905
    },
    {
        "code": 520204,
        "regency_code": 5202,
        "province_code": 52,
        "name": "Pujut",
        "latitude": -8.851420959398679,
        "longitude": 116.30928855931437
    },
    {
        "code": 520205,
        "regency_code": 5202,
        "province_code": 52,
        "name": "Praya Barat",
        "latitude": -8.822308645012653,
        "longitude": 116.20676242628106
    },
    {
        "code": 520206,
        "regency_code": 5202,
        "province_code": 52,
        "name": "Praya Timur",
        "latitude": -8.786742307719484,
        "longitude": 116.38179350785249
    },
    {
        "code": 520207,
        "regency_code": 5202,
        "province_code": 52,
        "name": "Janapria",
        "latitude": -8.708867108462618,
        "longitude": 116.39362724033415
    },
    {
        "code": 520208,
        "regency_code": 5202,
        "province_code": 52,
        "name": "Pringgarata",
        "latitude": -8.607297152472231,
        "longitude": 116.24070732831537
    },
    {
        "code": 520209,
        "regency_code": 5202,
        "province_code": 52,
        "name": "Kopang",
        "latitude": -8.607038244545524,
        "longitude": 116.36148122523774
    },
    {
        "code": 520210,
        "regency_code": 5202,
        "province_code": 52,
        "name": "Praya Tengah",
        "latitude": -8.72817242452829,
        "longitude": 116.32000612669067
    },
    {
        "code": 520211,
        "regency_code": 5202,
        "province_code": 52,
        "name": "Praya Barat Daya",
        "latitude": -8.780243578366,
        "longitude": 116.16473079295315
    },
    {
        "code": 520212,
        "regency_code": 5202,
        "province_code": 52,
        "name": "Batukliang Utara",
        "latitude": -8.503647528393493,
        "longitude": 116.34280163067764
    },
    {
        "code": 520301,
        "regency_code": 5203,
        "province_code": 52,
        "name": "Keruak",
        "latitude": -8.760256727330887,
        "longitude": 116.48369911639135
    },
    {
        "code": 520302,
        "regency_code": 5203,
        "province_code": 52,
        "name": "Sakra",
        "latitude": -8.680190524418208,
        "longitude": 116.47505126476426
    },
    {
        "code": 520303,
        "regency_code": 5203,
        "province_code": 52,
        "name": "Terara",
        "latitude": -8.650971715844042,
        "longitude": 116.40532270923302
    },
    {
        "code": 520304,
        "regency_code": 5203,
        "province_code": 52,
        "name": "Sikur",
        "latitude": -8.565109710956545,
        "longitude": 116.42649823903561
    },
    {
        "code": 520305,
        "regency_code": 5203,
        "province_code": 52,
        "name": "Masbagik",
        "latitude": -8.604096366207509,
        "longitude": 116.45531674199138
    },
    {
        "code": 520306,
        "regency_code": 5203,
        "province_code": 52,
        "name": "Sukamulia",
        "latitude": -8.640221933961316,
        "longitude": 116.49161584358568
    },
    {
        "code": 520307,
        "regency_code": 5203,
        "province_code": 52,
        "name": "Selong",
        "latitude": -8.660025215832007,
        "longitude": 116.53323019477794
    },
    {
        "code": 520308,
        "regency_code": 5203,
        "province_code": 52,
        "name": "Pringgabaya",
        "latitude": -8.508745175965698,
        "longitude": 116.6375117990848
    },
    {
        "code": 520309,
        "regency_code": 5203,
        "province_code": 52,
        "name": "Aikmel",
        "latitude": -8.51177105692954,
        "longitude": 116.50552566912462
    },
    {
        "code": 520310,
        "regency_code": 5203,
        "province_code": 52,
        "name": "Sambelia",
        "latitude": -8.347155099649685,
        "longitude": 116.62267343426434
    },
    {
        "code": 520311,
        "regency_code": 5203,
        "province_code": 52,
        "name": "Montong Gading",
        "latitude": -8.556110392716999,
        "longitude": 116.3972430009291
    },
    {
        "code": 520312,
        "regency_code": 5203,
        "province_code": 52,
        "name": "Pringgasela",
        "latitude": -8.531395484307598,
        "longitude": 116.45549831768739
    },
    {
        "code": 520313,
        "regency_code": 5203,
        "province_code": 52,
        "name": "Suralaga",
        "latitude": -8.61885148534094,
        "longitude": 116.5411345058186
    },
    {
        "code": 520314,
        "regency_code": 5203,
        "province_code": 52,
        "name": "Wanasaba",
        "latitude": -8.51839997397041,
        "longitude": 116.54310816747208
    },
    {
        "code": 520315,
        "regency_code": 5203,
        "province_code": 52,
        "name": "Sembalun",
        "latitude": -8.369224002612667,
        "longitude": 116.49716157252392
    },
    {
        "code": 520316,
        "regency_code": 5203,
        "province_code": 52,
        "name": "Suwela",
        "latitude": -8.483121771127175,
        "longitude": 116.58583395718684
    },
    {
        "code": 520317,
        "regency_code": 5203,
        "province_code": 52,
        "name": "Labuhan Haji",
        "latitude": -8.652921472901491,
        "longitude": 116.58243799692478
    },
    {
        "code": 520318,
        "regency_code": 5203,
        "province_code": 52,
        "name": "Sakra Timur",
        "latitude": -8.714367665172814,
        "longitude": 116.52373405273423
    },
    {
        "code": 520319,
        "regency_code": 5203,
        "province_code": 52,
        "name": "Sakra Barat",
        "latitude": -8.723585149499666,
        "longitude": 116.47457810572402
    },
    {
        "code": 520320,
        "regency_code": 5203,
        "province_code": 52,
        "name": "Jerowaru",
        "latitude": -8.845608648525811,
        "longitude": 116.48094585539889
    },
    {
        "code": 520321,
        "regency_code": 5203,
        "province_code": 52,
        "name": "Lenek",
        "latitude": -8.52773386487074,
        "longitude": 116.49097569682914
    },
    {
        "code": 520402,
        "regency_code": 5204,
        "province_code": 52,
        "name": "Lunyuk",
        "latitude": -8.948140914585203,
        "longitude": 117.21652674852734
    },
    {
        "code": 520405,
        "regency_code": 5204,
        "province_code": 52,
        "name": "Alas",
        "latitude": -8.576168045394976,
        "longitude": 117.03346187401111
    },
    {
        "code": 520406,
        "regency_code": 5204,
        "province_code": 52,
        "name": "Utan",
        "latitude": -8.437823671870678,
        "longitude": 117.1412623237838
    },
    {
        "code": 520407,
        "regency_code": 5204,
        "province_code": 52,
        "name": "Batu Lanteh",
        "latitude": -8.63003990342053,
        "longitude": 117.20341538351454
    },
    {
        "code": 520408,
        "regency_code": 5204,
        "province_code": 52,
        "name": "Sumbawa",
        "latitude": -8.473601122563531,
        "longitude": 117.43058768316513
    },
    {
        "code": 520409,
        "regency_code": 5204,
        "province_code": 52,
        "name": "Moyo Hilir",
        "latitude": -8.50766930661187,
        "longitude": 117.54146746616541
    },
    {
        "code": 520410,
        "regency_code": 5204,
        "province_code": 52,
        "name": "Moyo Hulu",
        "latitude": -8.643611897348855,
        "longitude": 117.40413779571819
    },
    {
        "code": 520411,
        "regency_code": 5204,
        "province_code": 52,
        "name": "Ropang",
        "latitude": -8.915924591399124,
        "longitude": 117.49107242853663
    },
    {
        "code": 520412,
        "regency_code": 5204,
        "province_code": 52,
        "name": "Lape",
        "latitude": -8.574465291065556,
        "longitude": 117.6416059076549
    },
    {
        "code": 520413,
        "regency_code": 5204,
        "province_code": 52,
        "name": "Plampang",
        "latitude": -8.800904399127674,
        "longitude": 117.79926087787727
    },
    {
        "code": 520414,
        "regency_code": 5204,
        "province_code": 52,
        "name": "Empang",
        "latitude": -8.804029424528805,
        "longitude": 118.00699676644791
    },
    {
        "code": 520417,
        "regency_code": 5204,
        "province_code": 52,
        "name": "Alas Barat",
        "latitude": -8.537856322095736,
        "longitude": 116.93953080200816
    },
    {
        "code": 520418,
        "regency_code": 5204,
        "province_code": 52,
        "name": "Labuhan Badas",
        "latitude": -8.289908654836365,
        "longitude": 117.51136095491115
    },
    {
        "code": 520419,
        "regency_code": 5204,
        "province_code": 52,
        "name": "Labangka",
        "latitude": -8.899017447985289,
        "longitude": 117.71350111932837
    },
    {
        "code": 520420,
        "regency_code": 5204,
        "province_code": 52,
        "name": "Buer",
        "latitude": -8.50357594158246,
        "longitude": 117.0810091276482
    },
    {
        "code": 520421,
        "regency_code": 5204,
        "province_code": 52,
        "name": "Rhee",
        "latitude": -8.491435157394962,
        "longitude": 117.23468425957846
    },
    {
        "code": 520422,
        "regency_code": 5204,
        "province_code": 52,
        "name": "Unter Iwes",
        "latitude": -8.547561163921422,
        "longitude": 117.39982512661241
    },
    {
        "code": 520423,
        "regency_code": 5204,
        "province_code": 52,
        "name": "Moyo Utara",
        "latitude": -8.444536757167619,
        "longitude": 117.49106637739396
    },
    {
        "code": 520424,
        "regency_code": 5204,
        "province_code": 52,
        "name": "Maronge",
        "latitude": -8.714241087958138,
        "longitude": 117.6696035157918
    },
    {
        "code": 520425,
        "regency_code": 5204,
        "province_code": 52,
        "name": "Tarano",
        "latitude": -8.742935557707062,
        "longitude": 118.1480726828583
    },
    {
        "code": 520426,
        "regency_code": 5204,
        "province_code": 52,
        "name": "Lopok",
        "latitude": -8.646124115513645,
        "longitude": 117.54967821478361
    },
    {
        "code": 520427,
        "regency_code": 5204,
        "province_code": 52,
        "name": "Lenangguar",
        "latitude": -8.778459788203248,
        "longitude": 117.36211616147752
    },
    {
        "code": 520428,
        "regency_code": 5204,
        "province_code": 52,
        "name": "Orong Telu",
        "latitude": -8.772166551955523,
        "longitude": 117.16734715413779
    },
    {
        "code": 520429,
        "regency_code": 5204,
        "province_code": 52,
        "name": "Lantung",
        "latitude": -8.764129870660895,
        "longitude": 117.52396616380143
    },
    {
        "code": 520501,
        "regency_code": 5205,
        "province_code": 52,
        "name": "Dompu",
        "latitude": -8.499101732861272,
        "longitude": 118.47663822239436
    },
    {
        "code": 520502,
        "regency_code": 5205,
        "province_code": 52,
        "name": "Kempo",
        "latitude": -8.495930550752183,
        "longitude": 118.20385469897808
    },
    {
        "code": 520503,
        "regency_code": 5205,
        "province_code": 52,
        "name": "Hu'u",
        "latitude": -8.781111788350353,
        "longitude": 118.44734750105384
    },
    {
        "code": 520504,
        "regency_code": 5205,
        "province_code": 52,
        "name": "Kilo",
        "latitude": -8.36688804180167,
        "longitude": 118.39365149054785
    },
    {
        "code": 520505,
        "regency_code": 5205,
        "province_code": 52,
        "name": "Woja",
        "latitude": -8.528412106737495,
        "longitude": 118.3985275886696
    },
    {
        "code": 520506,
        "regency_code": 5205,
        "province_code": 52,
        "name": "Pekat",
        "latitude": -8.32107251015164,
        "longitude": 117.91551354263376
    },
    {
        "code": 520507,
        "regency_code": 5205,
        "province_code": 52,
        "name": "Manggalewa",
        "latitude": -8.563415990704783,
        "longitude": 118.29342316944613
    },
    {
        "code": 520508,
        "regency_code": 5205,
        "province_code": 52,
        "name": "Pajo",
        "latitude": -8.637950262056496,
        "longitude": 118.48162331068868
    },
    {
        "code": 520601,
        "regency_code": 5206,
        "province_code": 52,
        "name": "Monta",
        "latitude": -8.720206397087825,
        "longitude": 118.67260932022216
    },
    {
        "code": 520602,
        "regency_code": 5206,
        "province_code": 52,
        "name": "Bolo",
        "latitude": -8.503880670753627,
        "longitude": 118.62747841636715
    },
    {
        "code": 520603,
        "regency_code": 5206,
        "province_code": 52,
        "name": "Woha",
        "latitude": -8.602997015538119,
        "longitude": 118.64719525971766
    },
    {
        "code": 520604,
        "regency_code": 5206,
        "province_code": 52,
        "name": "Belo",
        "latitude": -8.618889455977909,
        "longitude": 118.73758044555427
    },
    {
        "code": 520605,
        "regency_code": 5206,
        "province_code": 52,
        "name": "Wawo",
        "latitude": -8.558779387144426,
        "longitude": 118.85957219415647
    },
    {
        "code": 520606,
        "regency_code": 5206,
        "province_code": 52,
        "name": "Sape",
        "latitude": -8.519303817296944,
        "longitude": 119.01282976182976
    },
    {
        "code": 520607,
        "regency_code": 5206,
        "province_code": 52,
        "name": "Wera",
        "latitude": -8.32325089428047,
        "longitude": 118.97548182453593
    },
    {
        "code": 520608,
        "regency_code": 5206,
        "province_code": 52,
        "name": "Donggo",
        "latitude": -8.434051447892436,
        "longitude": 118.56244247581321
    },
    {
        "code": 520609,
        "regency_code": 5206,
        "province_code": 52,
        "name": "Sanggar",
        "latitude": -8.343155452286322,
        "longitude": 118.18338031275415
    },
    {
        "code": 520610,
        "regency_code": 5206,
        "province_code": 52,
        "name": "Ambalawi",
        "latitude": -8.357892542904457,
        "longitude": 118.8096265822531
    },
    {
        "code": 520611,
        "regency_code": 5206,
        "province_code": 52,
        "name": "Langgudu",
        "latitude": -8.740326885506926,
        "longitude": 118.8362780285042
    },
    {
        "code": 520612,
        "regency_code": 5206,
        "province_code": 52,
        "name": "Lambu",
        "latitude": -8.661879572451483,
        "longitude": 119.03970396523617
    },
    {
        "code": 520613,
        "regency_code": 5206,
        "province_code": 52,
        "name": "Madapangga",
        "latitude": -8.596854402680691,
        "longitude": 118.55824735590836
    },
    {
        "code": 520614,
        "regency_code": 5206,
        "province_code": 52,
        "name": "Tambora",
        "latitude": -8.184836324594514,
        "longitude": 117.98708932909203
    },
    {
        "code": 520615,
        "regency_code": 5206,
        "province_code": 52,
        "name": "Soromandi",
        "latitude": -8.344086912316865,
        "longitude": 118.59000125678024
    },
    {
        "code": 520616,
        "regency_code": 5206,
        "province_code": 52,
        "name": "Parado",
        "latitude": -8.793654543534506,
        "longitude": 118.55411389119112
    },
    {
        "code": 520617,
        "regency_code": 5206,
        "province_code": 52,
        "name": "Lambitu",
        "latitude": -8.572285313949704,
        "longitude": 118.78711435256918
    },
    {
        "code": 520618,
        "regency_code": 5206,
        "province_code": 52,
        "name": "Palibelo",
        "latitude": -8.537341880634997,
        "longitude": 118.73282695407151
    },
    {
        "code": 520701,
        "regency_code": 5207,
        "province_code": 52,
        "name": "Jereweh",
        "latitude": -8.923003275584717,
        "longitude": 116.94770948448134
    },
    {
        "code": 520702,
        "regency_code": 5207,
        "province_code": 52,
        "name": "Taliwang",
        "latitude": -8.736664184476737,
        "longitude": 116.8366425654394
    },
    {
        "code": 520703,
        "regency_code": 5207,
        "province_code": 52,
        "name": "Seteluk",
        "latitude": -8.644022903386665,
        "longitude": 116.87118482529308
    },
    {
        "code": 520704,
        "regency_code": 5207,
        "province_code": 52,
        "name": "Sekongkang",
        "latitude": -9.014163473525473,
        "longitude": 116.87479354158627
    },
    {
        "code": 520705,
        "regency_code": 5207,
        "province_code": 52,
        "name": "Brang Rea",
        "latitude": -8.712906477094837,
        "longitude": 116.98873039370014
    },
    {
        "code": 520706,
        "regency_code": 5207,
        "province_code": 52,
        "name": "Poto Tano",
        "latitude": -8.598070832442929,
        "longitude": 116.82726558729497
    },
    {
        "code": 520707,
        "regency_code": 5207,
        "province_code": 52,
        "name": "Brang Ene",
        "latitude": -8.825549496737906,
        "longitude": 116.92654762728029
    },
    {
        "code": 520708,
        "regency_code": 5207,
        "province_code": 52,
        "name": "Maluk",
        "latitude": -8.913372407021646,
        "longitude": 116.76221840053385
    },
    {
        "code": 520801,
        "regency_code": 5208,
        "province_code": 52,
        "name": "Tanjung",
        "latitude": -8.416678120572954,
        "longitude": 116.17256690454273
    },
    {
        "code": 520802,
        "regency_code": 5208,
        "province_code": 52,
        "name": "Gangga",
        "latitude": -8.365156332603068,
        "longitude": 116.2523069541186
    },
    {
        "code": 520803,
        "regency_code": 5208,
        "province_code": 52,
        "name": "Kayangan",
        "latitude": -8.316919888366014,
        "longitude": 116.319082805044
    },
    {
        "code": 520804,
        "regency_code": 5208,
        "province_code": 52,
        "name": "Bayan",
        "latitude": -8.295161090338866,
        "longitude": 116.40443493210718
    },
    {
        "code": 520805,
        "regency_code": 5208,
        "province_code": 52,
        "name": "Pemenang",
        "latitude": -8.428001067961626,
        "longitude": 116.0808992671049
    },
    {
        "code": 527101,
        "regency_code": 5271,
        "province_code": 52,
        "name": "Ampenan",
        "latitude": -8.570668354131113,
        "longitude": 116.08391419366852
    },
    {
        "code": 527102,
        "regency_code": 5271,
        "province_code": 52,
        "name": "Mataram",
        "latitude": -8.601339708226739,
        "longitude": 116.1105580278049
    },
    {
        "code": 527103,
        "regency_code": 5271,
        "province_code": 52,
        "name": "Cakranegara",
        "latitude": -8.584134327776113,
        "longitude": 116.13043807303305
    },
    {
        "code": 527104,
        "regency_code": 5271,
        "province_code": 52,
        "name": "Sekarbela",
        "latitude": -8.608043742133605,
        "longitude": 116.08712335513756
    },
    {
        "code": 527105,
        "regency_code": 5271,
        "province_code": 52,
        "name": "Selaprang",
        "latitude": -8.572825717989286,
        "longitude": 116.1066563357108
    },
    {
        "code": 527106,
        "regency_code": 5271,
        "province_code": 52,
        "name": "Sandubaya",
        "latitude": -8.597840602545254,
        "longitude": 116.14484065616975
    },
    {
        "code": 527201,
        "regency_code": 5272,
        "province_code": 52,
        "name": "RasanaE Barat",
        "latitude": -8.469054152156174,
        "longitude": 118.7208535997453
    },
    {
        "code": 527202,
        "regency_code": 5272,
        "province_code": 52,
        "name": "RasanaE Timur",
        "latitude": -8.48727351026583,
        "longitude": 118.82129869690384
    },
    {
        "code": 527203,
        "regency_code": 5272,
        "province_code": 52,
        "name": "Asakota",
        "latitude": -8.409319756307417,
        "longitude": 118.74297238157878
    },
    {
        "code": 527204,
        "regency_code": 5272,
        "province_code": 52,
        "name": "Raba",
        "latitude": -8.45993548571506,
        "longitude": 118.79934343254529
    },
    {
        "code": 527205,
        "regency_code": 5272,
        "province_code": 52,
        "name": "Mpunda",
        "latitude": -8.468322541099091,
        "longitude": 118.74559776076282
    }
]