[
    {
        "code": 5201,
        "province_code": 52,
        "name": "Kab. Lombok Barat",
        "latitude": -8.665468042936132,
        "longitude": 116.0934574456719
    },
    {
        "code": 5202,
        "province_code": 52,
        "name": "Kab. Lombok Tengah",
        "latitude": -8.72214701149353,
        "longitude": 116.28983887403636
    },
    {
        "code": 5203,
        "province_code": 52,
        "name": "Kab. Lombok Timur",
        "latitude": -8.532324119332554,
        "longitude": 116.53081208389017
    },
    {
        "code": 5204,
        "province_code": 52,
        "name": "Kab. Sumbawa",
        "latitude": -8.703298122597804,
        "longitude": 117.48426111079142
    },
    {
        "code": 5205,
        "province_code": 52,
        "name": "Kab. Dompu",
        "latitude": -8.472224492886417,
        "longitude": 118.21686473283386
    },
    {
        "code": 5206,
        "province_code": 52,
        "name": "Kab. Bima",
        "latitude": -8.474806634490488,
        "longitude": 118.61901683987931
    },
    {
        "code": 5207,
        "province_code": 52,
        "name": "Kab. Sumbawa Barat",
        "latitude": -8.830288146953638,
        "longitude": 116.91442832769782
    },
    {
        "code": 5208,
        "province_code": 52,
        "name": "Kab. Lombok Utara",
        "latitude": -8.348893738948336,
        "longitude": 116.28292084053918
    },
    {
        "code": 5271,
        "province_code": 52,
        "name": "Kota Mataram",
        "latitude": -8.590154382224897,
        "longitude": 116.11095859047046
    },
    {
        "code": 5272,
        "province_code": 52,
        "name": "Kota Bima",
        "latitude": -8.454868239344206,
        "longitude": 118.78210646272291
    }
]