code,province_code,name,latitude,longitude
7501,75,"Kab. Gorontalo",0.69289934466977,122.71251784119
7502,75,"Kab. Boalemo",0.6529067801726,122.32708525079
7503,75,"Kab. Bone Bolango",0.53236778266003,123.29231311944
7504,75,"Kab. Pohuwato",0.68834693005905,121.7098288114
7505,75,"Kab. Gorontalo Utara",0.8855698802076,122.66453457424
7571,75,"Kota Gorontalo",0.53840854107228,123.05530113282
