code,province_code,name,latitude,longitude
7501,75,"Kab. Gorontalo",0.62900302247021,122.98093758488
7502,75,"Kab. Boalemo",0.5292719285161,122.34754187571
7503,75,"Kab. Bone Bolango",0.55741133942478,123.14391729847
7504,75,"Kab. Pohuwato",0.7055278,121.7195459
7505,75,"Kab. Gorontalo Utara",0.7909498464253,122.86871529759
7571,75,"Kota Gorontalo",0.53190605775921,123.05950265285
