[
    {
        "code": 7501,
        "province_code": 75,
        "name": "Kab. Gorontalo",
        "latitude": 0.6928993446697708,
        "longitude": 122.7125178411949
    },
    {
        "code": 7502,
        "province_code": 75,
        "name": "Kab. Boalemo",
        "latitude": 0.6529067801725993,
        "longitude": 122.32708525079249
    },
    {
        "code": 7503,
        "province_code": 75,
        "name": "Kab. Bone Bolango",
        "latitude": 0.532367782660029,
        "longitude": 123.29231311944298
    },
    {
        "code": 7504,
        "province_code": 75,
        "name": "Kab. Pohuwato",
        "latitude": 0.6883469300590475,
        "longitude": 121.70982881139754
    },
    {
        "code": 7505,
        "province_code": 75,
        "name": "Kab. Gorontalo Utara",
        "latitude": 0.8855698802075952,
        "longitude": 122.66453457423844
    },
    {
        "code": 7571,
        "province_code": 75,
        "name": "Kota Gorontalo",
        "latitude": 0.538408541072283,
        "longitude": 123.05530113282344
    }
]